Name, County, ClimateDivision, Longitude, Latitude, Elevation, MeanAvgTemperature, TotalPrecipitation
IMPERIAL, Imperial, CA07, -115.567, 32.849, -64, 86.5, 0.04
EL CAPITAN DAM, San Diego, CA06, -116.815, 32.886, 600, 73.9, 0.32
LAKESIDE 2 E, San Diego, CA06, -116.895, 32.854, 690, M, 0.19
POWAY VALLEY, San Diego, CA06, -117.031, 33.020, 648, 70.4, 0.32
JULIAN CDF, San Diego, CA06, -116.592, 33.076, 4215, 66.0, 0.10
RAMONA FIRE DEPT, San Diego, CA06, -116.908, 33.011, 1470, 70.4, 0.37
SAN PASQUAL ANIMAL PK, San Diego, CA06, -116.997, 33.096, 420, 72.9, 0.00
CARLSBAD MCCLELLAN PALOMAR AP, San Diego, CA06, -117.277, 33.130, 313, 68.4, 0.10
HENSHAW DAM, San Diego, CA06, -116.761, 33.237, 2700, 67.5, 0.43
VISTA, San Diego, CA06, -117.232, 33.235, 430, 73.1, 0.13
OCEANSIDE MARINA, San Diego, CA06, -117.395, 33.210, 10, 66.5, 0.08
NILAND, Imperial, CA07, -115.524, 33.278, -60, M, 0.00
BORREGO DESERT PARK, San Diego, CA07, -116.404, 33.256, 810, 85.5, 0.08
PALOMAR MTN OBSERVATORY, San Diego, CA06, -116.840, 33.378, 5550, 71.9, 1.07
TEMECULA, Riverside, CA06, -117.151, 33.497, 1020, 74.0, 0.31
MECCA FIRE STATION, Riverside, CA07, -116.073, 33.570, -183, 84.9, 0.00
ANZA, Riverside, CA06, -116.674, 33.556, 3915, M, 0.00
LAGUNA BEACH, Orange, CA06, -117.781, 33.545, 44, 70.8, 0.19
BLYTHE ASOS, Riverside, CA07, -114.715, 33.619, 395, 87.8, 0.00
DESERT RESORTS REGIONAL AP, Riverside, CA07, -116.164, 33.632, -118, 84.1, 0.04
DEEP CANYON LAB, Riverside, CA07, -116.376, 33.651, 1200, M, 0.12
ELSINORE, Riverside, CA06, -117.346, 33.686, 1268, 76.0, 0.00
SANTA ANA JOHN WAYNE AP, Orange, CA06, -117.867, 33.680, 43, 71.8, 0.06
HAYFIELD PUMPING PLANT, Riverside, CA07, -115.629, 33.704, 1370, 82.1, 0.00
SUN CITY, Riverside, CA06, -117.190, 33.716, 1420, 76.6, 0.00
IDYLLWILD FIRE DEPT, Riverside, CA06, -116.707, 33.757, 5380, 63.5, 1.06
SAN JACINTO, Riverside, CA06, -116.975, 33.797, 1525, 75.1, 0.22
HEMET, Riverside, CA06, -116.894, 33.738, 1811, 76.1, 0.32
SANTA ANA FIRE STATION, Orange, CA06, -117.867, 33.744, 135, 72.9, 0.06
EAGLE MOUNTAIN, Riverside, CA07, -115.451, 33.809, 973, 85.7, 0.00
PALM SPRINGS, Riverside, CA07, -116.510, 33.828, 425, 86.9, 0.11
LONG BEACH DAUGHERTY AP, Los Angeles, CA06, -118.147, 33.812, 34, 72.4, T
SNOW CREEK UPPER, Riverside, CA07, -116.680, 33.873, 1940, M, 0.40
FULLERTON MUNICIPAL AP, Orange, CA06, -117.986, 33.872, 86, 73.6, 0.26
BEAUMONT #2, Riverside, CA07, -116.990, 33.926, 2591, 74.3, 0.26
HAWTHORNE MUNICIPAL AP, Los Angeles, CA06, -118.333, 33.924, 55, 70.8, 0.06
LOS ANGELES INTL AP, Los Angeles, CA06, -118.387, 33.938, 97, 69.6, 0.03
RIVERSIDE FIRE STATION 3, Riverside, CA06, -117.388, 33.951, 840, 77.4, 0.00
RIVERSIDE MUNICIPAL AP, Riverside, CA06, -117.435, 33.953, 845, 74.1, 0.04
CHINO AP, San Bernardino, CA06, -117.625, 33.976, 636, 72.6, 0.14
RIVERSIDE CITRUS EXP, Riverside, CA06, -117.361, 33.967, 986, 75.1, 0.25
MONTEBELLO, Los Angeles, CA06, -118.105, 34.019, 246, 75.7, 0.00
CULVER CITY, Los Angeles, CA06, -118.414, 34.005, 92, 69.3, 0.17
SANTA MONICA MUNICIPAL AP, Los Angeles, CA06, -118.447, 34.021, 175, 67.9, 0.11
SANTA MONICA PIER, Los Angeles, CA06, -118.500, 34.008, 14, 64.9, 0.00
ONTARIO INTL AP, San Bernardino, CA06, -117.577, 34.053, 924, 74.8, 0.13
POMONA/FAIRPLEX, Los Angeles, CA06, -117.766, 34.082, 999, 71.2, 0.00
U C L A, Los Angeles, CA06, -118.443, 34.070, 430, 70.1, 0.15
IRON MOUNTAIN, San Bernardino, CA07, -115.122, 34.147, 922, 87.1, 0.03
TWENTYNINE PALMS, San Bernardino, CA07, -116.037, 34.128, 1975, 80.7, 0.03
SAN BERNARDINO F S 226, San Bernardino, CA06, -117.254, 34.134, 1140, 76.0, 0.00
SAN GABRIEL FIRE DEPT, Los Angeles, CA06, -118.100, 34.084, 363, 74.9, 0.00
POINT MUGU NF, Ventura, CA06, -119.123, 34.124, 12, 65.5, 0.08
SAN GABRIEL CANYON PH, Los Angeles, CA06, -117.908, 34.155, 744, M, 0.54
WOODLAND HILLS PIERCE COLLEGE, Los Angeles, CA06, -118.574, 34.182, 790, 72.9, 0.11
BIG BEAR LAKE DAM, San Bernardino, CA06, -116.975, 34.241, 6815, M, 1.20
LYTLE CREEK R S, San Bernardino, CA06, -117.471, 34.238, 2730, M, 0.29
MT WILSON CBS, Los Angeles, CA06, -118.071, 34.231, 5710, 69.6, 0.75
VAN NUYS AP, Los Angeles, CA06, -118.491, 34.212, 785, 74.0, 0.13
CAMARILLO AP, Ventura, CA06, -119.088, 34.211, 71, 67.4, 0.12
OXNARD, Ventura, CA06, -119.175, 34.198, 49, 66.4, 0.18
OXNARD VENTURA COUNTY AP, Ventura, CA06, -119.204, 34.200, 39, 65.0, 0.02
PARKER RESRVOIR, San Bernardino, CA07, -114.171, 34.290, 738, 89.5, 0.00
TWENTYNINE PALMS MC, San Bernardino, CA07, -116.147, 34.294, 2003, 78.6, 0.00
BIG BEAR LAKE, San Bernardino, CA06, -116.917, 34.243, 6753, 57.9, 0.01
LAKE ARROWHEAD, San Bernardino, CA07, -117.188, 34.247, 5205, 62.7, 0.46
CHATSWORTH FC 24 F, Los Angeles, CA06, -118.600, 34.250, 950, M, 1.93
VENTURA, Ventura, CA06, -119.292, 34.283, 105, M, 0.07
SANTA PAULA, Ventura, CA06, -119.133, 34.312, 237, 67.1, 0.00
SANTA BARBARA MUNI AP, Santa Barbara, CA06, -119.842, 34.424, 8, 64.9, 0.11
JUNCAL DAM, Santa Barbara, CA06, -119.507, 34.491, 2260, M, 0.00
VICTORVILLE, San Bernardino, CA07, -117.293, 34.529, 2880, 74.5, 0.00
GIBRALTAR DAM NO. 2, Santa Barbara, CA06, -119.682, 34.523, 1558, M, 0.00
PALMDALE, Los Angeles, CA07, -118.094, 34.588, 2612, 74.5, 0.00
SAUGUS POWER PLANT 1, Los Angeles, CA06, -118.454, 34.590, 2161, M, 0.18
LOS PRIETOS RS, Santa Barbara, CA06, -119.791, 34.544, 1024, M, 0.00
CACHUMA LAKE, Santa Barbara, CA06, -119.982, 34.582, 789, 70.4, 0.00
SALSIPUEDES GAGING STATION, Santa Barbara, CA06, -120.408, 34.585, 254, M, 0.11
EL MIRAGE, San Bernardino, CA07, -117.630, 34.589, 2950, 71.0, T
PALMDALE AP, Los Angeles, CA07, -118.083, 34.629, 2509, 71.3, T
LOMPOC, Santa Barbara, CA06, -120.451, 34.654, 75, 64.4, 0.08
FIGUEROA MOUNTAIN, Santa Barbara, CA06, -120.007, 34.734, 3152, M, 0.00
LANCASTER, Los Angeles, CA06, -118.213, 34.741, 2338, 71.9, 0.00
SANDBERG, Los Angeles, CA06, -118.724, 34.744, 4510, 68.1, 0.05
LOS ALAMOS, Santa Barbara, CA06, -120.280, 34.746, 565, 65.5, 0.00
LEBEC, Kern, CA05, -118.865, 34.833, 3575, 61.6, 0.00
GAREY SISQUOC RIVER, Santa Barbara, CA06, -120.305, 34.894, 355, M, 0.04
MITCHELL CAVERNS, San Bernardino, CA07, -115.547, 34.944, 4350, 76.0, 0.03
NEW CUYAMA FIRE STATION, Santa Barbara, CA06, -119.683, 34.946, 2160, 69.0, 0.00
MOJAVE, Kern, CA07, -118.162, 35.049, 2735, 74.6, 0.00
PISMO BEACH, San Luis Obispo, CA04, -120.683, 35.160, 39, 64.1, 0.18
TAFT, Kern, CA05, -119.430, 35.150, 773, 75.9, 0.00
BAKER, San Bernardino, CA07, -116.063, 35.276, 962, 82.5, 0.00
GOLDSTONE ECHO NO 2, San Bernardino, CA07, -116.784, 35.281, 2950, M, 0.00
SALINAS DAM, San Luis Obispo, CA04, -120.504, 35.337, 1392, M, 0.06
RANDSBURG, Kern, CA07, -117.652, 35.369, 3570, 74.5, 0.00
SANTA MARGARITA BOOST, San Luis Obispo, CA04, -120.637, 35.374, 1148, M, 0.24
MORRO BAY FIRE DEPT, San Luis Obispo, CA04, -120.845, 35.367, 118, 60.9, 0.10
BAKERSFIELD AP, Kern, CA05, -119.055, 35.434, 490, 74.6, 0.00
BUTTONWILLOW, Kern, CA05, -119.470, 35.403, 225, 72.8, 0.00
MOUNTAIN PASS, San Bernardino, CA07, -115.544, 35.470, 4730, 71.9, 0.00
GLENNVILLE, Kern, CA05, -118.701, 35.727, 3140, 60.7, 0.03
TRONA, San Bernardino, CA07, -117.391, 35.764, 1695, 80.2, 0.00
KERN RIVER PH 3, Kern, CA05, -118.439, 35.783, 2703, 73.0, 0.00
DELANO, Kern, CA05, -119.260, 35.768, 302, 71.7, 0.00
UHL RS, Tulare, CA05, -118.646, 35.886, 3732, M, 0.00
BRADLEY TELEMETERING, Monterey, CA04, -120.868, 35.930, 443, M, 0.00
SHOSHONE, Inyo, CA07, -116.271, 35.972, 1546, M, 0.00
PORTERVILLE MUNICIPAL AIRPORT, Tulare, CA05, -119.062, 36.029, 442, 72.9, 0.08
PORTERVILLE, Tulare, CA05, -119.020, 36.068, 393, 75.5, 0.23
KETTLEMAN STATION, Kings, CA05, -120.088, 36.073, 508, M, 0.00
HAIWEE, Inyo, CA07, -117.953, 36.139, 3825, 71.9, 0.00
CORCORAN IRRIGATION DIST., Kings, CA05, -119.582, 36.098, 200, 74.5, 0.00
COALINGA, Fresno, CA05, -120.361, 36.136, 670, 75.6, 0.00
PRIEST VALLEY, Monterey, CA04, -120.695, 36.188, 2300, 66.5, 0.00
KING CITY, Monterey, CA04, -121.138, 36.207, 320, 69.2, T
SPRINGVILLE TULE HD, Tulare, CA05, -118.657, 36.193, 4070, M, 0.00
LINDSAY, Tulare, CA05, -119.054, 36.203, 435, 73.2, 0.00
ARROYO SECO RIVER, Monterey, CA04, -121.481, 36.238, 805, M, 0.00
BIG SUR STATION, Monterey, CA04, -121.780, 36.247, 200, 63.7, 1.17
VISALIA, Tulare, CA05, -119.300, 36.328, 303, 73.6, 0.00
SAN CLEMENTE DAM, Monterey, CA04, -121.709, 36.438, 600, M, 0.09
ASH MOUNTAIN, Tulare, CA05, -118.825, 36.491, 1708, 74.9, 0.51
THREE RIVERS EDISON PH 1, Tulare, CA05, -118.862, 36.465, 1140, 76.8, 0.18
PINNACLES NATIONAL PARK, San Benito, CA04, -121.182, 36.482, 1307, 67.6, 0.06
LODGEPOLE, Tulare, CA05, -118.732, 36.604, 6735, 52.1, 0.56
PANOCHE 2 W, San Benito, CA05, -120.884, 36.607, 1400, M, 0.02
SPRECKELS HWY BRIDGE, Monterey, CA04, -121.671, 36.631, 21, M, 0.00
MONTEREY, Monterey, CA04, -121.855, 36.593, 122, 63.6, 0.41
SALINAS NO. 2, Monterey, CA04, -121.666, 36.659, 45, 63.7, 0.06
SALINAS AP, Monterey, CA04, -121.609, 36.664, 73, 64.3, 0.09
GRANT GROVE, Tulare, CA05, -118.962, 36.738, 6580, 56.3, 0.23
PAICINES 4 W, San Benito, CA04, -121.349, 36.715, 905, 64.0, 0.00
PINE FLAT DAM, Fresno, CA05, -119.337, 36.821, 615, M, 0.17
LOS BANOS ARBURUA RANCH, Merced, CA05, -120.939, 36.875, 843, M, 0.11
HOLLISTER 2, San Benito, CA04, -121.421, 36.848, 275, 70.4, 0.00
CHITTENDEN PASS, Santa Cruz, CA04, -121.597, 36.900, 82, M, 0.04
BALCH POWER HOUSE, Fresno, CA05, -119.088, 36.909, 1735, 73.4, 0.48
WATSONVILLE WATERWORKS, Santa Cruz, CA04, -121.769, 36.931, 95, 64.2, 0.09
FRIANT GOVERNMENT CAMP, Fresno, CA05, -119.707, 36.997, 410, 73.6, 0.51
MADERA, Madera, CA05, -120.038, 36.954, 270, 72.9, 0.27
WISHON DAM, Fresno, CA05, -118.984, 37.007, 6550, 58.8, 0.51
LOS BANOS DET RESV, Merced, CA05, -120.930, 36.990, 407, 74.2, 0.04
GILROY, Santa Clara, CA04, -121.561, 37.003, 194, 69.0, 0.06
AUBERRY 2 NW, Fresno, CA05, -119.513, 37.092, 2090, 74.0, 0.82
LOS BANOS, Merced, CA05, -120.867, 37.056, 120, 73.0, 0.09
SAN LUIS DAM, Merced, CA05, -121.058, 37.053, 277, 73.4, 0.03
BEN LOMOND NO. 4, Santa Cruz, CA04, -122.080, 37.086, 420, 67.7, 0.54
MORGAN HILL, Santa Clara, CA04, -121.602, 37.136, 375, 69.5, 0.01
SOUTH LAKE, Inyo, CA07, -118.570, 37.168, 9580, M, 0.08
LAKE SABRINA, Inyo, CA07, -118.614, 37.213, 9065, M, 0.13
HUNTINGTON LAKE, Fresno, CA05, -119.221, 37.228, 7020, 55.6, 0.49
BIG CREEK PH 1, Fresno, CA05, -119.242, 37.206, 4878, 67.0, 0.50
NORTH FORK RS, Madera, CA05, -119.510, 37.233, 2645, 68.3, 0.99
LOS GATOS, Santa Clara, CA04, -121.959, 37.232, 365, 67.9, 0.00
BISHOP CREEK INTAKE 2, Inyo, CA07, -118.581, 37.248, 8154, M, 0.07
COARSEGOLD 1 SW, Madera, CA05, -119.705, 37.250, 2230, M, 0.69
MOUNT HAMILTON, Santa Clara, CA04, -121.635, 37.343, 4220, 64.3, 0.53
SAN GREGORIO 2 SE, San Mateo, CA04, -122.362, 37.312, 275, 60.4, 0.59
BISHOP AIRPORT, Inyo, CA07, -118.359, 37.371, 4110, 66.5, 0.02
MOFFETT FEDERAL AIRFIELD, Santa Clara, CA04, -122.048, 37.406, 39, 67.9, 0.19
WOODSIDE FIRE STATION 1, San Mateo, CA04, -122.256, 37.429, 380, 68.8, 0.10
TURLOCK #2, Stanislaus, CA05, -120.846, 37.502, 103, 73.3, 0.01
HALF MOON BAY, San Mateo, CA04, -122.443, 37.473, 27, 60.6, 0.41
SO ENTRANCE YOSEMITE N.P., Mariposa, CA05, -119.633, 37.512, 5047, 57.4, 0.78
MARIPOSA R S, Mariposa, CA05, -119.986, 37.495, 2100, M, 0.53
NEWARK, Alameda, CA04, -122.032, 37.515, 10, 69.1, 0.17
EXCHEQUER DAM, Mariposa, CA05, -120.267, 37.585, 442, M, 0.16
MODESTO AP, Stanislaus, CA05, -120.955, 37.625, 87, 72.3, 0.05
HAYWARD AIR TERMINAL, Alameda, CA04, -122.121, 37.659, 31, 67.9, 0.32
TRACY CARBONA, San Joaquin, CA05, -121.347, 37.682, 135, 69.7, 0.03
LIVERMORE MUNICIPAL AP, Alameda, CA04, -121.815, 37.693, 393, 69.2, 0.13
OAKLAND INTERNATIONAL AIRPORT, Alameda, CA04, -122.233, 37.718, 5, 64.5, 0.17
UPPER SAN LEANDRO FILTERS, Alameda, CA04, -122.167, 37.772, 394, M, 0.47
SAN FRANCISCO DOWNTOWN, San Francisco, CA04, -122.427, 37.771, 150, 64.7, 0.21
SAN FRANCISCO OCEANSIDE, San Francisco, CA04, -122.505, 37.728, 8, 61.0, 0.24
GROVELAND 2, Tuolumne, CA05, -120.226, 37.844, 2800, 64.3, 0.60
TRACY PUMPING PLANT, Alameda, CA05, -121.583, 37.796, 61, 74.1, 0.02
OAKLAND MUSEUM, Alameda, CA04, -122.264, 37.798, 30, 67.7, 0.26
BENTON INSPECTION STN, Mono, CA07, -118.478, 37.843, 5460, 63.1, T
MATHER, Tuolumne, CA05, -119.856, 37.885, 4510, M, 1.08
MOUNT DIABLO JUNCTION, Contra Costa, CA04, -121.930, 37.879, 2170, 67.1, 0.38
STOCKTON AP, San Joaquin, CA05, -121.226, 37.890, 27, 71.8, 0.08
RICHMOND, Contra Costa, CA04, -122.377, 37.919, 20, 66.8, 0.04
MUIR WOODS, Marin, CA01, -122.569, 37.898, 220, M, 0.39
HETCH HETCHY, Tuolumne, CA05, -119.783, 37.961, 3870, 64.6, 1.11
CHERRY VALLEY DAM, Tuolumne, CA05, -119.916, 37.975, 4765, 64.3, 1.28
SONORA, Tuolumne, CA05, -120.387, 37.967, 1675, 66.9, 0.60
STOCKTON FIRE STA 4, San Joaquin, CA05, -121.318, 37.999, 12, 71.9, 0.06
ANTIOCH PUMPING PLANT #3, Contra Costa, CA05, -121.752, 37.983, 60, 72.0, 0.08
CONCORD BUCHANAN FIELD, Contra Costa, CA04, -122.053, 37.992, 23, 71.2, 0.18
CONCORD WASTEWATER PLANT, Contra Costa, CA04, -122.069, 37.983, 40, 72.0, 0.11
SAN RAFAEL-CIVIC CENTER, Marin, CA01, -122.537, 37.998, 120, 67.6, 0.11
KENTFIELD, Marin, CA01, -122.545, 37.957, 145, 68.4, 0.01
MARTINEZ WATER PLANT, Contra Costa, CA04, -122.114, 38.013, 40, 70.4, 0.07
SAN ANDREAS 2, Calaveras, CA05, -120.671, 38.191, 1100, 67.8, 0.63
BODIE CALIFORNIA STATE HISTORIC PARK, Mono, CA03, -119.014, 38.212, 8370, 47.1, 0.05
ACAMPO 5NE, San Joaquin, CA05, -121.201, 38.218, 87, M, 0.12
NAPA COUNTY AIRPORT, Napa, CA04, -122.280, 38.208, 16, 66.1, 0.10
BRIDGEPORT, Mono, CA03, -119.229, 38.258, 6470, 53.5, T
CALAVERAS BIG TREES, Calaveras, CA05, -120.311, 38.277, 4695, 57.9, 1.94
CAMP PARDEE, Calaveras, CA05, -120.843, 38.249, 658, 73.2, 0.50
TRAVIS FIELD AFB, Solano, CA02, -121.933, 38.267, 62, 71.2, 0.10
FAIRFIELD, Solano, CA02, -122.068, 38.274, 40, 70.7, 0.08
SONOMA, Sonoma, CA01, -122.462, 38.299, 97, 68.3, 0.14
SUTTER HILL CDF, Amador, CA05, -120.801, 38.377, 1586, 71.7, 0.83
NAPA RIVER TELEMETER, Napa, CA02, -122.300, 38.367, -, M, 0.00
WEST POINT, Calaveras, CA05, -120.545, 38.378, 2775, M, 1.52
ATLAS ROAD BROWN, Napa, CA01, -122.248, 38.427, 1680, M, 0.28
GRATON, Sonoma, CA01, -122.865, 38.431, 200, 65.4, 0.78
OCCIDENTAL, Sonoma, CA01, -122.966, 38.386, 865, 66.8, 0.40
FIDDLETOWN DEXTER RCH, Amador, CA05, -120.698, 38.525, 2170, M, 1.39
SACRAMENTO AP ASOS, Sacramento, CA02, -121.496, 38.507, 19, 71.2, 0.09
WINTERS, Yolo, CA02, -121.978, 38.525, 135, 74.6, 0.03
LAKE SOLANO, Solano, CA02, -122.004, 38.492, 187, 72.9, 0.00
SAINT HELENA, Napa, CA01, -122.471, 38.507, 225, 69.5, T
SAINT HELENA 4 WSW, Napa, CA01, -122.538, 38.493, 1780, M, 0.68
HACIENDA BRIDGE, Sonoma, CA01, -122.927, 38.509, 20, M, 0.00
FORT ROSS, Sonoma, CA01, -123.245, 38.515, 112, 60.1, 0.31
SACRAMENTO 5 ESE, Sacramento, CA02, -121.418, 38.555, 38, 73.2, 0.17
ANGWIN PACIFIC UNION COLLEGE, Napa, CA01, -122.440, 38.573, 1715, 68.0, 0.51
VENADO, Sonoma, CA01, -123.018, 38.609, 1260, M, 0.08
WOODLAND 1 WNW, Yolo, CA02, -121.794, 38.683, 67, 72.3, 0.32
MARKLEEVILLE, Alpine, CA03, -119.780, 38.692, 5530, 54.8, 0.35
PLACERVILLE, El Dorado, CA02, -120.824, 38.696, 1850, 71.4, 1.26
REPRESA, Sacramento, CA02, -121.161, 38.694, 295, M, 0.18
SACRAMENTO METROPOLITAN AP, Sacramento, CA02, -121.595, 38.701, 24, 70.6, 0.15
PACIFIC HOUSE, El Dorado, CA02, -120.503, 38.758, 3450, M, 2.48
CLOVERDALE, Sonoma, CA01, -123.026, 38.793, 400, 71.4, 0.15
KELSEY 1 N, El Dorado, CA02, -120.821, 38.809, 2000, M, 1.47
SOUTH LAKE TAHOE AP, El Dorado, CA03, -119.996, 38.898, 6257, 52.6, 0.42
GEORGETOWN RS, El Dorado, CA02, -120.801, 38.933, 3001, 69.2, 1.96
AUBURN, Placer, CA02, -121.084, 38.907, 1292, 70.9, 0.72
NICOLAUS #2, Sutter, CA02, -121.545, 38.926, 43, M, 0.22
YORKVILLE, Mendocino, CA01, -123.231, 38.905, 1100, M, 0.52
CLEARLAKE 4 SE, Lake, CA02, -122.567, 38.924, 1349, 65.1, 0.25
FORESTHILL RANGER STATION, Placer, CA02, -120.845, 39.010, 3015, M, 2.66
LAKEPORT, Lake, CA02, -122.917, 39.033, 1315, 69.3, 0.22
IOWA HILL, Placer, CA02, -120.840, 39.118, 3100, M, 1.70
MARYSVILLE AIRPORT (ASOS), Yuba, CA02, -121.569, 39.102, 62, 70.9, 0.22
UKIAH MUNICIPAL AP, Mendocino, CA01, -123.200, 39.128, 603, 68.9, 0.23
UKIAH 4 WSW, Mendocino, CA01, -123.272, 39.127, 1328, M, 0.37
GOLD RUN 4 SW, Placer, CA02, -120.900, 39.150, 3220, M, 1.36
WILLIAMS, Colusa, CA02, -122.150, 39.150, 85, M, 0.40
GRASS VALLEY NO. 2, Nevada, CA02, -121.068, 39.204, 2400, 64.3, 1.64
HARRY L. ENGLEBRIGHT DAM, Nevada, CA02, -121.267, 39.237, 800, M, 1.33
COLUSA 2 SSW, Colusa, CA02, -122.027, 39.188, 50, 71.2, 0.23
BLUE CANYON NYACK AP, Placer, CA02, -120.709, 39.276, 5286, 60.8, 1.55
NEVADA CITY, Nevada, CA02, -121.001, 39.247, 2781, 65.0, 1.82
TRUCKEE AIRPORT, Nevada, CA03, -120.139, 39.320, 5900, 58.8, 0.00
TRUCKEE RS, Nevada, CA03, -120.173, 39.333, 5823, 54.7, 0.82
DONNER MEMORIAL ST PARK, Nevada, CA03, -120.233, 39.324, 5937, 54.8, 0.97
DEER CREEK FOREBAY, Nevada, CA02, -120.833, 39.300, 4455, M, 0.24
COLGATE POWERHOUSE, Yuba, CA02, -121.192, 39.331, 595, M, 1.03
BOCA, Nevada, CA03, -120.094, 39.389, 5575, 52.6, 0.37
DOBBINS 1 S, Yuba, CA02, -121.201, 39.358, 1640, 68.6, 1.26
EAST PARK RESERVOIR, Colusa, CA02, -122.518, 39.359, 1205, 68.5, 0.37
STONYFORD, Colusa, CA02, -122.546, 39.375, 1170, M, 0.37
POTTER VALLEY POWERHOUSE, Mendocino, CA01, -123.129, 39.362, 1018, 66.8, 0.47
SAGEHEN CREEK, Nevada, CA03, -120.241, 39.432, 6337, 49.4, 0.17
WILLITS 1 NE, Mendocino, CA01, -123.342, 39.419, 1353, 61.3, 0.09
BOWMAN DAM, Nevada, CA02, -120.656, 39.454, 5385, 61.9, 2.05
OROVILLE, Butte, CA02, -121.553, 39.518, 171, 72.5, 0.00
OROVILLE MUNICIPAL AP, Butte, CA02, -121.622, 39.494, 187, 71.2, 0.23
SIERRAVILLE RS, Sierra, CA02, -120.370, 39.583, 4975, 57.1, 0.21
DOWNIEVILLE, Sierra, CA02, -120.824, 39.563, 2915, 64.0, 1.25
STRAWBERRY VALLEY, Yuba, CA02, -121.108, 39.563, 3808, 61.3, 1.42
STONY GORGE RESERVOIR, Glenn, CA02, -122.534, 39.586, 800, 69.7, 0.29
BRUSH CREEK RANGER STATION, Butte, CA02, -121.345, 39.695, 3560, M, 1.12
PARADISE, Butte, CA02, -121.624, 39.754, 1750, 71.8, 0.31
COVELO, Mendocino, CA01, -123.244, 39.816, 1413, 65.7, 0.17
VINTON, Plumas, CA02, -120.186, 39.806, 4950, M, 0.21
PORTOLA, Plumas, CA02, -120.472, 39.805, 4850, 56.7, 0.54
COVELO EEL RIVER RS, Mendocino, CA01, -123.085, 39.826, 1517, M, 0.36
DE SABLA, Butte, CA02, -121.611, 39.872, 2710, 68.3, 1.22
PASKENTA RANGER STATION, Tehama, CA02, -122.554, 39.888, 755, M, 1.09
LEGGETT, Mendocino, CA01, -123.720, 39.874, 703, M, 0.28
STANDISH HICKEY ST PK, Mendocino, CA01, -123.727, 39.878, 853, 65.1, 0.76
DOYLE 4 SSE, Lassen, CA03, -120.083, 39.972, 4390, 60.0, 0.25
DOYLE, Lassen, CA03, -120.105, 40.027, 4293, M, 0.09
RICHARDSON GR ST PK, Humboldt, CA01, -123.793, 40.026, 503, 66.1, 0.33
SHELTER COVE AVIATION, Humboldt, CA01, -124.073, 40.033, 246, 63.6, 1.19
GREENVILLE, Plumas, CA02, -120.950, 40.141, 3590, M, 0.29
CANYON DAM, Plumas, CA02, -121.089, 40.171, 4560, 58.3, 0.25
MIRANDA 4 SE, Humboldt, CA01, -123.776, 40.182, 266, M, 0.28
FORT SEWARD, Humboldt, CA01, -123.632, 40.218, 220, M, 0.24
HONEYDEW 1 SW, Humboldt, CA01, -124.132, 40.238, 373, M, 0.20
CHESTER, Plumas, CA02, -121.242, 40.303, 4530, 56.6, 0.87
MINERAL, Tehama, CA02, -121.609, 40.346, 4875, 54.9, 0.66
HARRISON GULCH RS, Shasta, CA02, -122.965, 40.364, 2750, 61.4, 0.11
COLEMAN FISHERIES STATION, Shasta, CA02, -122.143, 40.400, 420, M, 5.15
VOLTA PH, Shasta, CA02, -121.866, 40.458, 2220, M, 0.83
GRIZZLY CREEK STATE PARK, Humboldt, CA01, -123.909, 40.486, 413, 60.4, 0.38
SCOTIA, Humboldt, CA01, -124.104, 40.483, 136, 63.8, 0.39
MANZANITA LAKE, Shasta, CA02, -121.577, 40.541, 5750, 53.3, 1.47
BRIDGEVILLE 4 NNW, Humboldt, CA01, -123.822, 40.519, 2100, M, 0.14
HAYFORK 2 W, Trinity, CA01, -123.212, 40.552, 2300, 62.0, 0.74
WHISKEYTOWN RESERVOIR, Shasta, CA02, -122.528, 40.612, 1295, 71.6, 2.91
HYAMPOM, Trinity, CA01, -123.457, 40.616, 1278, M, 0.45
SHASTA DAM, Shasta, CA02, -122.416, 40.714, 1075, 71.6, 3.62
TRINITY RIVER HATCHERY, Trinity, CA01, -122.795, 40.726, 1861, 64.9, 0.13
BIG BAR 4 E, Trinity, CA01, -123.208, 40.741, 1253, 67.6, 0.50
BUCKHORN, Shasta, CA02, -121.932, 40.880, 3700, M, 5.83
HAT CREEK, Shasta, CA02, -121.543, 40.932, 3015, 59.2, 1.14
REDWOOD CREEK O'KANE, Humboldt, CA01, -123.815, 40.907, 883, M, 0.80
PIT RIVER PH 5, Shasta, CA02, -121.977, 40.987, 1458, M, 5.06
WILLOW CREEK 1 NW, Humboldt, CA01, -123.636, 40.947, 464, 67.3, 0.31
FALL RIVER MILLS, Shasta, CA02, -121.435, 41.008, 3300, M, 1.39
ADIN RANGER STATION, Modoc, CA02, -120.945, 41.193, 4202, 57.8, 0.76
DUNSMUIR TREATMENT PL, Siskiyou, CA02, -122.282, 41.183, 2169, 63.9, 1.39
JESS VALLEY, Modoc, CA02, -120.295, 41.268, 5400, 56.7, 0.42
MCCLOUD, Siskiyou, CA02, -122.138, 41.252, 3233, 59.9, 1.71
ORICK, Humboldt, CA01, -124.067, 41.283, 5, M, 0.56
CALLAHAN, Siskiyou, CA01, -122.825, 41.338, 3085, 59.9, 0.12
SAWYERS BAR RS, Siskiyou, CA01, -123.133, 41.301, 2255, 66.6, M
ORLEANS RS, Humboldt, CA01, -123.534, 41.303, 433, M, 0.48
ORICK PRAIRIE CREEK PARK, Humboldt, CA01, -124.019, 41.362, 160, 58.8, 0.75
CANBY 3 SW, Modoc, CA02, -120.902, 41.422, 4310, 57.4, 1.03
ALTURAS, Modoc, CA02, -120.544, 41.490, 4378, 55.8, 0.15
KLAMATH, Del Norte, CA01, -124.075, 41.579, 28, 61.1, 0.96
GREENVIEW, Siskiyou, CA01, -122.924, 41.552, 2820, M, 0.01
FORT JONES RS, Siskiyou, CA01, -122.848, 41.601, 2729, 62.4, 0.16
LAVA BEDS NAT MON, Siskiyou, CA01, -121.501, 41.702, 4770, 58.1, 1.03
MOUNT HEBRON RS, Siskiyou, CA01, -122.045, 41.783, 4265, 57.4, 1.04
CRESCENT CITY 3 NNW, Del Norte, CA01, -124.215, 41.796, 43, 58.1, 0.73
CRESCENT CITY MCNAMARA AP, Del Norte, CA01, -124.238, 41.784, 56, 57.0, 0.64
OAK KNOLL W. C., Siskiyou, CA01, -122.850, 41.839, 1980, M, 0.15
CRESCENT CITY 7 ENE, Del Norte, CA01, -124.085, 41.794, 120, M, 2.13
FORT BIDWELL, Modoc, CA03, -120.157, 41.872, 4739, 58.2, 0.53
GASQUET RS, Del Norte, CA01, -123.965, 41.845, 387, M, 0.86
FORT DICK RIVER, Del Norte, CA01, -124.135, 41.881, -, M, 0.40
TULELAKE, Siskiyou, CA01, -121.474, 41.960, 4038, 55.9, 1.57
COPCO NO 1 DAM, Siskiyou, CA01, -122.338, 41.980, 2665, M, 0.31
ELK VALLEY, Del Norte, CA01, -123.718, 41.988, 1708, M, 0.88
PACIFICA 4 SSE, San Mateo, CA04, -122.472, 37.592, 475, 64.6, 0.27
BARSTOW, San Bernardino, CA07, -117.022, 34.893, 2220, 78.2, 0.00
INYOKERN, Kern, CA07, -117.821, 35.651, 2430, 77.1, 0.00
PEARBLOSSOM, Los Angeles, CA07, -117.897, 34.503, 3101, 75.0, 0.00
EL CAJON, San Diego, CA06, -116.928, 32.801, 495, 74.7, 0.00
MARKLEY COVE, Napa, CA02, -122.124, 38.492, 480, 70.3, 0.12
CORONADO FIRE DEPT, San Diego, CA06, -117.177, 32.692, 18, 70.5, T
CUYAMACA RANCHO ST PARK, San Diego, CA06, -116.559, 32.927, 4870, 68.9, 1.14
FALLBROOK FIRE DEPT, San Diego, CA06, -117.248, 33.384, 698, 70.8, 0.25
DEL MAR FIRE DEPT, San Diego, CA06, -117.262, 32.972, 12, 75.0, 0.02
IMPERIAL BEACH FIRE DEPT, San Diego, CA06, -117.114, 32.576, 22, 69.1, 0.08
LEMON GROVE FIRE DEPARTMENT, San Diego, CA06, -117.030, 32.738, 427, 72.8, 0.05
NATIONAL CITY FIRE DEPT, San Diego, CA06, -117.100, 32.671, 30, 70.8, 0.00
SPRING VALLEY FIRE DEPT, San Diego, CA06, -117.006, 32.710, 270, 72.5, 0.10
SANTEE FIRE DEPT, San Diego, CA06, -116.973, 32.841, 340, 70.8, 0.19
LEE VINING, Mono, CA07, -119.119, 37.957, 6797, 60.0, 0.13
ANAHEIM, Orange, CA06, -117.842, 33.865, 235, 73.4, 0.12
RED BLUFF TREATMENT PLANT, Tehama, CA02, -122.220, 40.162, 265, M, 0.10
NEW MELONES DAM HQ, Tuolumne, CA05, -120.486, 38.005, 960, 73.9, 0.50
MAMMOTH LAKES RS, Mono, CA07, -118.962, 37.648, 7804, 53.1, 0.00
CAMPTONVILLE 1SW, Yuba, CA02, -121.071, 39.440, 2500, M, 12.88
MONTEREY WFO, Monterey, CA04, -121.855, 36.593, 122, 63.8, 0.23
SKYLINE RIDGE PRESERVE, San Mateo, CA04, -122.185, 37.313, 2270, 64.8, 0.75
FREMONT, Alameda, CA04, -122.016, 37.542, 38, 69.4, 0.26
MAD RIVER 12 SE, Trinity, CA01, -123.374, 40.319, 2763, M, 12.20
BISHOP FS, Inyo, CA07, -118.365, 37.368, 4108, M, 0.00
NEWHALL 5NW, Los Angeles, CA06, -118.594, 34.393, 1765, 72.2, 0.09
TEHACHAPI 4 SE, Kern, CA05, -118.422, 35.101, 4220, 66.0, 0.00
REDWOOD CITY #2, San Mateo, CA04, -122.214, 37.488, 10, 68.5, 0.07
WRIGHTWOOD, San Bernardino, CA07, -117.639, 34.362, 6000, 61.2, 0.01
REDDING CDF, Shasta, CA02, -122.299, 40.519, 502, M, 2.83
STOCKTON 5 SSE, San Joaquin, CA05, -121.251, 37.899, 22, M, 0.05
VALLEJO, Solano, CA01, -122.187, 38.100, 341, 69.7, 0.10
NORTHRIDGE CAL STATE, Los Angeles, CA06, -118.525, 34.245, 904, 74.4, 0.10
OXNARD WFO, Ventura, CA06, -119.137, 34.207, 52, 67.2, 0.12
LAKEHEAD, Shasta, CA02, -122.391, 40.899, 1398, M, 2.09
HANFORD MUNICIPAL AP, Kings, CA05, -119.623, 36.311, 249, 73.2, 0.04
RAMONA AIRPORT, San Diego, CA06, -116.916, 33.038, 1385, 69.6, 0.22
VACAVILLE/NUT TREE AP ASOS, Solano, CA02, -121.959, 38.378, 104, 72.2, 0.03
ALTURAS MUNICIPAL AP, Modoc, CA02, -120.561, 41.484, 4383, 55.3, 0.24
MADERA MUNICIPAL AP, Madera, CA05, -120.111, 36.985, 251, 72.8, T
BAKERSFIELD 5 NW, Kern, CA05, -119.051, 35.419, 470, 74.0, 0.00
FRESNO 5 NE, Fresno, CA05, -119.709, 36.767, 338, 74.6, 0.25
OCEANSIDE MUNICIPAL AP, San Diego, CA06, -117.350, 33.219, 30, 67.1, T
SAN DIEGO SEAWORLD, San Diego, CA06, -117.231, 32.765, 14, 68.1, 0.00
BOULEVARD 2, San Diego, CA07, -116.300, 32.667, 3600, M, 0.87
ARCATA EUREKA AP, Humboldt, CA01, -124.105, 40.978, 211, 59.1, 0.44
NEWPORT BEACH HARBOR, Orange, CA06, -117.884, 33.603, 10, 66.7, 0.07
ESCONDIDO NO. 2, San Diego, CA06, -117.090, 33.121, 600, 73.8, 0.14
REDDING AP, Shasta, CA02, -122.298, 40.515, 501, 73.4, 3.08
AVALON CATALINA AP, Los Angeles, CA06, -118.415, 33.404, 1565, 68.5, 0.15
SANTA MARIA PUBLIC AP, Santa Barbara, CA06, -120.452, 34.894, 243, 63.9, T
MOUNT SHASTA, Siskiyou, CA02, -122.333, 41.333, 3535, 59.5, 0.35
RED BLUFF MUNI AP, Tehama, CA02, -122.255, 40.152, 354, 74.1, 0.43
NEEDLES AIRPORT, San Bernardino, CA07, -114.618, 34.768, 888, 88.4, 0.02
CECILVILLE, Siskiyou, CA01, -123.139, 41.142, 2310, 63.7, 0.21
CHINA LAKE NAF, Kern, CA07, -117.693, 35.688, 2230, 76.2, 0.00
HEARST CASTLE, San Luis Obispo, CA04, -121.168, 35.684, 1526, 68.2, 0.79
GETTY CENTER, Los Angeles, CA06, -118.479, 34.087, 1117, 67.5, 0.00
HESPERIA 2E, San Bernardino, CA07, -117.266, 34.421, 3055, 82.5, T
EMIGRANT GAP, Placer, CA02, -120.651, 39.303, 5250, 59.0, 1.96
RANCHO BERNARDO, San Diego, CA06, -117.081, 33.022, 690, 69.6, 0.11
FELTON, Santa Cruz, CA04, -122.075, 37.051, 400, 65.2, 0.72
TORRANCE AP, Los Angeles, CA06, -118.342, 33.802, 90, 69.5, 0.11
LOS ANGELES DOWNTOWN/USC, Los Angeles, CA06, -118.291, 34.024, 179, 72.7, 0.15
FRESNO YOSEMITE INT'L, Fresno, CA05, -119.720, 36.780, 334, 74.5, 0.32
MONTEREY PENINSUL AP, Monterey, CA04, -121.849, 36.590, 160, 62.4, 0.18
PASO ROBLES MUNICIPAL AP, San Luis Obispo, CA04, -120.629, 35.669, 820, 70.5, T
MONTAGUE SISKIYOU AIRPORT, Siskiyou, CA01, -122.468, 41.774, 2645, 61.8, 0.27
SAN JOSE, Santa Clara, CA04, -121.903, 37.350, 67, 70.3, 0.12
SAN JOSE, Santa Clara, CA04, -121.924, 37.359, 49, 69.4, 0.10
PALM SPRINGS ASOS, Riverside, CA07, -116.504, 33.822, 409, 85.0, 0.09
SAN DIEGO BROWN FIELD, San Diego, CA06, -116.994, 32.576, 521, 69.7, 0.04
Bakersfield Area, -, -, -, -, -, 74.6, 0.00
Bishop Area, -, -, -, -, -, 66.5, 0.02
Los Angeles Downtown Area, -, -, -, -, -, 72.7, 0.15
Eureka Area, -, -, -, -, -, 58.7, 0.55
Fresno Area, -, -, -, -, -, 74.5, 0.32
Los Angeles Airport Area, -, -, -, -, -, 69.6, 0.03
Long Beach Area, -, -, -, -, -, 72.4, T
Redding Area, -, -, -, -, -, 73.4, 3.08
Sacramento Area, -, -, -, -, -, 71.2, 0.09
San Diego Area, -, -, -, -, -, 70.5, T
Stockton Area, -, -, -, -, -, 71.8, 0.08
San Francisco Airport Area, -, -, -, -, -, 66.2, 0.07
Santa Maria Area, -, -, -, -, -, 63.9, T
LEMOORE REEVES NAS, Fresno, CA05, -119.950, 36.333, 232, 72.1, 0.00
ARVIN, Kern, CA05, -118.834, 35.211, 450, 71.7, 0.00
FRAZIER PARK, Kern, CA06, -118.965, 34.827, 4972, 57.1, 0.00
REDONDO BEACH, Los Angeles, CA06, -118.376, 33.834, 142, 68.9, 0.36
BURBANK VALLEY PUMP PLANT, Los Angeles, CA06, -118.348, 34.187, 655, 72.7, 0.22
TEJON RANCHO, Kern, CA05, -118.750, 35.023, 1425, 74.5, 0.00
SAN SIMEON POINT PIEDRAS BLANCAS, San Luis Obispo, CA04, -121.285, 35.666, 59, 58.6, 0.22
BURBANK GLENDALE PASADENA AP, Los Angeles, CA06, -118.365, 34.200, 731, 73.3, 0.10
MOUNT SHASTA, Siskiyou, CA02, -122.317, 41.322, 3613, 58.4, 0.44
WATSONVILLE MUNICIPAL AIRPORT, Santa Cruz, CA04, -121.790, 36.939, 162, 64.3, 0.20
SANTA ROSA SONOMA CO AP, Sonoma, CA04, -122.811, 38.504, 119, 66.8, 0.50
OAKHURST, Madera, CA05, -119.653, 37.331, 2230, 64.2, 0.17
ARBUCKLE BASIN CALIFORNIA, Shasta, CA02, -122.833, 40.398, 1900, 72.3, M
ACTON CALIFORNIA, Los Angeles, CA06, -118.200, 34.446, 2600, 71.6, M
ARROYO GRANDE CALIFORNIA, San Luis Obispo, CA04, -120.392, 35.179, 1048, 68.6, M
ALDER SPRINGS CALIFORNIA, Glenn, CA02, -122.724, 39.651, 4300, 62.7, M
LOS ALTOS CALIFORNIA, Santa Clara, CA04, -122.147, 37.358, 645, 69.3, M
ANZA CALIFORNIA, Riverside, CA06, -116.673, 33.555, 3920, 67.9, M
ALDER POINT CALIFORNIA, Humboldt, CA01, -123.590, 40.187, 923, 68.4, M
ARROYO SECO (MT. DIABLO) CALIF, Monterey, CA04, -121.492, 36.230, 980, 71.5, M
ASH CREEK CALIFORNIA, Siskiyou, CA02, -121.979, 41.277, 3200, 56.5, M
ASH VALLEY CALIFORNIA, Lassen, CA02, -120.686, 41.052, 5100, 54.5, M
BALD MTN LOC CALIFORNIA, El Dorado, CA02, -120.697, 38.906, 4680, 66.5, M
BARNABY CALIFORNIA, Marin, CA01, -122.702, 38.028, 1240, 66.8, M
BATTERSON CALIFORNIA, Madera, CA05, -119.508, 37.232, 3160, 71.6, M
BIG BAR CALIFORNIA, Trinity, CA01, -123.233, 40.733, 1500, 70.1, M
BELL CANYON CALIFORNIA, Orange, CA06, -117.592, 33.542, 700, 73.3, M
BEAR PEAK CALIFORNIA, Tulare, CA05, -118.052, 35.884, 8228, 59.5, M
BENTON CALIFORNIA, Mono, CA07, -118.478, 37.843, 5450, 62.7, M
BEVERLY HILLS CALIFORNIA, Los Angeles, CA06, -118.412, 34.125, 1260, 73.9, M
BANGOR CALIFORNIA, Butte, CA02, -121.386, 39.398, 803, 72.2, M
BIG HILL CALIFORNIA, Humboldt, CA01, -123.636, 41.098, 3570, 62.9, M
BLACK DIAMOND CALIFORNIA, Contra Costa, CA04, -121.884, 37.950, 1600, 70.2, M
BLUE DOOR CALIFORNIA, Lassen, CA02, -120.337, 41.055, 5615, 55.3, M
BEN BOLT CALIFORNIA, El Dorado, CA05, -120.934, 38.591, 905, 70.7, M
BEN LOMOND CALIFORNIA, Santa Cruz, CA04, -122.170, 37.132, 2630, 65.4, M
BOGARD R.S. CALIFORNIA, Lassen, CA02, -121.083, 40.598, 5650, 51.3, M
BOONVILLE CALIFORNIA, Mendocino, CA01, -123.349, 38.988, 644, 69.1, M
BRANCH MOUNTAIN CALIFORNIA, San Luis Obispo, CA04, -120.083, 35.189, 3770, 69.4, M
BRIONES CALIFORNIA, Contra Costa, CA04, -122.118, 37.944, 1450, 69.9, M
BLACKROCK CALIFORNIA, Tulare, CA05, -118.260, 36.093, 8200, 56.3, M
BROOKS CALIFORNIA, Yolo, CA02, -122.145, 38.738, 354, 74.1, M
BUCK MEADOWS CALIFORNIA, Tuolumne, CA05, -120.097, 37.823, 3200, 65.1, M
BULL FLAT CALIFORNIA, Lassen, CA03, -120.114, 40.481, 4395, 58.2, M
BURNS CANYON CALIFORNIA, San Bernardino, CA07, -116.634, 34.210, 6000, 68.9, M
BEAVER CAMP LOC CALIFORNIA, Amador, CA05, -120.325, 38.488, 5000, 68.3, M
BRAZIE RANCH CALIFORNIA, Siskiyou, CA01, -122.594, 41.685, 3000, 64.7, M
CALLAHAN CALIFORNIA, Siskiyou, CA01, -122.796, 41.308, 3136, 61.9, M
CAMERON FIRE STATION CALIFORNI, San Diego, CA06, -116.463, 32.721, 3443, 68.0, M
CANBY CALIFORNIA, Modoc, CA02, -120.868, 41.434, 4312, 57.2, M
CARRIZO CALIFORNIA, San Luis Obispo, CA05, -119.773, 35.096, 2490, 73.2, M
CASE SPRINGS CALIFORNIA, San Diego, CA06, -117.418, 33.445, 2320, 71.5, M
CATHEYS VALLEY CALIFORNIA, Mariposa, CA05, -120.111, 37.468, 1200, 73.9, M
CEDAR GROVE CALIFORNIA, Fresno, CA05, -118.656, 36.788, 4720, 62.6, M
CHEESEBORO CALIFORNIA, Ventura, CA06, -118.717, 34.185, 1650, 74.8, M
CHICO CALIFORNIA, Butte, CA02, -121.779, 39.712, 230, 71.8, M
CHILAO CALIFORNIA, Los Angeles, CA06, -118.030, 34.332, 5450, 68.6, M
CHUCHUPATE CALIFORNIA, Ventura, CA05, -119.012, 34.808, 4900, 58.8, M
CLAREMONT CALIFORNIA, Los Angeles, CA06, -117.707, 34.137, 1645, 72.4, M
CLARK CALIFORNIA, Riverside, CA06, -117.309, 33.877, 1720, 72.4, M
CALAVERAS ROAD CALIFORNIA, Alameda, CA04, -121.844, 37.553, 1230, 69.0, M
COHASSET CALIFORNIA, Butte, CA02, -121.769, 39.872, 1733, 74.4, M
COLLINS BALDY CALIFORNIA, Siskiyou, CA01, -122.950, 41.775, 5493, 59.7, M
BARSTOW-DAGGETT AIRPORT, San Bernardino, CA07, -116.787, 34.854, 1919, 79.6, 0.00
MERCED, Merced, CA05, -120.516, 37.289, 154, 73.0, 0.07
SAN DIEGO MONTGOMERY FIELD, San Diego, CA06, -117.137, 32.815, 418, 71.0, 0.04
SAN DIEGO INTERNATIONAL AP, San Diego, CA06, -117.183, 32.734, 15, 70.5, T
SAN DIEGO MIRAMAR NAS, San Diego, CA06, -117.133, 32.867, 477, 69.9, 0.05
SAN FRANCISCO INTERNATIONAL AP, San Mateo, CA04, -122.366, 37.620, 10, 66.2, 0.07
SAN LUIS OBISPO MCCHESNEY FIELD, San Luis Obispo, CA04, -120.644, 35.238, 183, 68.8, 0.05
BRAWLEY 2 SW, Imperial, CA07, -115.558, 32.954, -100, 85.1, 0.00
CEDARVILLE, Modoc, CA03, -120.179, 41.530, 4688, 57.5, 0.10
CHICO UNIVERSITY FARM, Butte, CA02, -121.821, 39.691, 185, 71.3, 0.27
CHULA VISTA, San Diego, CA06, -117.086, 32.640, 56, 70.7, 0.01
COLFAX, Placer, CA02, -120.947, 39.090, 2373, 66.4, 1.32
CUYAMACA, San Diego, CA06, -116.587, 32.990, 4640, 63.6, 0.40
DAVIS 2 WSW EXP FARM, Yolo, CA02, -121.776, 38.535, 60, 72.0, 0.19
DEATH VALLEY NATIONAL PARK, Inyo, CA07, -116.867, 36.463, -194, 88.7, 0.00
FAIRMONT, Los Angeles, CA07, -118.430, 34.705, 3060, 73.3, 0.04
FORT BRAGG 5 N, Mendocino, CA01, -123.756, 39.510, 123, 58.4, 0.45
HANFORD 1 S, Kings, CA05, -119.637, 36.316, 237, 73.2, 0.03
HAPPY CAMP RANGER STATION, Siskiyou, CA01, -123.375, 41.796, 1142, 67.9, 0.33
HEALDSBURG, Sonoma, CA01, -122.866, 38.629, 177, 68.0, 0.13
INDIO FIRE STATION, Riverside, CA07, -116.215, 33.709, -21, 88.1, 0.00
LAKE SPAULDING, Nevada, CA02, -120.639, 39.318, 5156, 57.3, 1.77
LEMON COVE, Tulare, CA05, -119.026, 36.382, 513, 74.2, 0.07
LIVERMORE, Alameda, CA04, -121.751, 37.682, 529, 70.5, 0.24
LODI, San Joaquin, CA05, -121.288, 38.106, 40, 71.3, 0.10
MARYSVILLE, Yuba, CA02, -121.585, 39.146, 57, 72.1, 0.25
MERCED MUNICIPAL AP, Merced, CA05, -120.518, 37.286, 152, 71.4, 0.10
NAPA STATE HOSPITAL, Napa, CA01, -122.265, 38.278, 35, 69.8, 0.11
OJAI, Ventura, CA06, -119.227, 34.448, 745, 70.7, 0.00
ORLAND, Glenn, CA02, -122.200, 39.746, 254, 72.0, 0.17
ORLEANS, Humboldt, CA01, -123.532, 41.309, 403, 68.4, 0.46
PASADENA, Los Angeles, CA06, -118.145, 34.148, 864, 75.8, 0.38
PASO ROBLES, San Luis Obispo, CA04, -120.685, 35.628, 730, 67.1, 0.03
PETALUMA AIRPORT, Sonoma, CA01, -122.608, 38.258, 20, 67.2, 0.20
QUINCY, Plumas, CA02, -120.947, 39.937, 3420, 60.0, 0.40
REDLANDS, San Bernardino, CA06, -117.195, 34.037, 1410, 74.6, 0.05
SANTA BARBARA, Santa Barbara, CA06, -119.684, 34.417, 16, 68.2, 0.08
SANTA CRUZ, Santa Cruz, CA04, -122.000, 36.988, 70, 63.3, 0.31
SANTA ROSA, Sonoma, CA01, -122.713, 38.456, 166, 68.6, 0.54
TAHOE CITY, Placer, CA03, -120.143, 39.168, 6230, 54.0, 0.85
TUSTIN IRVINE RANCH, Orange, CA06, -117.754, 33.703, 235, 72.5, 0.26
UKIAH, Mendocino, CA01, -123.210, 39.147, 636, 68.7, 0.32
VACAVILLE, Solano, CA02, -121.961, 38.396, 110, 73.6, 0.03
WASCO, Kern, CA05, -119.352, 35.589, 291, 73.9, 0.00
WEAVERVILLE, Trinity, CA01, -122.940, 40.737, 2058, 64.6, 0.37
WILLOWS 6 W, Glenn, CA02, -122.305, 39.523, 234, 72.2, 0.40
YOSEMITE PARK HEADQUARTERS, Mariposa, CA05, -119.590, 37.750, 4018, 64.7, 0.50
YREKA, Siskiyou, CA01, -122.641, 41.703, 2709, 62.1, 0.07
BERKELEY, Alameda, CA04, -122.260, 37.874, 310, 66.0, 0.36
BLYTHE, Riverside, CA07, -114.597, 33.613, 268, 85.5, 0.00
EUREKA WFO WOODLEY ISLAND, Humboldt, CA01, -124.160, 40.810, 20, 58.7, 0.55
INDEPENDENCE, Inyo, CA07, -118.204, 36.798, 3950, 72.0, 0.00
SAN LUIS OBISPO POLY, San Luis Obispo, CA04, -120.662, 35.306, 308, 67.6, 0.02
BURNEY, Shasta, CA02, -121.655, 40.880, 3198, 56.6, 1.40
CAMPO, San Diego, CA06, -116.470, 32.626, 2630, 68.0, 0.30
CALEXICO 2 NE, Imperial, CA07, -115.464, 32.688, 12, M, T
EL CENTRO 2 SSW, Imperial, CA07, -115.562, 32.767, -30, 86.2, 0.00
OCOTILLO 2, Imperial, CA07, -116.001, 32.746, 410, M, 0.01
LA MESA, San Diego, CA06, -117.023, 32.768, 530, 74.1, 0.05
IMPERIAL COUNTY AP, Imperial, CA07, -115.577, 32.835, -55, 85.8, T
ALPINE, San Diego, CA06, -116.777, 32.836, 1695, 74.1, 0.24
LIVERMORE CALIFORNIA, Alameda, CA04, -121.814, 37.712, 800, 70.1, M
LYONS VALLEY CALIFORNIA, Lake, CA01, -123.074, 39.126, 3200, 68.2, M
MAD RIVER CALIFORNIA, Trinity, CA01, -123.524, 40.463, 2775, 64.1, M
MALIBU HILLS CALIFORNIA, Los Angeles, CA06, -118.633, 34.058, 1575, 74.0, M
MANZANITA LAKE CALIFORNIA, Shasta, CA02, -121.580, 40.540, 5660, 54.7, M
MAPLE CREEK CALIFORNIA, Humboldt, CA01, -123.937, 40.796, 1680, 65.0, M
MARIPOSA GROVE CALIFORNIA, Mariposa, CA05, -119.605, 37.513, 6400, 63.9, M
MILL CREEK (BDF) CALIFORNIA, San Bernardino, CA06, -117.035, 34.084, 2950, 74.2, M
MCGUIRES CALIFORNIA, Mendocino, CA01, -123.601, 39.353, 593, 66.5, M
MEANS LAKE CALIFORNIA, San Bernardino, CA07, -116.517, 34.391, 2900, 77.1, M
MENDOCINO PASS CALIFORNIA, Mendocino, CA01, -122.945, 39.808, 5420, 61.9, M
METCALF GAP CALIFORNIA, Madera, CA05, -119.768, 37.409, 3077, 74.4, M
MEYERS CALIFORNIA, El Dorado, CA03, -120.018, 38.849, 6310, 54.2, M
MID HILLS CALIFORNIA, San Bernardino, CA07, -115.411, 35.123, 5413, 67.3, M
MILL CREEK (ANF) CALIFORNIA, Los Angeles, CA06, -118.082, 34.390, 5021, 68.2, M
MALLORY RIDGE CALIFORNIA, Contra Costa, CA05, -121.779, 37.817, 2040, 69.9, M
MONTECITO CALIFORNIA, Santa Barbara, CA06, -119.648, 34.461, 1500, 71.4, M
MOJAVE RIVER SINK CALIFORNIA, San Bernardino, CA07, -116.079, 35.053, 950, 83.0, M
MORMON ROCK CALIFORNIA, San Bernardino, CA06, -117.502, 34.318, 3300, 70.3, M
MOUNTAIN REST CALIFORNIA, Fresno, CA05, -119.371, 37.054, 4100, 68.6, M
MARKLEEVILLE CALIFORNIA, Alpine, CA03, -119.767, 38.683, 5501, 58.8, M
MT. SHASTA CALIFORNIA, Siskiyou, CA02, -122.316, 41.316, -, 61.7, M
MARIPOSA CALIFORNIA, Mariposa, CA05, -119.987, 37.504, 2231, 70.7, M
MT. DIABLO CALIFORNIA, Contra Costa, CA05, -121.914, 37.882, 3849, 63.4, M
MOUNT ZION CALIFORNIA, Amador, CA05, -120.651, 38.389, 2960, 71.0, M
NORTH FORK CALIFORNIA, Madera, CA05, -119.505, 37.233, 2720, 73.3, M
OAK KNOLL CALIFORNIA, Siskiyou, CA01, -122.850, 41.839, 1940, 65.2, M
OAK MOUNTAIN CALIFORNIA, Shasta, CA02, -121.983, 41.006, 1700, 69.5, M
OAK CREEK CALIFORNIA, Inyo, CA07, -118.259, 36.843, 4855, 71.5, M
OJAI CALIFORNIA, Ventura, CA06, -119.230, 34.448, 765, 68.3, M
OAK GROVE CALIFORNIA, San Diego, CA06, -116.795, 33.393, 2752, 72.2, M
OAKLAND NORTH CALIFORNIA, Contra Costa, CA04, -122.221, 37.865, 1403, 67.4, M
OAK OPENING CALIFORNIA, Tulare, CA05, -118.702, 36.175, 3240, 71.9, M
OAKLAND SOUTH CALIFORNIA, Alameda, CA04, -122.145, 37.786, 1095, 67.4, M
OPAL MOUNTAIN CALIFORNIA, San Bernardino, CA07, -117.176, 35.154, 3240, 76.5, M
OWENS CAMP LOC CALIFORNIA, El Dorado, CA02, -120.245, 38.733, 5240, 61.7, M
OWENS VALLEY CALIFORNIA, Inyo, CA07, -118.551, 37.390, 4640, 70.7, M
PANAMINT CALIFORNIA, Inyo, CA07, -117.088, 36.120, 6880, 66.5, M
PARKFIELD CALIFORNIA, Monterey, CA04, -120.432, 35.899, 1535, 69.4, M
PATTY MOCUS CALIFORNIA, Tehama, CA02, -122.867, 40.295, 3500, 67.4, M
PIERCE CALIFORNIA, Plumas, CA02, -120.642, 40.246, 5700, 58.9, M
PIKE COUNTY LOOKOUT CALIFORNIA, Yuba, CA02, -121.202, 39.475, 3714, 68.7, M
PILOT HILL CALIFORNIA, El Dorado, CA02, -121.009, 38.833, 1200, 68.8, M
PARK RIDGE CALIFORNIA, Tulare, CA05, -118.942, 36.724, 7540, 59.9, M
POPPY PARK CALIFORNIA, Los Angeles, CA07, -118.383, 34.733, 2760, 74.6, M
POTRERO CALIFORNIA, San Diego, CA06, -116.609, 32.606, 2345, 70.3, M
PANOCHE ROAD CALIFORNIA, Fresno, CA05, -120.766, 36.727, 2032, 73.5, M
PULGAS CALIFORNIA, San Mateo, CA04, -122.298, 37.475, 644, 68.7, M
QUARTZ HILL CALIFORNIA, Siskiyou, CA01, -122.934, 41.599, 4225, 64.7, M
QUINCY RD CALIFORNIA, Plumas, CA02, -120.942, 39.973, 3500, 62.9, M
RAVENDALE CALIFORNIA, Lassen, CA03, -120.316, 40.731, 5298, 57.0, M
RANCHITA CALIFORNIA, San Diego, CA07, -116.497, 33.222, 4415, 71.8, M
RICE VALLEY CALIFORNIA, Riverside, CA07, -114.732, 34.061, 820, 86.1, M
ROCK CREEK, Mono, CA07, -118.667, 37.551, 7040, 58.2, M
RODEO VALLEY, Mendocino, CA01, -123.321, 39.668, 2428, 67.7, M
ROSE VALLEY CALIFORNIA, Ventura, CA06, -119.184, 34.543, 3331, 62.3, M
ROUND MOUNTAIN, Siskiyou, CA02, -121.464, 41.427, 5258, 59.1, M
ROSE PEAK CALIFORNIA, Alameda, CA04, -121.735, 37.502, 3060, 65.6, M
RATTLESNAKE CALIFORNIA, Tulare, CA05, -118.422, 36.407, 8600, 58.1, M
RUSH CREEK CALIFORNIA, Modoc, CA02, -120.864, 41.294, 4800, 59.1, M
SADDLEBACK BUTTE CALIFORNIA, Los Angeles, CA07, -117.821, 34.685, 2590, 72.9, M
SAUGUS CALIFORNIA, Los Angeles, CA06, -118.525, 34.425, 1450, 74.5, M
SAWYERS BAR CALIFORNIA, Siskiyou, CA01, -123.132, 41.300, 2192, 68.5, M
SANTA BARBARA ISLAND CALIFORNI, Santa Barbara, CA06, -119.033, 33.483, 176, 61.2, M
SANTA CRUZ ISLAND CALIFORNIA, Santa Barbara, CA06, -119.722, 33.996, 250, 64.7, M
SCORPION CALIFORNIA, Trinity, CA01, -122.697, 41.112, 4400, 66.7, M
SODA CREEK CALIFORNIA, Lake, CA01, -122.977, 39.425, 1773, 65.8, M
SECRET TOWN CALIFORNIA, Nevada, CA02, -120.885, 39.184, 2826, 66.9, M
SHAVER CALIFORNIA, Fresno, CA05, -119.256, 37.135, 5746, 57.6, M
SHADEQUARTER CALIFORNIA, Tulare, CA05, -118.956, 36.567, 4069, 66.7, M
SIMS CALIFORNIA, Shasta, CA02, -122.373, 41.075, 2400, 69.7, M
SLATER BUTTE CALIFORNIA, Siskiyou, CA01, -123.352, 41.859, 4670, 63.4, M
SANTA RITA CALIFORNIA, San Benito, CA05, -120.598, 36.348, 5000, 64.5, M
SOLDIER MOUNTAIN CALIFORNIA, Shasta, CA02, -121.586, 40.926, 3710, 62.5, M
SOMES BAR CALIFORNIA, Siskiyou, CA01, -123.496, 41.390, 920, 70.8, M
SQUAW SPRINGS CALIFORNIA, San Bernardino, CA07, -117.568, 35.370, 3620, 76.4, M
SQUAW LAKE CALIFORNIA, Imperial, CA07, -114.494, 32.908, 300, 89.5, M
HYDESVILLE 11.4 NE, Humboldt, CA01, -123.924, 40.658, 2446, M, 0.00
CAMPO ASOS, San Diego, CA07, -116.468, 32.626, 2641, 67.0, 0.22
Burbank Glendale Pasadena Area, -, -, -, -, -, 73.3, 0.10
Camarillo Area, -, -, -, -, -, 67.4, 0.12
Needles Area, -, -, -, -, -, 88.4, 0.02
Oxnard Area, -, -, -, -, -, 67.2, 0.12
Palm Springs Area, -, -, -, -, -, 85.0, 0.09
Riverside Area, -, -, -, -, -, 77.4, 0.00
Ramona Area, -, -, -, -, -, 69.6, 0.22
Crescent City Area, -, -, -, -, -, 57.0, 0.64
Escondido Area, -, -, -, -, -, 73.8, 0.14
Sacramento Downtown Area, -, -, -, -, -, 73.2, 0.17
Tahoe City Area, -, -, -, -, -, 54.0, 0.85
Ukiah Area, -, -, -, -, -, 68.9, 0.23
Alturas Area, -, -, -, -, -, 55.3, 0.24
Mount Shasta Area, -, -, -, -, -, 59.5, 0.35
Palmdale Area, -, -, -, -, -, 71.3, T
Lancaster Area, -, -, -, -, -, 71.9, 0.00
El Cajon Area, -, -, -, -, -, 74.7, 0.00
Hanford Area, -, -, -, -, -, 73.2, 0.04
El Centro Area, -, -, -, -, -, 85.8, T
Madera Area, -, -, -, -, -, 72.8, T
Merced Area, -, -, -, -, -, 71.4, 0.10
San Jose Area, -, -, -, -, -, 69.4, 0.10
CONVERSE CALIFORNIA, San Bernardino, CA06, -116.913, 34.194, 5618, 66.3, M
COOSKIE MOUNTAIN CALIFORNIA, Humboldt, CA01, -124.266, 40.257, 2950, 62.0, M
CORRALITOS CALIFORNIA, Santa Cruz, CA04, -121.798, 36.991, 450, 67.9, M
COUNTY LINE CALIFORNIA, Lake, CA02, -122.412, 39.019, 2085, 72.9, M
CAMP 9 CALIFORNIA, Los Angeles, CA06, -118.422, 34.362, 4000, 71.2, M
CRANE FLAT LOOKOUT CALIFORNIA, Mariposa, CA05, -119.825, 37.762, 6644, 60.3, M
CRESTVIEW CALIFORNIA, Mono, CA07, -118.983, 37.745, 7600, 52.6, M
CORNING CALIFORNIA, Tehama, CA02, -122.170, 39.939, 294, 73.9, M
CARPENTER RIDGE CALIFORNIA, Butte, CA02, -121.582, 40.069, 4812, 63.6, M
CRAZY PEAK CALIFORNIA, Del Norte, CA01, -123.604, 41.992, 3970, 61.6, M
DESCANSO CALIFORNIA, San Diego, CA06, -116.622, 32.857, 3480, 69.2, M
DEVILS GARDEN CALIFORNIA, Modoc, CA02, -120.671, 41.530, 5022, 59.5, M
DIABLO GRANDE CALIFORNIA, Stanislaus, CA05, -121.294, 37.329, 1850, 71.0, M
DINKEY CALIFORNIA, Fresno, CA05, -119.039, 37.066, 5668, 55.0, M
DELNORTE CALIFORNIA, Santa Barbara, CA06, -119.654, 34.009, 800, 66.2, M
DORRIS RANCH CALIFORNIA, Nevada, CA02, -121.117, 39.304, 2025, 72.2, M
DOYLE CALIFORNIA, Lassen, CA03, -120.106, 40.022, 4240, 61.0, M
DEVILS POST PILE CALIFORNIA, Madera, CA05, -119.093, 37.630, 7560, 52.0, M
DEL VALLE CALIFORNIA, Los Angeles, CA06, -118.683, 34.431, 1278, 75.3, M
DEVORE CALIFORNIA, San Bernardino, CA06, -117.404, 34.221, 2057, 75.3, M
EAGLE PEAK CALIFORNIA, Tehama, CA02, -122.657, 39.928, 3713, 66.7, M
EEL RIVER CALIFORNIA, Mendocino, CA01, -123.083, 39.833, 1500, 69.9, M
EL CARISO CALIFORNIA, Riverside, CA06, -117.411, 33.647, 3038, 75.1, M
MOUNT ELIZABETH CALIFORNIA, Tuolumne, CA05, -120.247, 38.063, 4933, 64.8, M
EL MIRAGE CALIFORNIA, San Bernardino, CA07, -117.550, 34.634, 2880, 73.0, M
ESPERANZA CALIFORNIA, Calaveras, CA05, -120.515, 38.243, 2559, 70.0, M
FANCHER CREEK CALIFORNIA, Fresno, CA05, -119.466, 36.884, 920, 78.3, M
FAWNSKIN CALIFORNIA, San Bernardino, CA06, -116.899, 34.266, 6900, 58.0, M
FENCE MEADOW CALIFORNIA, Fresno, CA05, -119.175, 36.961, 5048, 66.5, M
FISH CREEK MTN CALIFORNIA, Imperial, CA07, -116.067, 32.990, 760, 89.6, M
FIVE MILE CALIFORNIA, Inyo, CA07, -117.918, 35.872, 4150, 77.5, M
FOUNTAIN SPRINGS CALIFORNIA, Tulare, CA05, -118.915, 35.892, 210, 72.5, M
FREMONT CANYON CALIFORNIA, Orange, CA06, -117.711, 33.808, 1781, 74.8, M
FRIEND MOUNTAIN CALIFORNIA, Trinity, CA01, -123.342, 40.505, 4000, 65.3, M
FISH SLOUGH CALIFORNIA, Mono, CA07, -118.408, 37.478, 4500, 63.4, M
GASQUET CALIFORNIA, Del Norte, CA01, -123.979, 41.846, 500, 68.3, M
GRASSHOPPER CALIFORNIA, Lassen, CA03, -120.784, 40.782, 6158, 54.3, M
GOOSE VALLEY CALIFORNIA, San Diego, CA06, -116.846, 33.074, 1530, 70.5, M
GRANITE MOUNTAIN CALIFORNIA, San Bernardino, CA07, -117.026, 34.536, 4720, 72.4, M
GREEN SPRING CALIFORNIA, Tuolumne, CA05, -120.500, 37.833, 1020, 71.3, M
HASTINGS CALIFORNIA, Monterey, CA04, -121.552, 36.389, 1885, 66.2, M
HAWKEYE CALIFORNIA, Sonoma, CA01, -122.917, 38.782, 2000, 69.6, M
HAYFORK CALIFORNIA, Trinity, CA01, -123.165, 40.550, 2323, 63.4, M
HELL HOLE CALIFORNIA, Placer, CA02, -120.422, 39.072, 5240, 62.5, M
HERNANDEZ CALIFORNIA, San Benito, CA04, -120.856, 36.383, 3733, 69.7, M
HIGH GLADE LOOKOUT CALIFORNIA, Lake, CA02, -122.808, 39.208, 4840, 64.4, M
HUNTER MOUNTAIN CALIFORNIA, Inyo, CA07, -117.474, 36.563, 6880, 62.1, M
HORSE LAKE CALIFORNIA, Lassen, CA03, -120.503, 40.631, 5100, 57.2, M
HOOPA CALIFORNIA, Humboldt, CA01, -123.671, 41.048, 375, 68.9, M
HORSE THIEF SPRINGS CALIFORNIA, San Bernardino, CA07, -115.909, 35.771, 5000, 73.0, M
HURLEY CALIFORNIA, Fresno, CA05, -119.568, 37.015, 1201, 70.3, M
INDIAN WELL CALIFORNIA, Siskiyou, CA01, -121.538, 41.742, 4770, 59.3, M
JOHNSONDALE CALIFORNIA, Tulare, CA05, -118.545, 35.972, 4700, 60.0, M
JORDAN CREEK CALIFORNIA, Butte, CA02, -121.367, 39.783, 4400, 67.2, M
JUANITA LAKE CALIFORNIA, Siskiyou, CA01, -122.006, 41.786, 5400, 59.3, M
JULIAN CALIFORNIA, San Diego, CA07, -116.591, 33.076, 4240, 68.7, M
JUNIPER CREEK CALIFORNIA, Modoc, CA02, -120.472, 41.332, 4372, 58.2, M
KEENWILD CALIFORNIA, Riverside, CA06, -116.767, 33.667, 4920, 69.5, M
KERNVILLE CALIFORNIA, Kern, CA05, -118.417, 35.755, 2720, 74.5, M
KETTLEMAN HILLS CALIFORNIA, Kings, CA05, -120.057, 36.033, 810, 76.5, M
KNOXVILLE CREEK CALIFORNIA, Lake, CA02, -122.417, 38.862, 2200, 69.8, M
SANTA ROSA ISLAND CALIFORNIA, Santa Barbara, CA06, -120.078, 33.978, 1298, 59.9, M
SANTA ROSA PLATEAU CALIFORNIA, Riverside, CA06, -117.231, 33.529, 1980, 73.2, M
SANTA ROSA CALIFORNIA, Sonoma, CA01, -122.712, 38.479, 576, 68.9, M
STAMPEDE CALIFORNIA, Sierra, CA03, -120.075, 39.483, 6867, 59.2, M
STONYFORD CALIFORNIA, Colusa, CA02, -122.575, 39.367, 1200, 70.8, M
SUGARLOAF (SHF) CALIFORNIA, Shasta, CA02, -122.438, 40.917, 4200, 67.9, M
SUGARLOAF CALIFORNIA, Tulare, CA05, -118.675, 36.727, 8120, 59.9, M
SPRING VALLEY CALIFORNIA, San Mateo, CA04, -122.436, 37.563, 1075, 65.7, M
TANBARK CALIFORNIA, Los Angeles, CA06, -117.761, 34.207, 2600, 72.9, M
TARGET RANGE CALIFORNIA, San Diego, CA06, -117.359, 33.372, 918, 71.5, M
THOMES CREEK CALIFORNIA, Tehama, CA02, -122.610, 39.864, 1040, 76.5, M
TEMESCAL (CNF) CALIFORNIA, Riverside, CA06, -117.483, 33.763, 1125, 75.2, M
MOUNT TOM CALIFORNIA, Fresno, CA05, -119.178, 37.376, 9018, 54.2, M
LAS TRAMPAS CALIFORNIA, Contra Costa, CA04, -122.067, 37.834, 1760, 69.1, M
TRINITY CAMP CALIFORNIA, Trinity, CA01, -122.804, 40.786, 3308, 65.3, M
TRIMMER CALIFORNIA, Fresno, CA05, -119.305, 36.911, 1540, 73.3, M
GAYLOR MEADOW CALIFORNIA, Tuolumne, CA05, -119.318, 37.868, 9270, 50.1, M
UHL / HOT SPRINGS, Tulare, CA05, -118.633, 35.889, 3720, 68.8, M
VALLEY CENTER CALIFORNIA, San Diego, CA06, -117.009, 33.237, 1483, 72.1, M
VAN BREMMER CALIFORNIA, Siskiyou, CA01, -121.794, 41.643, 4928, 58.1, M
WALKER PASS CALIFORNIA, Kern, CA05, -118.057, 35.665, 5572, 70.4, M
WARM SPRINGS CALIFORNIA, Los Angeles, CA06, -118.579, 34.596, 4930, 72.5, M
WEAVERVILLE CALIFORNIA, Trinity, CA01, -122.943, 40.735, 2100, 65.9, M
WEED AIRPORT CALIFORNIA, Siskiyou, CA01, -122.454, 41.479, 2930, 63.5, M
WESTWOOD CALIFORNIA, Lassen, CA02, -120.900, 40.307, 5800, 58.4, M
WHITE CLOUD CALIFORNIA, Nevada, CA02, -120.837, 39.317, 4320, 66.3, M
WHITTIER HILLS CALIFORNIA, Los Angeles, CA06, -118.010, 33.984, 950, 74.1, M
WHITMORE CALIFORNIA, Shasta, CA02, -121.899, 40.619, 2417, 70.0, M
WOFFORD HEIGHTS CALIFORNIA, Kern, CA05, -118.499, 35.722, 3150, 72.9, M
WOLVERTON CALIFORNIA, Tulare, CA05, -118.703, 36.445, 5240, 69.3, M
WHITAKER PEAK CALIFORNIA, Los Angeles, CA06, -118.740, 34.569, 4120, 72.3, M
WHITE WOLF CALIFORNIA, Tuolumne, CA05, -119.650, 37.851, 8025, 53.8, M
YOLLA BOLLA CALIFORNIA, Trinity, CA01, -123.066, 40.338, 4524, 65.4, M
YUCCA VALLEY CALIFORNIA, San Bernardino, CA07, -116.408, 34.123, 3260, 72.8, M
HAGAN'S MEADOW, El Dorado, CA03, -119.940, 38.850, 7776, 50.8, 0.80
BLUE LAKES, Alpine, CA05, -119.920, 38.610, 8057, 50.3, 1.70
POISON FLAT, Alpine, CA03, -119.630, 38.510, 7736, 48.8, 0.50
SONORA PASS, Mono, CA03, -119.600, 38.310, 8827, 49.9, 0.50
LEAVITT MEADOWS, Mono, CA03, -119.550, 38.300, 7198, 52.9, 1.00
VIRGINIA LAKES RIDGE, Mono, CA03, -119.230, 38.070, 9445, 53.1, 0.10
LOBDELL LAKE, Mono, CA03, -119.370, 38.440, 9233, 50.0, 0.60
EBBETTS PASS, Alpine, CA03, -119.800, 38.550, 8765, 53.4, 1.50
HEAVENLY VALLEY, El Dorado, CA03, -119.920, 38.920, 8582, 49.2, 0.70
LEAVITT LAKE, Mono, CA03, -119.610, 38.280, 9617, 47.3, 1.50
SPRATT CREEK, Alpine, CA03, -119.820, 38.670, 6115, 56.4, 0.80
MONITOR PASS, Alpine, CA03, -119.610, 38.670, 8310, 51.1, 0.60
CROWDER FLAT, Modoc, CA01, -120.750, 41.890, 5170, 53.4, 2.00
CEDAR PASS, Modoc, CA02, -120.300, 41.580, 7030, 52.4, 1.10
DISMAL SWAMP, Modoc, CA03, -120.180, 41.990, 7360, 48.3, 2.90
ADIN MTN, Modoc, CA02, -120.790, 41.240, 6190, 49.2, 0.80
INDEPENDENCE CREEK, Sierra, CA03, -120.280, 39.490, 6456, 51.5, 0.50
INDEPENDENCE CAMP, Sierra, CA03, -120.290, 39.450, 7003, 51.8, 0.90
INDEPENDENCE LAKE, Nevada, CA03, -120.310, 39.430, 8352, 51.1, 0.80
TRUCKEE #2, Placer, CA03, -120.180, 39.300, 6509, 57.0, 0.50
WARD CREEK #3, Placer, CA03, -120.220, 39.140, 6655, 52.6, 2.40
TAHOE CITY CROSS, Placer, CA03, -120.150, 39.170, 6797, 55.0, 0.60
SQUAW VALLEY G.C., Placer, CA03, -120.260, 39.190, 8029, 51.1, 2.20
CSS LAB, Nevada, CA02, -120.370, 39.330, 6855, 53.6, 2.40
RUBICON #2, El Dorado, CA03, -120.130, 39.000, 7689, 54.3, 1.50
ECHO PEAK, El Dorado, CA03, -120.080, 38.850, 7670, 54.4, 2.90
FALLEN LEAF, El Dorado, CA03, -120.050, 38.930, 6236, 51.3, 1.10
BEAR VALLEY F.D., Kern, CA01, -118.644, 35.166, 4100, 59.2, 0.05
KONOCTI CALIFORNIA, Lake, CA02, -122.706, 38.912, 2163, 71.2, M
LOS BANOS CALIFORNIA, Merced, CA05, -121.053, 37.055, 350, 74.4, M
MT. LAGUNA CALIFORNIA, San Diego, CA07, -116.420, 32.880, 5760, 63.3, M
LA HONDA CALIFORNIA, San Mateo, CA04, -122.255, 37.305, 872, 64.9, M
LA PANZA CALIFORNIA, San Luis Obispo, CA04, -120.187, 35.381, 1630, 67.8, M
LAURAL MOUNTAIN CALIFORNIA, Kern, CA07, -117.699, 35.478, 4390, 73.8, M
LASSEN LODGE CALIFORNIA, Tehama, CA02, -121.714, 40.344, 4159, 66.5, M
LAUFMAN CALIFORNIA, Lassen, CA03, -120.353, 40.142, 5800, 61.2, M
LADDER BUTTE CALIFORNIA, Lassen, CA02, -121.297, 40.807, 5750, 58.8, M
LEO CARRILLO CALIFORNIA, Los Angeles, CA06, -118.936, 34.046, 50, 68.3, M
LOS GATOS CALIFORNIA, Santa Clara, CA04, -121.943, 37.203, 2000, 70.0, M
LOST HORSE CALIFORNIA, Riverside, CA07, -116.188, 34.018, 4200, 71.2, M
LINCOLN CALIFORNIA, Placer, CA02, -121.268, 38.883, 200, 71.6, M
LOS PRIETOS CALIFORNIA, Santa Barbara, CA06, -119.783, 34.536, 1020, 73.0, M
LAS FLORES CALIFORNIA, San Diego, CA06, -117.439, 33.289, 100, 69.0, M
LAS TABLAS CALIFORNIA, San Luis Obispo, CA04, -120.924, 35.656, 994, 67.7, M