Name, County, ClimateDivision, Longitude, Latitude, Elevation, MeanAvgTemperature, TotalPrecipitation
BARSTOW-DAGGETT AIRPORT, San Bernardino, CA07, -116.787, 34.854, 1919, 81.0, T
MERCED, Merced, CA05, -120.516, 37.289, 154, 75.3, 0.00
SAN DIEGO MONTGOMERY FIELD, San Diego, CA06, -117.137, 32.815, 418, 64.4, T
SAN DIEGO INTERNATIONAL AP, San Diego, CA06, -117.183, 32.734, 15, 63.6, 0.01
SAN DIEGO MIRAMAR NAS, San Diego, CA06, -117.133, 32.867, 477, 65.2, 0.05
NORTH ISLAND NAS, San Diego, CA06, -117.210, 32.692, 14, 63.5, 0.02
SAN FRANCISCO INTERNATIONAL AP, San Mateo, CA04, -122.366, 37.620, 10, 62.6, 0.00
SAN LUIS OBISPO MCCHESNEY FIELD, San Luis Obispo, CA04, -120.644, 35.238, 183, 62.7, 0.00
BRAWLEY 2 SW, Imperial, CA07, -115.558, 32.954, -100, 82.2, 0.00
CEDARVILLE, Modoc, CA03, -120.179, 41.530, 4688, 59.9, 0.03
CHICO UNIVERSITY FARM, Butte, CA02, -121.821, 39.691, 185, 72.5, 0.00
CHULA VISTA, San Diego, CA06, -117.086, 32.640, 56, 63.8, 0.02
COLFAX, Placer, CA02, -120.947, 39.090, 2373, 70.9, 0.00
CUYAMACA, San Diego, CA06, -116.587, 32.990, 4640, 60.6, 0.05
DAVIS 2 WSW EXP FARM, Yolo, CA02, -121.776, 38.535, 60, 73.4, 0.00
DEATH VALLEY NATIONAL PARK, Inyo, CA07, -116.867, 36.463, -194, 92.7, 0.01
FORT BRAGG 5 N, Mendocino, CA01, -123.756, 39.510, 123, 54.8, 0.28
HANFORD 1 S, Kings, CA05, -119.637, 36.316, 237, 76.2, 0.00
HAPPY CAMP RANGER STATION, Siskiyou, CA01, -123.375, 41.796, 1142, 66.2, 0.99
HEALDSBURG, Sonoma, CA01, -122.866, 38.629, 177, 71.2, 0.00
INDIO FIRE STATION, Riverside, CA07, -116.215, 33.709, -21, 86.1, 0.00
LAKE SPAULDING, Nevada, CA02, -120.639, 39.318, 5156, 59.0, 0.27
LEMON COVE, Tulare, CA05, -119.026, 36.382, 513, 76.4, T
LIVERMORE, Alameda, CA04, -121.751, 37.682, 529, 71.1, 0.00
LODI, San Joaquin, CA05, -121.288, 38.106, 40, 72.2, 0.00
MARYSVILLE, Yuba, CA02, -121.585, 39.146, 57, 74.3, 0.00
MERCED MUNICIPAL AP, Merced, CA05, -120.518, 37.286, 152, 73.1, 0.00
NAPA STATE HOSPITAL, Napa, CA01, -122.265, 38.278, 35, 68.7, 0.00
OJAI, Ventura, CA06, -119.227, 34.448, 745, M, 0.02
ORLAND, Glenn, CA02, -122.200, 39.746, 254, 73.7, 0.00
ORLEANS, Humboldt, CA01, -123.532, 41.309, 403, 67.1, 1.71
PASADENA, Los Angeles, CA06, -118.145, 34.148, 864, 70.4, 0.00
PASO ROBLES, San Luis Obispo, CA04, -120.685, 35.628, 730, 67.7, 0.00
PETALUMA AIRPORT, Sonoma, CA01, -122.608, 38.258, 20, 63.6, 0.00
QUINCY, Plumas, CA02, -120.947, 39.937, 3420, 61.9, 0.04
REDLANDS, San Bernardino, CA06, -117.195, 34.037, 1410, 70.0, 0.06
SANTA BARBARA, Santa Barbara, CA06, -119.684, 34.417, 16, 62.5, 0.08
SANTA CRUZ, Santa Cruz, CA04, -122.000, 36.988, 70, 61.1, 0.00
SANTA ROSA, Sonoma, CA01, -122.713, 38.456, 166, 65.3, 0.00
TAHOE CITY, Placer, CA03, -120.143, 39.168, 6230, 54.0, 0.24
TUSTIN IRVINE RANCH, Orange, CA06, -117.754, 33.703, 235, 65.2, 0.08
UKIAH, Mendocino, CA01, -123.210, 39.147, 636, 67.9, 0.00
VACAVILLE, Solano, CA02, -121.961, 38.396, 110, 75.1, 0.00
WASCO, Kern, CA05, -119.352, 35.589, 291, 79.7, 0.00
WEAVERVILLE, Trinity, CA01, -122.940, 40.737, 2058, 64.1, 0.31
WILLOWS 6 W, Glenn, CA02, -122.305, 39.523, 234, 73.3, 0.00
YOSEMITE PARK HEADQUARTERS, Mariposa, CA05, -119.590, 37.750, 4018, 66.4, 0.07
YREKA, Siskiyou, CA01, -122.641, 41.703, 2709, 62.3, 0.45
BERKELEY, Alameda, CA04, -122.260, 37.874, 310, 62.7, 0.00
BLYTHE, Riverside, CA07, -114.597, 33.613, 268, 83.1, 0.00
EUREKA WFO WOODLEY ISLAND, Humboldt, CA01, -124.160, 40.810, 20, 53.9, 0.71
INDEPENDENCE, Inyo, CA07, -118.204, 36.798, 3950, 74.4, 0.37
SAN LUIS OBISPO POLY, San Luis Obispo, CA04, -120.662, 35.306, 308, 64.7, 0.00
BURNEY, Shasta, CA02, -121.655, 40.880, 3198, 61.8, 0.03
IMPERIAL BEACH REAM FIELD NAS, San Diego, CA06, -117.117, 32.568, 24, 63.5, 0.00
CAMPO, San Diego, CA06, -116.470, 32.626, 2630, 65.2, 0.03
CALEXICO 2 NE, Imperial, CA07, -115.464, 32.688, 12, M, T
EL CENTRO 2 SSW, Imperial, CA07, -115.562, 32.767, -30, 84.1, 0.00
OCOTILLO 2, Imperial, CA07, -116.001, 32.746, 410, M, 0.00
LA MESA, San Diego, CA06, -117.023, 32.768, 530, 66.9, 0.02
IMPERIAL COUNTY AP, Imperial, CA07, -115.577, 32.835, -55, 82.6, T
EL CENTRO NAF, Imperial, CA07, -115.664, 32.832, -46, 84.1, T
ALPINE, San Diego, CA06, -116.777, 32.836, 1695, 67.0, 0.00
DEEP CANYON LAB, Riverside, CA07, -116.376, 33.651, 1200, M, 0.00
ELSINORE, Riverside, CA06, -117.346, 33.686, 1268, 72.6, 0.00
SANTA ANA JOHN WAYNE AP, Orange, CA06, -117.867, 33.680, 43, 65.7, 0.01
HAYFIELD PUMPING PLANT, Riverside, CA07, -115.629, 33.704, 1370, 81.6, 0.00
SUN CITY, Riverside, CA06, -117.190, 33.716, 1420, 68.1, 0.00
IDYLLWILD FIRE DEPT, Riverside, CA06, -116.707, 33.757, 5380, 63.4, T
SAN JACINTO, Riverside, CA06, -116.975, 33.797, 1525, 72.8, 0.12
HEMET, Riverside, CA06, -116.894, 33.738, 1811, 72.7, 0.08
SANTA ANA FIRE STATION, Orange, CA06, -117.867, 33.744, 135, 66.8, 0.05
LONG BEACH AQUARIUM, Los Angeles, CA06, -118.197, 33.761, 20, 66.4, 0.00
EAGLE MOUNTAIN, Riverside, CA07, -115.451, 33.809, 973, 86.5, 0.00
PALM SPRINGS, Riverside, CA07, -116.510, 33.828, 425, 86.3, 0.00
LONG BEACH DAUGHERTY AP, Los Angeles, CA06, -118.147, 33.812, 34, 66.2, T
SNOW CREEK UPPER, Riverside, CA07, -116.680, 33.873, 1940, M, 0.00
FULLERTON MUNICIPAL AP, Orange, CA06, -117.986, 33.872, 86, 67.5, 0.01
BEAUMONT #2, Riverside, CA07, -116.990, 33.926, 2591, 69.4, 0.48
HAWTHORNE MUNICIPAL AP, Los Angeles, CA06, -118.333, 33.924, 55, 64.5, T
LOS ANGELES INTL AP, Los Angeles, CA06, -118.387, 33.938, 97, 63.9, 0.01
RIVERSIDE FIRE STATION 3, Riverside, CA06, -117.388, 33.951, 840, 71.6, T
RIVERSIDE MUNICIPAL AP, Riverside, CA06, -117.435, 33.953, 845, 68.9, 0.01
CHINO AP, San Bernardino, CA06, -117.625, 33.976, 636, 67.6, T
RIVERSIDE CITRUS EXP, Riverside, CA06, -117.361, 33.967, 986, 69.9, 0.05
MONTEBELLO, Los Angeles, CA06, -118.105, 34.019, 246, 69.8, 0.00
CULVER CITY, Los Angeles, CA06, -118.414, 34.005, 92, 65.0, 0.00
SANTA MONICA MUNICIPAL AP, Los Angeles, CA06, -118.447, 34.021, 175, 63.1, 0.01
SANTA MONICA PIER, Los Angeles, CA06, -118.500, 34.008, 14, 60.5, 0.00
ONTARIO INTL AP, San Bernardino, CA06, -117.577, 34.053, 924, 69.3, 0.01
POMONA/FAIRPLEX, Los Angeles, CA06, -117.766, 34.082, 999, 68.0, 0.00
U C L A, Los Angeles, CA06, -118.443, 34.070, 430, 64.2, 0.00
IRON MOUNTAIN, San Bernardino, CA07, -115.122, 34.147, 922, 87.4, 0.00
TWENTYNINE PALMS, San Bernardino, CA07, -116.037, 34.128, 1975, 82.6, 0.00
SAN BERNARDINO F S 226, San Bernardino, CA06, -117.254, 34.134, 1140, 72.8, T
SAN GABRIEL FIRE DEPT, Los Angeles, CA06, -118.100, 34.084, 363, 69.9, 0.00
POINT MUGU NF, Ventura, CA06, -119.123, 34.124, 12, 60.8, 0.03
SAN GABRIEL CANYON PH, Los Angeles, CA06, -117.908, 34.155, 744, M, 0.10
WOODLAND HILLS PIERCE COLLEGE, Los Angeles, CA06, -118.574, 34.182, 790, 69.5, 0.00
BIG BEAR LAKE DAM, San Bernardino, CA06, -116.975, 34.241, 6815, M, 0.40
LYTLE CREEK R S, San Bernardino, CA06, -117.471, 34.238, 2730, M, 0.02
MT WILSON CBS, Los Angeles, CA06, -118.071, 34.231, 5710, 69.4, 0.00
VAN NUYS AP, Los Angeles, CA06, -118.491, 34.212, 785, 69.4, T
CAMARILLO AP, Ventura, CA06, -119.088, 34.211, 71, 63.4, 0.03
OXNARD, Ventura, CA06, -119.175, 34.198, 49, 62.7, 0.03
OXNARD VENTURA COUNTY AP, Ventura, CA06, -119.204, 34.200, 39, 61.2, T
PARKER RESRVOIR, San Bernardino, CA07, -114.171, 34.290, 738, 88.9, 0.00
TWENTYNINE PALMS MC, San Bernardino, CA07, -116.147, 34.294, 2003, 81.7, T
BIG BEAR LAKE, San Bernardino, CA06, -116.917, 34.243, 6753, 57.0, 0.09
LAKE ARROWHEAD, San Bernardino, CA07, -117.188, 34.247, 5205, 65.9, 0.24
CHATSWORTH FC 24 F, Los Angeles, CA06, -118.600, 34.250, 950, M, 0.00
VENTURA, Ventura, CA06, -119.292, 34.283, 105, M, 0.10
SANTA PAULA, Ventura, CA06, -119.133, 34.312, 237, 65.0, 0.00
SANTA BARBARA MUNI AP, Santa Barbara, CA06, -119.842, 34.424, 8, 60.5, 0.07
JUNCAL DAM, Santa Barbara, CA06, -119.507, 34.491, 2260, M, 0.00
VICTORVILLE, San Bernardino, CA07, -117.293, 34.529, 2880, 74.2, 0.01
GIBRALTAR DAM NO. 2, Santa Barbara, CA06, -119.682, 34.523, 1558, M, 0.01
PALMDALE, Los Angeles, CA07, -118.094, 34.588, 2612, 75.2, 0.00
SAUGUS POWER PLANT 1, Los Angeles, CA06, -118.454, 34.590, 2161, M, T
LOS PRIETOS RS, Santa Barbara, CA06, -119.791, 34.544, 1024, M, 0.00
CACHUMA LAKE, Santa Barbara, CA06, -119.982, 34.582, 789, 68.5, 0.06
SALSIPUEDES GAGING STATION, Santa Barbara, CA06, -120.408, 34.585, 254, M, T
EL MIRAGE, San Bernardino, CA07, -117.630, 34.589, 2950, 72.7, 0.00
PALMDALE AP, Los Angeles, CA07, -118.083, 34.629, 2509, 74.3, T
LOMPOC, Santa Barbara, CA06, -120.451, 34.654, 75, 61.6, 0.02
LANCASTER, Los Angeles, CA06, -118.213, 34.741, 2338, 74.8, T
SANDBERG, Los Angeles, CA06, -118.724, 34.744, 4510, 67.3, 0.00
LOS ALAMOS, Santa Barbara, CA06, -120.280, 34.746, 565, 64.2, T
LEBEC, Kern, CA05, -118.865, 34.833, 3575, 56.7, 0.00
GAREY SISQUOC RIVER, Santa Barbara, CA06, -120.305, 34.894, 355, M, 0.00
MITCHELL CAVERNS, San Bernardino, CA07, -115.547, 34.944, 4350, 74.5, T
NEW CUYAMA FIRE STATION, Santa Barbara, CA06, -119.683, 34.946, 2160, 69.9, 0.00
MOJAVE, Kern, CA07, -118.162, 35.049, 2735, 76.3, 0.00
PISMO BEACH, San Luis Obispo, CA04, -120.683, 35.160, 39, 59.8, 0.02
TAFT, Kern, CA05, -119.430, 35.150, 773, 77.4, 0.00
BAKER, San Bernardino, CA07, -116.063, 35.276, 962, 85.1, 0.00
GOLDSTONE ECHO NO 2, San Bernardino, CA07, -116.784, 35.281, 2950, M, 0.00
RANDSBURG, Kern, CA07, -117.652, 35.369, 3570, 75.4, 0.08
SANTA MARGARITA BOOST, San Luis Obispo, CA04, -120.637, 35.374, 1148, M, 0.00
MORRO BAY FIRE DEPT, San Luis Obispo, CA04, -120.845, 35.367, 118, 56.9, 0.00
BAKERSFIELD AP, Kern, CA05, -119.055, 35.434, 490, 76.9, T
BUTTONWILLOW, Kern, CA05, -119.470, 35.403, 225, 77.0, 0.00
MOUNTAIN PASS, San Bernardino, CA07, -115.544, 35.470, 4730, 70.2, 0.00
GLENNVILLE, Kern, CA05, -118.701, 35.727, 3140, 63.9, 0.00
TRONA, San Bernardino, CA07, -117.391, 35.764, 1695, 81.3, 0.03
KERN RIVER PH 3, Kern, CA05, -118.439, 35.783, 2703, 71.7, 0.00
DELANO, Kern, CA05, -119.260, 35.768, 302, 71.3, 0.00
BRADLEY TELEMETERING, Monterey, CA04, -120.868, 35.930, 443, M, 0.00
SHOSHONE, Inyo, CA07, -116.271, 35.972, 1546, M, 0.00
PORTERVILLE MUNICIPAL AIRPORT, Tulare, CA05, -119.062, 36.029, 442, 74.9, 0.00
PORTERVILLE, Tulare, CA05, -119.020, 36.068, 393, 77.1, 0.00
KETTLEMAN STATION, Kings, CA05, -120.088, 36.073, 508, M, 0.00
HAIWEE, Inyo, CA07, -117.953, 36.139, 3825, 70.1, 0.18
CORCORAN IRRIGATION DIST., Kings, CA05, -119.582, 36.098, 200, 76.8, 0.00
COALINGA, Fresno, CA05, -120.361, 36.136, 670, 77.6, 0.00
PRIEST VALLEY, Monterey, CA04, -120.695, 36.188, 2300, 67.0, 0.00
KING CITY, Monterey, CA04, -121.138, 36.207, 320, 68.5, 0.00
LINDSAY, Tulare, CA05, -119.054, 36.203, 435, 76.4, 0.00
BIG SUR STATION, Monterey, CA04, -121.780, 36.247, 200, 63.0, 0.00
VISALIA, Tulare, CA05, -119.300, 36.328, 303, 75.0, 0.00
FIVE POINTS 5 SSW, Fresno, CA05, -120.156, 36.364, 285, 77.5, 0.00
SAN CLEMENTE DAM, Monterey, CA04, -121.709, 36.438, 600, M, 0.00
ASH MOUNTAIN, Tulare, CA05, -118.825, 36.491, 1708, 74.4, 0.00
THREE RIVERS EDISON PH 1, Tulare, CA05, -118.862, 36.465, 1140, 73.3, 0.00
PINNACLES NATIONAL PARK, San Benito, CA04, -121.182, 36.482, 1307, 68.1, 0.00
LODGEPOLE, Tulare, CA05, -118.732, 36.604, 6735, 53.2, 0.09
PANOCHE 2 W, San Benito, CA05, -120.884, 36.607, 1400, M, 0.00
MONTEREY, Monterey, CA04, -121.855, 36.593, 122, 59.4, T
SALINAS NO. 2, Monterey, CA04, -121.666, 36.659, 45, 60.9, 0.01
SALINAS AP, Monterey, CA04, -121.609, 36.664, 73, 61.6, T
GRANT GROVE, Tulare, CA05, -118.962, 36.738, 6580, 55.9, T
PAICINES 4 W, San Benito, CA04, -121.349, 36.715, 905, 63.4, 0.00
PINE FLAT DAM, Fresno, CA05, -119.337, 36.821, 615, M, 0.00
LOS BANOS ARBURUA RANCH, Merced, CA05, -120.939, 36.875, 843, M, 0.00
HOLLISTER 2, San Benito, CA04, -121.421, 36.848, 275, 69.3, 0.00
CHITTENDEN PASS, Santa Cruz, CA04, -121.597, 36.900, 82, M, 0.00
BALCH POWER HOUSE, Fresno, CA05, -119.088, 36.909, 1735, 73.7, 0.00
WATSONVILLE WATERWORKS, Santa Cruz, CA04, -121.769, 36.931, 95, 61.1, 0.00
FRIANT GOVERNMENT CAMP, Fresno, CA05, -119.707, 36.997, 410, 74.8, 0.00
MADERA, Madera, CA05, -120.038, 36.954, 270, 74.4, 0.00
WISHON DAM, Fresno, CA05, -118.984, 37.007, 6550, 57.6, 0.00
LOS BANOS DET RESV, Merced, CA05, -120.930, 36.990, 407, 75.9, 0.00
GILROY, Santa Clara, CA04, -121.561, 37.003, 194, 69.6, 0.00
AUBERRY 2 NW, Fresno, CA05, -119.513, 37.092, 2090, 75.0, 0.00
LOS BANOS, Merced, CA05, -120.867, 37.056, 120, 75.8, 0.00
SAN LUIS DAM, Merced, CA05, -121.058, 37.053, 277, 75.9, 0.00
BEN LOMOND NO. 4, Santa Cruz, CA04, -122.080, 37.086, 420, 65.9, 0.00
MORGAN HILL, Santa Clara, CA04, -121.602, 37.136, 375, 71.0, 0.00
SOUTH LAKE, Inyo, CA07, -118.570, 37.168, 9580, M, 0.49
LAKE SABRINA, Inyo, CA07, -118.614, 37.213, 9065, M, 0.27
HUNTINGTON LAKE, Fresno, CA05, -119.221, 37.228, 7020, 51.1, 0.01
BIG CREEK PH 1, Fresno, CA05, -119.242, 37.206, 4878, 66.0, 0.00
NORTH FORK RS, Madera, CA05, -119.510, 37.233, 2645, 68.4, 0.00
LOS GATOS, Santa Clara, CA04, -121.959, 37.232, 365, 68.4, 0.00
BISHOP CREEK INTAKE 2, Inyo, CA07, -118.581, 37.248, 8154, M, 0.22
COARSEGOLD 1 SW, Madera, CA05, -119.705, 37.250, 2230, M, 0.00
NEWMAN, Stanislaus, CA05, -121.018, 37.281, 90, 71.6, 0.00
MOUNT HAMILTON, Santa Clara, CA04, -121.635, 37.343, 4220, 65.3, 0.00
SAN GREGORIO 2 SE, San Mateo, CA04, -122.362, 37.312, 275, 55.6, 0.03
DEEP SPRINGS COLLEGE, Inyo, CA07, -117.980, 37.374, 5225, 68.7, 2.00
BISHOP AIRPORT, Inyo, CA07, -118.359, 37.371, 4110, 68.4, 0.12
MOFFETT FEDERAL AIRFIELD, Santa Clara, CA04, -122.048, 37.406, 39, 66.5, 0.00
WOODSIDE FIRE STATION 1, San Mateo, CA04, -122.256, 37.429, 380, 68.8, 0.00
TURLOCK #2, Stanislaus, CA05, -120.846, 37.502, 103, 74.6, 0.00
PALO ALTO, Santa Clara, CA04, -122.140, 37.444, 25, 63.7, 0.00
REDWOOD CITY, San Mateo, CA04, -122.239, 37.477, 31, 67.1, 0.00
HALF MOON BAY, San Mateo, CA04, -122.443, 37.473, 27, 56.0, 0.02
SO ENTRANCE YOSEMITE N.P., Mariposa, CA05, -119.633, 37.512, 5047, 57.8, 0.00
MARIPOSA R S, Mariposa, CA05, -119.986, 37.495, 2100, M, 0.00
NEWARK, Alameda, CA04, -122.032, 37.515, 10, 67.5, 0.00
EXCHEQUER DAM, Mariposa, CA05, -120.267, 37.585, 442, M, 0.00
MODESTO AP, Stanislaus, CA05, -120.955, 37.625, 87, 74.7, T
HAYWARD AIR TERMINAL, Alameda, CA04, -122.121, 37.659, 31, 65.4, 0.00
TRACY CARBONA, San Joaquin, CA05, -121.347, 37.682, 135, 73.1, 0.00
LIVERMORE MUNICIPAL AP, Alameda, CA04, -121.815, 37.693, 393, 69.0, 0.00
OAKLAND INTERNATIONAL AIRPORT, Alameda, CA04, -122.233, 37.718, 5, 62.8, T
GEM LAKE, Mono, CA03, -119.140, 37.752, 8970, M, 0.50
UPPER SAN LEANDRO FILTERS, Alameda, CA04, -122.167, 37.772, 394, M, 0.00
SAN FRANCISCO DOWNTOWN, San Francisco, CA04, -122.427, 37.771, 150, 61.0, 0.00
SAN FRANCISCO OCEANSIDE, San Francisco, CA04, -122.505, 37.728, 8, 56.5, 0.00
GROVELAND RS, Tuolumne, CA05, -120.098, 37.823, 3145, M, 0.00
GROVELAND 2, Tuolumne, CA05, -120.226, 37.844, 2800, 64.7, 0.00
TRACY PUMPING PLANT, Alameda, CA05, -121.583, 37.796, 61, 75.7, 0.00
OAKLAND MUSEUM, Alameda, CA04, -122.264, 37.798, 30, 63.7, 0.00
BENTON INSPECTION STN, Mono, CA07, -118.478, 37.843, 5460, 63.0, 0.21
MATHER, Tuolumne, CA05, -119.856, 37.885, 4510, M, T
MOUNT DIABLO JUNCTION, Contra Costa, CA04, -121.930, 37.879, 2170, 67.8, 0.00
ELLERY LAKE, Mono, CA03, -119.230, 37.936, 9645, M, 0.65
STOCKTON AP, San Joaquin, CA05, -121.226, 37.890, 27, 73.0, 0.00
IMPERIAL, Imperial, CA07, -115.567, 32.849, -64, 83.9, T
EL CAPITAN DAM, San Diego, CA06, -116.815, 32.886, 600, 68.7, 0.28
LAKESIDE 2 E, San Diego, CA06, -116.895, 32.854, 690, M, 0.26
POWAY VALLEY, San Diego, CA06, -117.031, 33.020, 648, 65.6, 0.24
JULIAN CDF, San Diego, CA06, -116.592, 33.076, 4215, 63.2, 0.00
RAMONA FIRE DEPT, San Diego, CA06, -116.908, 33.011, 1470, 65.4, 0.12
SAN PASQUAL ANIMAL PK, San Diego, CA06, -116.997, 33.096, 420, 67.7, 0.32
CARLSBAD MCCLELLAN PALOMAR AP, San Diego, CA06, -117.277, 33.130, 313, 62.3, 0.18
HENSHAW DAM, San Diego, CA06, -116.761, 33.237, 2700, 64.4, 0.05
VISTA, San Diego, CA06, -117.232, 33.235, 430, 63.9, 0.25
OCEANSIDE MARINA, San Diego, CA06, -117.395, 33.210, 10, 60.7, 0.00
NILAND, Imperial, CA07, -115.524, 33.278, -60, M, 0.00
BORREGO DESERT PARK, San Diego, CA07, -116.404, 33.256, 810, 83.8, 0.00
PALOMAR MTN OBSERVATORY, San Diego, CA06, -116.840, 33.378, 5550, 67.5, 0.09
TEMECULA, Riverside, CA06, -117.151, 33.497, 1020, 69.0, 0.03
MECCA FIRE STATION, Riverside, CA07, -116.073, 33.570, -183, 85.1, 0.00
ANZA, Riverside, CA06, -116.674, 33.556, 3915, M, 0.00
LAGUNA BEACH, Orange, CA06, -117.781, 33.545, 44, 64.1, 0.15
BLYTHE ASOS, Riverside, CA07, -114.715, 33.619, 395, 85.8, 0.00
DESERT RESORTS REGIONAL AP, Riverside, CA07, -116.164, 33.632, -118, 82.9, T
RICHMOND, Contra Costa, CA04, -122.377, 37.919, 20, 63.8, 0.00
MUIR WOODS, Marin, CA01, -122.569, 37.898, 220, M, T
HETCH HETCHY, Tuolumne, CA05, -119.783, 37.961, 3870, 67.5, 0.00
CHERRY VALLEY DAM, Tuolumne, CA05, -119.916, 37.975, 4765, 65.7, 0.03
SONORA, Tuolumne, CA05, -120.387, 37.967, 1675, 66.8, 0.00
STOCKTON FIRE STA 4, San Joaquin, CA05, -121.318, 37.999, 12, 70.3, 0.00
CONCORD BUCHANAN FIELD, Contra Costa, CA04, -122.053, 37.992, 23, 70.4, 0.00
CONCORD WASTEWATER PLANT, Contra Costa, CA04, -122.069, 37.983, 40, 71.1, 0.00
SAN RAFAEL-CIVIC CENTER, Marin, CA01, -122.537, 37.998, 120, 66.3, 0.00
KENTFIELD, Marin, CA01, -122.545, 37.957, 145, 68.3, 0.00
MARTINEZ WATER PLANT, Contra Costa, CA04, -122.114, 38.013, 40, 70.4, 0.00
SAN ANDREAS 2, Calaveras, CA05, -120.671, 38.191, 1100, 67.9, 0.00
BODIE CALIFORNIA STATE HISTORIC PARK, Mono, CA03, -119.014, 38.212, 8370, 48.6, 0.14
ACAMPO 5NE, San Joaquin, CA05, -121.201, 38.218, 87, M, 0.00
NAPA COUNTY AIRPORT, Napa, CA04, -122.280, 38.208, 16, 63.7, 0.00
BRIDGEPORT, Mono, CA03, -119.229, 38.258, 6470, 54.2, 0.11
CALAVERAS BIG TREES, Calaveras, CA05, -120.311, 38.277, 4695, 60.4, T
CAMP PARDEE, Calaveras, CA05, -120.843, 38.249, 658, 74.0, 0.00
TRAVIS FIELD AFB, Solano, CA02, -121.933, 38.267, 62, 71.0, 0.00
FAIRFIELD, Solano, CA02, -122.068, 38.274, 40, 71.2, 0.00
SONOMA, Sonoma, CA01, -122.462, 38.299, 97, 68.4, 0.00
SUTTER HILL CDF, Amador, CA05, -120.801, 38.377, 1586, 71.9, 0.00
WEST POINT, Calaveras, CA05, -120.545, 38.378, 2775, M, 0.00
ATLAS ROAD BROWN, Napa, CA01, -122.248, 38.427, 1680, M, 0.00
GRATON, Sonoma, CA01, -122.865, 38.431, 200, 63.8, 0.00
OCCIDENTAL, Sonoma, CA01, -122.966, 38.386, 865, 64.3, 0.01
FIDDLETOWN DEXTER RCH, Amador, CA05, -120.698, 38.525, 2170, M, 0.00
SACRAMENTO AP ASOS, Sacramento, CA02, -121.496, 38.507, 19, 71.7, T
WINTERS, Yolo, CA02, -121.978, 38.525, 135, 76.4, T
LAKE SOLANO, Solano, CA02, -122.004, 38.492, 187, 75.2, 0.00
SAINT HELENA, Napa, CA01, -122.471, 38.507, 225, 70.2, 0.00
SAINT HELENA 4 WSW, Napa, CA01, -122.538, 38.493, 1780, M, 0.00
FORT ROSS, Sonoma, CA01, -123.245, 38.515, 112, 55.3, 0.00
SACRAMENTO 5 ESE, Sacramento, CA02, -121.418, 38.555, 38, 74.7, 0.00
ANGWIN PACIFIC UNION COLLEGE, Napa, CA01, -122.440, 38.573, 1715, 69.4, 0.00
CALISTOGA, Napa, CA01, -122.578, 38.577, 350, 69.4, 0.00
VENADO, Sonoma, CA01, -123.018, 38.609, 1260, M, 0.00
WOODLAND 1 WNW, Yolo, CA02, -121.794, 38.683, 67, 74.2, 0.00
MARKLEEVILLE, Alpine, CA03, -119.780, 38.692, 5530, 55.0, 0.09
PLACERVILLE, El Dorado, CA02, -120.824, 38.696, 1850, 71.5, 0.00
REPRESA, Sacramento, CA02, -121.161, 38.694, 295, M, 0.00
SACRAMENTO METROPOLITAN AP, Sacramento, CA02, -121.595, 38.701, 24, 72.8, T
PACIFIC HOUSE, El Dorado, CA02, -120.503, 38.758, 3450, M, T
CLOVERDALE, Sonoma, CA01, -123.026, 38.793, 400, 73.1, 0.00
KELSEY 1 N, El Dorado, CA02, -120.821, 38.809, 2000, M, 0.00
SOUTH LAKE TAHOE AP, El Dorado, CA03, -119.996, 38.898, 6257, 53.1, 0.03
GEORGETOWN RS, El Dorado, CA02, -120.801, 38.933, 3001, 69.7, 0.00
AUBURN, Placer, CA02, -121.084, 38.907, 1292, 72.1, 0.00
NICOLAUS #2, Sutter, CA02, -121.545, 38.926, 43, M, 0.00
YORKVILLE, Mendocino, CA01, -123.231, 38.905, 1100, M, 0.00
CLEARLAKE 4 SE, Lake, CA02, -122.567, 38.924, 1349, 67.1, 0.00
FORESTHILL RANGER STATION, Placer, CA02, -120.845, 39.010, 3015, M, 0.00
LAKEPORT, Lake, CA02, -122.917, 39.033, 1315, 68.7, 0.00
IOWA HILL, Placer, CA02, -120.840, 39.118, 3100, M, 0.00
MARYSVILLE AIRPORT (ASOS), Yuba, CA02, -121.569, 39.102, 62, 73.5, 0.00
UKIAH MUNICIPAL AP, Mendocino, CA01, -123.200, 39.128, 603, 68.4, T
UKIAH 4 WSW, Mendocino, CA01, -123.272, 39.127, 1328, M, T
GOLD RUN 4 SW, Placer, CA02, -120.900, 39.150, 3220, M, 0.03
WILLIAMS, Colusa, CA02, -122.150, 39.150, 85, M, 0.00
GRASS VALLEY NO. 2, Nevada, CA02, -121.068, 39.204, 2400, 66.0, T
COLUSA 2 SSW, Colusa, CA02, -122.027, 39.188, 50, 74.8, 0.00
BLUE CANYON NYACK AP, Placer, CA02, -120.709, 39.276, 5286, 62.1, 0.28
NEVADA CITY, Nevada, CA02, -121.001, 39.247, 2781, 66.8, 0.02
TRUCKEE AIRPORT, Nevada, CA03, -120.139, 39.320, 5900, 49.9, 0.00
TRUCKEE RS, Nevada, CA03, -120.173, 39.333, 5823, 55.7, 0.21
DONNER MEMORIAL ST PARK, Nevada, CA03, -120.233, 39.324, 5937, 55.0, 0.16
DEER CREEK FOREBAY, Nevada, CA02, -120.833, 39.300, 4455, M, 0.00
COLGATE POWERHOUSE, Yuba, CA02, -121.192, 39.331, 595, M, 0.04
BOCA, Nevada, CA03, -120.094, 39.389, 5575, 54.1, 0.00
DOBBINS 1 S, Yuba, CA02, -121.201, 39.358, 1640, 70.2, 0.05
EAST PARK RESERVOIR, Colusa, CA02, -122.518, 39.359, 1205, 68.5, 0.00
STONYFORD, Colusa, CA02, -122.546, 39.375, 1170, M, 0.00
POTTER VALLEY POWERHOUSE, Mendocino, CA01, -123.129, 39.362, 1018, 67.3, 0.00
SAGEHEN CREEK, Nevada, CA03, -120.241, 39.432, 6337, 51.4, 0.00
WILLITS 1 NE, Mendocino, CA01, -123.342, 39.419, 1353, 59.0, 0.05
BOWMAN DAM, Nevada, CA02, -120.656, 39.454, 5385, 60.8, 0.43
OROVILLE, Butte, CA02, -121.553, 39.518, 171, 73.8, 0.00
OROVILLE MUNICIPAL AP, Butte, CA02, -121.622, 39.494, 187, 74.1, 0.01
SIERRAVILLE RS, Sierra, CA02, -120.370, 39.583, 4975, 58.1, 0.00
DOWNIEVILLE, Sierra, CA02, -120.824, 39.563, 2915, 64.7, 0.28
STRAWBERRY VALLEY, Yuba, CA02, -121.108, 39.563, 3808, 62.5, 0.12
STONY GORGE RESERVOIR, Glenn, CA02, -122.534, 39.586, 800, 71.1, 0.00
BRUSH CREEK RANGER STATION, Butte, CA02, -121.345, 39.695, 3560, M, 0.04
PARADISE, Butte, CA02, -121.624, 39.754, 1750, 73.2, 0.03
COVELO, Mendocino, CA01, -123.244, 39.816, 1413, 64.2, 0.10
VINTON, Plumas, CA02, -120.186, 39.806, 4950, M, 0.01
PORTOLA, Plumas, CA02, -120.472, 39.805, 4850, 57.3, T
COVELO EEL RIVER RS, Mendocino, CA01, -123.085, 39.826, 1517, M, 0.08
DE SABLA, Butte, CA02, -121.611, 39.872, 2710, 67.5, 0.06
PASKENTA RANGER STATION, Tehama, CA02, -122.554, 39.888, 755, M, 0.00
LEGGETT, Mendocino, CA01, -123.720, 39.874, 703, M, 0.24
STANDISH HICKEY ST PK, Mendocino, CA01, -123.727, 39.878, 853, 62.6, 0.27
BUCKS CREEK, Plumas, CA02, -121.315, 39.937, 1891, M, 0.20
DOYLE 4 SSE, Lassen, CA03, -120.083, 39.972, 4390, 61.8, 0.00
DOYLE, Lassen, CA03, -120.105, 40.027, 4293, M, 0.00
RICHARDSON GR ST PK, Humboldt, CA01, -123.793, 40.026, 503, 62.4, 0.15
SHELTER COVE AVIATION, Humboldt, CA01, -124.073, 40.033, 246, 60.0, 0.99
GREENVILLE, Plumas, CA02, -120.950, 40.141, 3590, M, 0.00
CANYON DAM, Plumas, CA02, -121.089, 40.171, 4560, 59.6, 0.01
MIRANDA 4 SE, Humboldt, CA01, -123.776, 40.182, 266, M, 0.16
FORT SEWARD, Humboldt, CA01, -123.632, 40.218, 220, M, 27.84
HONEYDEW 1 SW, Humboldt, CA01, -124.132, 40.238, 373, M, 0.16
CHESTER, Plumas, CA02, -121.242, 40.303, 4530, 57.9, 0.17
MINERAL, Tehama, CA02, -121.609, 40.346, 4875, 55.8, 0.16
HARRISON GULCH RS, Shasta, CA02, -122.965, 40.364, 2750, 61.2, 0.04
COLEMAN FISHERIES STATION, Shasta, CA02, -122.143, 40.400, 420, M, T
VOLTA PH, Shasta, CA02, -121.866, 40.458, 2220, M, 0.16
GRIZZLY CREEK STATE PARK, Humboldt, CA01, -123.909, 40.486, 413, 56.4, 0.42
SCOTIA, Humboldt, CA01, -124.104, 40.483, 136, 58.7, 0.23
MANZANITA LAKE, Shasta, CA02, -121.577, 40.541, 5750, 56.8, 0.21
HAYFORK 2 W, Trinity, CA01, -123.212, 40.552, 2300, 60.3, 0.27
WHISKEYTOWN RESERVOIR, Shasta, CA02, -122.528, 40.612, 1295, 72.9, 0.08
HYAMPOM, Trinity, CA01, -123.457, 40.616, 1278, M, 0.89
SHASTA DAM, Shasta, CA02, -122.416, 40.714, 1075, 73.5, 0.29
TRINITY RIVER HATCHERY, Trinity, CA01, -122.795, 40.726, 1861, 65.0, 0.22
BIG BAR 4 E, Trinity, CA01, -123.208, 40.741, 1253, 66.2, 0.54
BUCKHORN, Shasta, CA02, -121.932, 40.880, 3700, M, 0.87
HAT CREEK, Shasta, CA02, -121.543, 40.932, 3015, 60.0, 0.00
REDWOOD CREEK O'KANE, Humboldt, CA01, -123.815, 40.907, 883, M, 1.20
PIT RIVER PH 5, Shasta, CA02, -121.977, 40.987, 1458, M, 0.70
WILLOW CREEK 1 NW, Humboldt, CA01, -123.636, 40.947, 464, 64.9, 1.57
FALL RIVER MILLS, Shasta, CA02, -121.435, 41.008, 3300, M, 0.00
COFFEE CREEK RS, Trinity, CA01, -122.709, 41.089, 2503, M, 0.44
TEJON RANCHO, Kern, CA05, -118.750, 35.023, 1425, 77.6, 0.00
SAN SIMEON POINT PIEDRAS BLANCAS, San Luis Obispo, CA04, -121.285, 35.666, 59, 54.7, 0.00
BURBANK GLENDALE PASADENA AP, Los Angeles, CA06, -118.365, 34.200, 731, 68.9, 0.00
MOUNT SHASTA, Siskiyou, CA02, -122.317, 41.322, 3613, 59.6, 0.17
WATSONVILLE MUNICIPAL AIRPORT, Santa Cruz, CA04, -121.790, 36.939, 162, 60.4, 0.02
SANTA ROSA SONOMA CO AP, Sonoma, CA04, -122.811, 38.504, 119, 65.3, T
OAKHURST, Madera, CA05, -119.653, 37.331, 2230, 67.3, 0.00
HEARST CASTLE, San Luis Obispo, CA04, -121.168, 35.684, 1526, 66.9, 0.00
GETTY CENTER, Los Angeles, CA06, -118.479, 34.087, 1117, 65.3, 0.00
HESPERIA 2E, San Bernardino, CA07, -117.266, 34.421, 3055, 80.6, 0.05
RANCHO BERNARDO, San Diego, CA06, -117.081, 33.022, 690, 64.4, 0.09
FELTON, Santa Cruz, CA04, -122.075, 37.051, 400, 64.0, 0.02
PACIFICA 2S, San Mateo, CA04, -122.484, 37.610, 125, 56.9, 0.05
WEST COVINA, Los Angeles, CA06, -117.896, 34.052, 575, 68.6, 0.05
TORRANCE AP, Los Angeles, CA06, -118.342, 33.802, 90, 64.5, 0.02
LOS ANGELES DOWNTOWN/USC, Los Angeles, CA06, -118.291, 34.024, 179, 67.3, 0.00
FRESNO YOSEMITE INT'L, Fresno, CA05, -119.720, 36.780, 334, 77.3, 0.00
MONTEREY PENINSUL AP, Monterey, CA04, -121.849, 36.590, 160, 58.6, 0.00
PASO ROBLES MUNICIPAL AP, San Luis Obispo, CA04, -120.629, 35.669, 820, 69.0, T
MONTAGUE SISKIYOU AIRPORT, Siskiyou, CA01, -122.468, 41.774, 2645, 62.5, 0.21
SAN JOSE, Santa Clara, CA04, -121.903, 37.350, 67, 70.3, 0.00
SAN JOSE, Santa Clara, CA04, -121.924, 37.359, 49, 67.7, 0.00
PALM SPRINGS ASOS, Riverside, CA07, -116.504, 33.822, 409, 85.2, T
SAN DIEGO BROWN FIELD, San Diego, CA06, -116.994, 32.576, 521, 63.6, 0.09
Bakersfield Area, -, -, -, -, -, 76.9, T
Bishop Area, -, -, -, -, -, 68.4, 0.12
Los Angeles Downtown Area, -, -, -, -, -, 67.3, 0.00
Eureka Area, -, -, -, -, -, 53.9, 0.71
Fresno Area, -, -, -, -, -, 77.3, 0.00
Los Angeles Airport Area, -, -, -, -, -, 63.9, 0.01
Long Beach Area, -, -, -, -, -, 66.2, T
Redding Area, -, -, -, -, -, 74.0, 0.03
Sacramento Area, -, -, -, -, -, 71.7, T
San Diego Area, -, -, -, -, -, 63.6, 0.01
Stockton Area, -, -, -, -, -, 73.0, 0.00
San Francisco Airport Area, -, -, -, -, -, 62.6, 0.00
Santa Maria Area, -, -, -, -, -, 61.2, 0.01
CAMP PENDLETON MCAS, San Diego, CA06, -117.355, 33.304, 70, 63.7, 0.01
LEMOORE REEVES NAS, Fresno, CA05, -119.950, 36.333, 232, 74.6, 0.00
ARVIN, Kern, CA05, -118.834, 35.211, 450, 73.0, 0.00
FRAZIER PARK, Kern, CA06, -118.965, 34.827, 4972, 58.8, 0.00
REDONDO BEACH, Los Angeles, CA06, -118.376, 33.834, 142, 64.0, 0.04
BURBANK VALLEY PUMP PLANT, Los Angeles, CA06, -118.348, 34.187, 655, 68.3, 0.00
ARBUCKLE BASIN CALIFORNIA, Shasta, CA02, -122.833, 40.398, 1900, 71.9, M
ACTON CALIFORNIA, Los Angeles, CA06, -118.200, 34.446, 2600, 70.5, M
ARROYO GRANDE CALIFORNIA, San Luis Obispo, CA04, -120.392, 35.179, 1048, 66.7, M
ALDER SPRINGS CALIFORNIA, Glenn, CA02, -122.724, 39.651, 4300, 66.3, M
ALPINE CALIFORNIA, San Diego, CA06, -116.739, 32.834, 2041, 68.1, M
LOS ALTOS CALIFORNIA, Santa Clara, CA04, -122.147, 37.358, 645, 69.0, M
ANZA CALIFORNIA, Riverside, CA06, -116.673, 33.555, 3920, 65.1, M
ALDER POINT CALIFORNIA, Humboldt, CA01, -123.590, 40.187, 923, 64.2, M
ARROYO SECO (MT. DIABLO) CALIF, Monterey, CA04, -121.492, 36.230, 980, 71.1, M
ASH CREEK CALIFORNIA, Siskiyou, CA02, -121.979, 41.277, 3200, 56.7, M
ASH VALLEY CALIFORNIA, Lassen, CA02, -120.686, 41.052, 5100, 55.6, M
BACKBONE CALIFORNIA, Trinity, CA01, -123.142, 40.889, 4700, 66.0, M
BALD MTN LOC CALIFORNIA, El Dorado, CA02, -120.697, 38.906, 4680, 68.5, M
BARNABY CALIFORNIA, Marin, CA01, -122.702, 38.028, 1240, 62.1, M
BATTERSON CALIFORNIA, Madera, CA05, -119.508, 37.232, 3160, 71.6, M
BIG BAR CALIFORNIA, Trinity, CA01, -123.233, 40.733, 1500, 68.6, M
BELL CANYON CALIFORNIA, Orange, CA06, -117.592, 33.542, 700, 65.3, M
BEAR PEAK CALIFORNIA, Tulare, CA05, -118.052, 35.884, 8228, 58.0, M
BENTON CALIFORNIA, Mono, CA07, -118.478, 37.843, 5450, 64.0, M
BEVERLY HILLS CALIFORNIA, Los Angeles, CA06, -118.412, 34.125, 1260, 66.6, M
BANGOR CALIFORNIA, Butte, CA02, -121.386, 39.398, 803, 73.5, M
BIG HILL CALIFORNIA, Humboldt, CA01, -123.636, 41.098, 3570, 60.8, M
BLACK DIAMOND CALIFORNIA, Contra Costa, CA04, -121.884, 37.950, 1600, 70.4, M
BLUE DOOR CALIFORNIA, Lassen, CA02, -120.337, 41.055, 5615, 55.8, M
BLUE RIDGE (KNF) CALIFORNIA, Siskiyou, CA01, -123.187, 41.269, 5956, 62.1, M
BEN BOLT CALIFORNIA, El Dorado, CA05, -120.934, 38.591, 905, 70.8, M
BEN LOMOND CALIFORNIA, Santa Cruz, CA04, -122.170, 37.132, 2630, 67.6, M
BOGARD R.S. CALIFORNIA, Lassen, CA02, -121.083, 40.598, 5650, 52.5, M
BOONVILLE CALIFORNIA, Mendocino, CA01, -123.349, 38.988, 644, 66.4, M
BRANCH MOUNTAIN CALIFORNIA, San Luis Obispo, CA04, -120.083, 35.189, 3770, 69.0, M
BRIONES CALIFORNIA, Contra Costa, CA04, -122.118, 37.944, 1450, 69.0, M
BLACKROCK CALIFORNIA, Tulare, CA05, -118.260, 36.093, 8200, 54.8, M
BROOKS CALIFORNIA, Yolo, CA02, -122.145, 38.738, 354, 75.5, M
BUCK MEADOWS CALIFORNIA, Tuolumne, CA05, -120.097, 37.823, 3200, 65.5, M
BULL FLAT CALIFORNIA, Lassen, CA03, -120.114, 40.481, 4395, 60.4, M
BURNS CANYON CALIFORNIA, San Bernardino, CA07, -116.634, 34.210, 6000, 67.8, M
BUTTERCUP CALIFORNIA, Imperial, CA07, -114.884, 32.740, 217, 85.2, M
BEAVER CAMP LOC CALIFORNIA, Amador, CA05, -120.325, 38.488, 5000, 67.6, M
BRAZIE RANCH CALIFORNIA, Siskiyou, CA01, -122.594, 41.685, 3000, 64.7, M
CAHUILLA CALIFORNIA, Imperial, CA07, -115.174, 32.974, 278, 86.5, M
CALLAHAN CALIFORNIA, Siskiyou, CA01, -122.796, 41.308, 3136, 61.8, M
CAMERON FIRE STATION CALIFORNI, San Diego, CA06, -116.463, 32.721, 3443, 65.7, M
CANBY CALIFORNIA, Modoc, CA02, -120.868, 41.434, 4312, 57.6, M
CARRIZO CALIFORNIA, San Luis Obispo, CA05, -119.773, 35.096, 2490, 73.7, M
CASE SPRINGS CALIFORNIA, San Diego, CA06, -117.418, 33.445, 2320, 65.3, M
CATHEYS VALLEY CALIFORNIA, Mariposa, CA05, -120.111, 37.468, 1200, 73.9, M
CEDAR GROVE CALIFORNIA, Fresno, CA05, -118.656, 36.788, 4720, 61.8, M
CHEESEBORO CALIFORNIA, Ventura, CA06, -118.717, 34.185, 1650, 68.5, M
CHICO CALIFORNIA, Butte, CA02, -121.779, 39.712, 230, 73.1, M
CHILAO CALIFORNIA, Los Angeles, CA06, -118.030, 34.332, 5450, 67.8, M
CHUCHUPATE CALIFORNIA, Ventura, CA05, -119.012, 34.808, 4900, 59.7, M
CLAREMONT CALIFORNIA, Los Angeles, CA06, -117.707, 34.137, 1645, 66.9, M
CLARK CALIFORNIA, Riverside, CA06, -117.309, 33.877, 1720, 66.8, M
CALAVERAS ROAD CALIFORNIA, Alameda, CA04, -121.844, 37.553, 1230, 67.2, M
CORONA CALIFORNIA, Riverside, CA06, -117.549, 33.874, 640, 70.7, M
COHASSET CALIFORNIA, Butte, CA02, -121.769, 39.872, 1733, 75.7, M
COLLINS BALDY CALIFORNIA, Siskiyou, CA01, -122.950, 41.775, 5493, 58.2, M
LIVERMORE CALIFORNIA, Alameda, CA04, -121.814, 37.712, 800, 68.9, M
LYONS VALLEY CALIFORNIA, Lake, CA01, -123.074, 39.126, 3200, 68.1, M
MAD RIVER CALIFORNIA, Trinity, CA01, -123.524, 40.463, 2775, 61.1, M
MALIBU HILLS CALIFORNIA, Los Angeles, CA06, -118.633, 34.058, 1575, 66.3, M
MANZANITA LAKE CALIFORNIA, Shasta, CA02, -121.580, 40.540, 5660, 56.5, M
MAPLE CREEK CALIFORNIA, Humboldt, CA01, -123.937, 40.796, 1680, 59.8, M
MARIPOSA GROVE CALIFORNIA, Mariposa, CA05, -119.605, 37.513, 6400, 64.9, M
MILL CREEK (BDF) CALIFORNIA, San Bernardino, CA06, -117.035, 34.084, 2950, 68.4, M
MCGUIRES CALIFORNIA, Mendocino, CA01, -123.601, 39.353, 593, 61.9, M
MEANS LAKE CALIFORNIA, San Bernardino, CA07, -116.517, 34.391, 2900, 78.3, M
MENDOCINO PASS CALIFORNIA, Mendocino, CA01, -122.945, 39.808, 5420, 61.9, M
METCALF GAP CALIFORNIA, Madera, CA05, -119.768, 37.409, 3077, 76.2, M
MEYERS CALIFORNIA, El Dorado, CA03, -120.018, 38.849, 6310, 53.6, M
MID HILLS CALIFORNIA, San Bernardino, CA07, -115.411, 35.123, 5413, 67.8, M
MILL CREEK (ANF) CALIFORNIA, Los Angeles, CA06, -118.082, 34.390, 5021, 67.2, M
MALLORY RIDGE CALIFORNIA, Contra Costa, CA05, -121.779, 37.817, 2040, 71.4, M
MONTECITO CALIFORNIA, Santa Barbara, CA06, -119.648, 34.461, 1500, 64.8, M
MOJAVE RIVER SINK CALIFORNIA, San Bernardino, CA07, -116.079, 35.053, 950, 85.0, M
MORMON ROCK CALIFORNIA, San Bernardino, CA06, -117.502, 34.318, 3300, 67.5, M
MOUNTAIN REST CALIFORNIA, Fresno, CA05, -119.371, 37.054, 4100, 69.4, M
MARKLEEVILLE CALIFORNIA, Alpine, CA03, -119.767, 38.683, 5501, 59.2, M
MT. SHASTA CALIFORNIA, Siskiyou, CA02, -122.316, 41.316, -, 61.9, M
MARIPOSA CALIFORNIA, Mariposa, CA05, -119.987, 37.504, 2231, 71.4, M
MOUNT ZION CALIFORNIA, Amador, CA05, -120.651, 38.389, 2960, 75.9, M
NORTH FORK CALIFORNIA, Madera, CA05, -119.505, 37.233, 2720, 70.9, M
OAK KNOLL CALIFORNIA, Siskiyou, CA01, -122.850, 41.839, 1940, 64.3, M
OAK CREEK CALIFORNIA, Inyo, CA07, -118.259, 36.843, 4855, 72.7, M
OJAI CALIFORNIA, Ventura, CA06, -119.230, 34.448, 765, 64.2, M
OAK GROVE CALIFORNIA, San Diego, CA06, -116.795, 33.393, 2752, 69.8, M
OAKLAND NORTH CALIFORNIA, Contra Costa, CA04, -122.221, 37.865, 1403, 62.3, M
OAK OPENING CALIFORNIA, Tulare, CA05, -118.702, 36.175, 3240, 71.9, M
OAKLAND SOUTH CALIFORNIA, Alameda, CA04, -122.145, 37.786, 1095, 64.3, M
OPAL MOUNTAIN CALIFORNIA, San Bernardino, CA07, -117.176, 35.154, 3240, 76.1, M
OWENS CAMP LOC CALIFORNIA, El Dorado, CA02, -120.245, 38.733, 5240, 63.1, M
OWENS VALLEY CALIFORNIA, Inyo, CA07, -118.551, 37.390, 4640, 70.9, M
PANAMINT CALIFORNIA, Inyo, CA07, -117.088, 36.120, 6880, 66.2, M
PARKFIELD CALIFORNIA, Monterey, CA04, -120.432, 35.899, 1535, 69.6, M
PATTY MOCUS CALIFORNIA, Tehama, CA02, -122.867, 40.295, 3500, 67.4, M
PINE HILLS CALIFORNIA, San Diego, CA06, -116.634, 33.016, -, 66.4, M
PIERCE CALIFORNIA, Plumas, CA02, -120.642, 40.246, 5700, 60.1, M
PINEHURST CALIFORNIA, Fresno, CA05, -119.000, 36.685, 4060, 68.5, M
PIKE COUNTY LOOKOUT CALIFORNIA, Yuba, CA02, -121.202, 39.475, 3714, 69.8, M
PILOT HILL CALIFORNIA, El Dorado, CA02, -121.009, 38.833, 1200, 69.7, M
PARK RIDGE CALIFORNIA, Tulare, CA05, -118.942, 36.724, 7540, 64.1, M
PINNACLES CALIFORNIA, San Benito, CA04, -121.147, 36.471, 1322, 71.0, M
POPPY PARK CALIFORNIA, Los Angeles, CA07, -118.383, 34.733, 2760, 74.7, M
POTRERO CALIFORNIA, San Diego, CA06, -116.609, 32.606, 2345, 64.2, M
PULGAS CALIFORNIA, San Mateo, CA04, -122.298, 37.475, 644, 67.2, M
QUARTZ HILL CALIFORNIA, Siskiyou, CA01, -122.934, 41.599, 4225, 64.1, M
QUINCY RD CALIFORNIA, Plumas, CA02, -120.942, 39.973, 3500, 64.6, M
RAVENDALE CALIFORNIA, Lassen, CA03, -120.316, 40.731, 5298, 58.2, M
RANCHITA CALIFORNIA, San Diego, CA07, -116.497, 33.222, 4415, 69.3, M
RICE VALLEY CALIFORNIA, Riverside, CA07, -114.732, 34.061, 820, 85.8, M
ROCK CREEK, Mono, CA07, -118.667, 37.551, 7040, 58.0, M
RODEO VALLEY, Mendocino, CA01, -123.321, 39.668, 2428, 65.0, M
ROSE VALLEY CALIFORNIA, Ventura, CA06, -119.184, 34.543, 3331, 62.1, M
ROUND MOUNTAIN, Siskiyou, CA02, -121.464, 41.427, 5258, 59.4, M
ROSE PEAK CALIFORNIA, Alameda, CA04, -121.735, 37.502, 3060, 66.8, M
RUSH CREEK CALIFORNIA, Modoc, CA02, -120.864, 41.294, 4800, 59.5, M
SADDLEBACK BUTTE CALIFORNIA, Los Angeles, CA07, -117.821, 34.685, 2590, 74.7, M
SAUGUS CALIFORNIA, Los Angeles, CA06, -118.525, 34.425, 1450, 71.0, M
SAWYERS BAR CALIFORNIA, Siskiyou, CA01, -123.132, 41.300, 2192, 67.2, M
SANTA BARBARA ISLAND CALIFORNI, Santa Barbara, CA06, -119.033, 33.483, 176, 57.1, M
SANTA CRUZ ISLAND CALIFORNIA, Santa Barbara, CA06, -119.722, 33.996, 250, 61.0, M
SCORPION CALIFORNIA, Trinity, CA01, -122.697, 41.112, 4400, 65.8, M
SODA CREEK CALIFORNIA, Lake, CA01, -122.977, 39.425, 1773, 65.8, M
SECRET TOWN CALIFORNIA, Nevada, CA02, -120.885, 39.184, 2826, 69.3, M
SANTA FE DAM CALIFORNIA, Los Angeles, CA06, -117.946, 34.121, 500, 68.5, M
SHAVER CALIFORNIA, Fresno, CA05, -119.256, 37.135, 5746, 59.8, M
SCHOOL HOUSE CALIFORNIA, Humboldt, CA01, -123.906, 41.138, 2640, 57.8, M
SHADEQUARTER CALIFORNIA, Tulare, CA05, -118.956, 36.567, 4069, 69.1, M
SIMS CALIFORNIA, Shasta, CA02, -122.373, 41.075, 2400, 69.8, M
SLATER BUTTE CALIFORNIA, Siskiyou, CA01, -123.352, 41.859, 4670, 61.7, M
SANTA RITA CALIFORNIA, San Benito, CA05, -120.598, 36.348, 5000, 66.6, M
SOLDIER MOUNTAIN CALIFORNIA, Shasta, CA02, -121.586, 40.926, 3710, 64.1, M
SOMES BAR CALIFORNIA, Siskiyou, CA01, -123.496, 41.390, 920, 68.2, M
SQUAW SPRINGS CALIFORNIA, San Bernardino, CA07, -117.568, 35.370, 3620, 76.9, M
SQUAW LAKE CALIFORNIA, Imperial, CA07, -114.494, 32.908, 300, 86.6, M
HYDESVILLE 11.4 NE, Humboldt, CA01, -123.924, 40.658, 2446, M, 0.00
CAMPO ASOS, San Diego, CA07, -116.468, 32.626, 2641, 63.0, 0.01
Burbank Glendale Pasadena Area, -, -, -, -, -, 68.9, 0.00
Camarillo Area, -, -, -, -, -, 63.4, 0.03
Needles Area, -, -, -, -, -, 87.1, T
Oxnard Area, -, -, -, -, -, 63.6, 0.00
Palm Springs Area, -, -, -, -, -, 85.2, T
Riverside Area, -, -, -, -, -, 71.6, T
Ramona Area, -, -, -, -, -, 64.1, 0.12
Northern CA 8 Station Index, -, -, -, -, -, M, 0.09
ADIN RANGER STATION, Modoc, CA02, -120.945, 41.193, 4202, 58.8, 0.01
DUNSMUIR TREATMENT PL, Siskiyou, CA02, -122.282, 41.183, 2169, 64.2, 0.49
JESS VALLEY, Modoc, CA02, -120.295, 41.268, 5400, 56.1, 0.13
MCCLOUD, Siskiyou, CA02, -122.138, 41.252, 3233, 61.5, 0.35
ORICK, Humboldt, CA01, -124.067, 41.283, 5, M, 1.60
CALLAHAN, Siskiyou, CA01, -122.825, 41.338, 3085, 60.0, 0.66
SAWYERS BAR RS, Siskiyou, CA01, -123.133, 41.301, 2255, 64.8, M
ORLEANS RS, Humboldt, CA01, -123.534, 41.303, 433, M, 1.84
CANBY 3 SW, Modoc, CA02, -120.902, 41.422, 4310, 57.1, 0.03
ALTURAS, Modoc, CA02, -120.544, 41.490, 4378, 56.6, T
KLAMATH, Del Norte, CA01, -124.075, 41.579, 28, 55.4, 2.91
GREENVIEW, Siskiyou, CA01, -122.924, 41.552, 2820, M, 0.04
FORT JONES RS, Siskiyou, CA01, -122.848, 41.601, 2729, 59.9, 0.37
LAVA BEDS NAT MON, Siskiyou, CA01, -121.501, 41.702, 4770, 58.9, 0.03
MOUNT HEBRON RS, Siskiyou, CA01, -122.045, 41.783, 4265, 56.8, 0.54
CRESCENT CITY 3 NNW, Del Norte, CA01, -124.215, 41.796, 43, 52.7, 2.38
CRESCENT CITY MCNAMARA AP, Del Norte, CA01, -124.238, 41.784, 56, 51.8, 2.01
OAK KNOLL W. C., Siskiyou, CA01, -122.850, 41.839, 1980, M, 0.54
CRESCENT CITY 7 ENE, Del Norte, CA01, -124.085, 41.794, 120, M, 2.66
FORT BIDWELL, Modoc, CA03, -120.157, 41.872, 4739, 58.2, 0.35
GASQUET RS, Del Norte, CA01, -123.965, 41.845, 387, M, 2.91
FORT DICK RIVER, Del Norte, CA01, -124.135, 41.881, -, M, 2.84
COPCO NO 1 DAM, Siskiyou, CA01, -122.338, 41.980, 2665, M, 0.68
ELK VALLEY, Del Norte, CA01, -123.718, 41.988, 1708, M, 2.24
PACIFICA 4 SSE, San Mateo, CA04, -122.472, 37.592, 475, 63.0, 0.00
BARSTOW, San Bernardino, CA07, -117.022, 34.893, 2220, M, 0.00
INYOKERN, Kern, CA07, -117.821, 35.651, 2430, 78.3, 0.02
PEARBLOSSOM, Los Angeles, CA07, -117.897, 34.503, 3101, 75.7, 0.00
EL CAJON, San Diego, CA06, -116.928, 32.801, 495, 69.2, 0.00
MARKLEY COVE, Napa, CA02, -122.124, 38.492, 480, 70.9, 0.00
Crescent City Area, -, -, -, -, -, 51.8, 2.01
Escondido Area, -, -, -, -, -, 68.4, 0.23
Sacramento Downtown Area, -, -, -, -, -, 74.7, 0.00
Tahoe City Area, -, -, -, -, -, 54.0, 0.24
Ukiah Area, -, -, -, -, -, 68.4, T
Alturas Area, -, -, -, -, -, 56.3, 0.01
Mount Shasta Area, -, -, -, -, -, 60.3, 0.13
Palmdale Area, -, -, -, -, -, 74.3, T
Lancaster Area, -, -, -, -, -, 74.8, T
El Cajon Area, -, -, -, -, -, 69.2, 0.00
Hanford Area, -, -, -, -, -, 76.5, 0.00
El Centro Area, -, -, -, -, -, 82.6, T
Madera Area, -, -, -, -, -, 73.5, 0.00
Merced Area, -, -, -, -, -, 73.1, 0.00
San Jose Area, -, -, -, -, -, 67.7, 0.00
CORONADO FIRE DEPT, San Diego, CA06, -117.177, 32.692, 18, 63.2, 0.11
CUYAMACA RANCHO ST PARK, San Diego, CA06, -116.559, 32.927, 4870, 62.8, 0.00
FALLBROOK FIRE DEPT, San Diego, CA06, -117.248, 33.384, 698, 64.6, 0.20
DEL MAR FIRE DEPT, San Diego, CA06, -117.262, 32.972, 12, 64.3, 0.03
IMPERIAL BEACH FIRE DEPT, San Diego, CA06, -117.114, 32.576, 22, 63.1, 0.20
LEMON GROVE FIRE DEPARTMENT, San Diego, CA06, -117.030, 32.738, 427, 66.6, 0.06
NATIONAL CITY FIRE DEPT, San Diego, CA06, -117.100, 32.671, 30, 65.3, 0.00
SPRING VALLEY FIRE DEPT, San Diego, CA06, -117.006, 32.710, 270, 66.8, 0.14
MT LAGUNA # 2, San Diego, CA07, -116.422, 32.876, 5760, 61.2, T
SANTEE FIRE DEPT, San Diego, CA06, -116.973, 32.841, 340, 71.0, 0.14
LEE VINING, Mono, CA07, -119.119, 37.957, 6797, 59.2, 0.00
ANAHEIM, Orange, CA06, -117.842, 33.865, 235, 67.8, 0.00
RED BLUFF TREATMENT PLANT, Tehama, CA02, -122.220, 40.162, 265, M, T
NEW MELONES DAM HQ, Tuolumne, CA05, -120.486, 38.005, 960, 73.8, 0.00
MAMMOTH LAKES RS, Mono, CA07, -118.962, 37.648, 7804, 52.9, 0.02
CAMPTONVILLE 1SW, Yuba, CA02, -121.071, 39.440, 2500, M, 4.79
MONTEREY WFO, Monterey, CA04, -121.855, 36.593, 122, 60.4, 0.01
SKYLINE RIDGE PRESERVE, San Mateo, CA04, -122.185, 37.313, 2270, 66.3, 0.00
FREMONT, Alameda, CA04, -122.016, 37.542, 38, 67.3, 0.00
MAD RIVER 12 SE, Trinity, CA01, -123.374, 40.319, 2763, M, 0.50
BISHOP FS, Inyo, CA07, -118.365, 37.368, 4108, M, 0.08
NEWHALL 5NW, Los Angeles, CA06, -118.594, 34.393, 1765, 69.0, 0.00
TEHACHAPI 4 SE, Kern, CA05, -118.422, 35.101, 4220, 64.2, 0.01
REDWOOD CITY #2, San Mateo, CA04, -122.214, 37.488, 10, 66.9, 0.00
WRIGHTWOOD, San Bernardino, CA07, -117.639, 34.362, 6000, 60.0, 0.05
REDDING CDF, Shasta, CA02, -122.299, 40.519, 502, M, 0.20
STOCKTON 5 SSE, San Joaquin, CA05, -121.251, 37.899, 22, M, 0.00
VALLEJO, Solano, CA01, -122.187, 38.100, 341, 65.3, 0.00
NORTHRIDGE CAL STATE, Los Angeles, CA06, -118.525, 34.245, 904, 70.1, 0.00
OXNARD WFO, Ventura, CA06, -119.137, 34.207, 52, 63.6, 0.00
LAKEHEAD, Shasta, CA02, -122.391, 40.899, 1398, M, 0.56
HANFORD MUNICIPAL AP, Kings, CA05, -119.623, 36.311, 249, 76.5, 0.00
RAMONA AIRPORT, San Diego, CA06, -116.916, 33.038, 1385, 64.1, 0.12
VACAVILLE/NUT TREE AP ASOS, Solano, CA02, -121.959, 38.378, 104, 73.3, 0.00
ALTURAS MUNICIPAL AP, Modoc, CA02, -120.561, 41.484, 4383, 56.3, 0.01
MADERA MUNICIPAL AP, Madera, CA05, -120.111, 36.985, 251, 73.5, 0.00
BAKERSFIELD 5 NW, Kern, CA05, -119.051, 35.419, 470, 74.8, 0.00
FRESNO 5 NE, Fresno, CA05, -119.709, 36.767, 338, 77.2, 0.00
OCEANSIDE MUNICIPAL AP, San Diego, CA06, -117.350, 33.219, 30, 63.1, 0.05
SAN DIEGO SEAWORLD, San Diego, CA06, -117.231, 32.765, 14, 63.1, 0.01
BOULEVARD 2, San Diego, CA07, -116.300, 32.667, 3600, M, 0.00
ARCATA EUREKA AP, Humboldt, CA01, -124.105, 40.978, 211, 51.5, 0.99
CHICO ARMY FLYING SCH, Butte, CA02, -121.850, 39.800, 272, 75.3, 0.00
NEWPORT BEACH HARBOR, Orange, CA06, -117.884, 33.603, 10, 61.1, 0.11
ESCONDIDO NO. 2, San Diego, CA06, -117.090, 33.121, 600, 68.4, 0.23
REDDING AP, Shasta, CA02, -122.298, 40.515, 501, 74.0, 0.03
AVALON CATALINA AP, Los Angeles, CA06, -118.415, 33.404, 1565, 62.0, 0.06
SANTA MARIA PUBLIC AP, Santa Barbara, CA06, -120.452, 34.894, 243, 61.2, 0.01
MOUNT SHASTA, Siskiyou, CA02, -122.333, 41.333, 3535, 60.3, 0.13
RED BLUFF MUNI AP, Tehama, CA02, -122.255, 40.152, 354, 75.1, 0.00
NEEDLES AIRPORT, San Bernardino, CA07, -114.618, 34.768, 888, 87.1, T
CECILVILLE, Siskiyou, CA01, -123.139, 41.142, 2310, 63.0, 1.04
CHINA LAKE NAF, Kern, CA07, -117.693, 35.688, 2230, 76.7, 0.00
CONVERSE CALIFORNIA, San Bernardino, CA06, -116.913, 34.194, 5618, 62.2, M
COOSKIE MOUNTAIN CALIFORNIA, Humboldt, CA01, -124.266, 40.257, 2950, 59.2, M
CORRALITOS CALIFORNIA, Santa Cruz, CA04, -121.798, 36.991, 450, 66.1, M
COUNTY LINE CALIFORNIA, Lake, CA02, -122.412, 39.019, 2085, 74.1, M
CAMP 9 CALIFORNIA, Los Angeles, CA06, -118.422, 34.362, 4000, 69.4, M
CRANE FLAT LOOKOUT CALIFORNIA, Mariposa, CA05, -119.825, 37.762, 6644, 61.1, M
CRESTVIEW CALIFORNIA, Mono, CA07, -118.983, 37.745, 7600, 51.4, M
CORNING CALIFORNIA, Tehama, CA02, -122.170, 39.939, 294, 74.9, M
CARPENTER RIDGE CALIFORNIA, Butte, CA02, -121.582, 40.069, 4812, 64.5, M
CRAZY PEAK CALIFORNIA, Del Norte, CA01, -123.604, 41.992, 3970, 59.2, M
DESCANSO CALIFORNIA, San Diego, CA06, -116.622, 32.857, 3480, 65.1, M
DEVILS GARDEN CALIFORNIA, Modoc, CA02, -120.671, 41.530, 5022, 58.4, M
DIABLO GRANDE CALIFORNIA, Stanislaus, CA05, -121.294, 37.329, 1850, 73.8, M
DINKEY CALIFORNIA, Fresno, CA05, -119.039, 37.066, 5668, 54.6, M
DELNORTE CALIFORNIA, Santa Barbara, CA06, -119.654, 34.009, 800, 60.0, M
DOG VALLEY CALIFORNIA, Sierra, CA03, -120.048, 39.562, 5976, 57.7, M
DORRIS RANCH CALIFORNIA, Nevada, CA02, -121.117, 39.304, 2025, 71.4, M
DOYLE CALIFORNIA, Lassen, CA03, -120.106, 40.022, 4240, 63.4, M
DEVILS POST PILE CALIFORNIA, Madera, CA05, -119.093, 37.630, 7560, 51.5, M
DEL VALLE CALIFORNIA, Los Angeles, CA06, -118.683, 34.431, 1278, 70.5, M
DEVORE CALIFORNIA, San Bernardino, CA06, -117.404, 34.221, 2057, 70.2, M
EAGLE PEAK CALIFORNIA, Tehama, CA02, -122.657, 39.928, 3713, 69.5, M
EEL RIVER CALIFORNIA, Mendocino, CA01, -123.083, 39.833, 1500, 68.3, M
EL CARISO CALIFORNIA, Riverside, CA06, -117.411, 33.647, 3038, 69.5, M
MOUNT ELIZABETH CALIFORNIA, Tuolumne, CA05, -120.247, 38.063, 4933, 67.0, M
EL MIRAGE CALIFORNIA, San Bernardino, CA07, -117.550, 34.634, 2880, 73.8, M
ESPERANZA CALIFORNIA, Calaveras, CA05, -120.515, 38.243, 2559, 70.3, M
FANCHER CREEK CALIFORNIA, Fresno, CA05, -119.466, 36.884, 920, 79.6, M
FAWNSKIN CALIFORNIA, San Bernardino, CA06, -116.899, 34.266, 6900, 55.5, M
FENCE MEADOW CALIFORNIA, Fresno, CA05, -119.175, 36.961, 5048, 64.1, M
FISH CREEK MTN CALIFORNIA, Imperial, CA07, -116.067, 32.990, 760, 89.6, M
FIVE MILE CALIFORNIA, Inyo, CA07, -117.918, 35.872, 4150, 77.6, M
FORESTHILL CALIFORNIA, Placer, CA02, -120.732, 39.091, 4355, 66.9, M
FOUNTAIN SPRINGS CALIFORNIA, Tulare, CA05, -118.915, 35.892, 210, 74.4, M
FREMONT CANYON CALIFORNIA, Orange, CA06, -117.711, 33.808, 1781, 66.6, M
FRIEND MOUNTAIN CALIFORNIA, Trinity, CA01, -123.342, 40.505, 4000, 61.6, M
FISH SLOUGH CALIFORNIA, Mono, CA07, -118.408, 37.478, 4500, 67.4, M
GASQUET CALIFORNIA, Del Norte, CA01, -123.979, 41.846, 500, 63.5, M
GRASSHOPPER CALIFORNIA, Lassen, CA03, -120.784, 40.782, 6158, 54.3, M
GOOSE VALLEY CALIFORNIA, San Diego, CA06, -116.846, 33.074, 1530, 65.1, M
GRANITE MOUNTAIN CALIFORNIA, San Bernardino, CA07, -117.026, 34.536, 4720, 71.2, M
GREEN SPRING CALIFORNIA, Tuolumne, CA05, -120.500, 37.833, 1020, 73.1, M
HASTINGS CALIFORNIA, Monterey, CA04, -121.552, 36.389, 1885, 65.4, M
HAWKEYE CALIFORNIA, Sonoma, CA01, -122.917, 38.782, 2000, 70.5, M
HAYFORK CALIFORNIA, Trinity, CA01, -123.165, 40.550, 2323, 63.1, M
HELL HOLE CALIFORNIA, Placer, CA02, -120.422, 39.072, 5240, 63.4, M
HERNANDEZ CALIFORNIA, San Benito, CA04, -120.856, 36.383, 3733, 71.0, M
HIGH GLADE LOOKOUT CALIFORNIA, Lake, CA02, -122.808, 39.208, 4840, 65.1, M
HUNTER MOUNTAIN CALIFORNIA, Inyo, CA07, -117.474, 36.563, 6880, 60.6, M
HORSE LAKE CALIFORNIA, Lassen, CA03, -120.503, 40.631, 5100, 58.2, M
HOOPA CALIFORNIA, Humboldt, CA01, -123.671, 41.048, 375, 65.5, M
HORSE THIEF SPRINGS CALIFORNIA, San Bernardino, CA07, -115.909, 35.771, 5000, 72.8, M
INDIAN WELL CALIFORNIA, Siskiyou, CA01, -121.538, 41.742, 4770, 59.9, M
JOHNSONDALE CALIFORNIA, Tulare, CA05, -118.545, 35.972, 4700, 60.2, M
JORDAN CREEK CALIFORNIA, Butte, CA02, -121.367, 39.783, 4400, 68.4, M
JULIAN CALIFORNIA, San Diego, CA07, -116.591, 33.076, 4240, 76.5, M
JUNIPER CREEK CALIFORNIA, Modoc, CA02, -120.472, 41.332, 4372, 58.7, M
KEENWILD CALIFORNIA, Riverside, CA06, -116.767, 33.667, 4920, 66.1, M
KERNVILLE CALIFORNIA, Kern, CA05, -118.417, 35.755, 2720, 74.9, M
KETTLEMAN HILLS CALIFORNIA, Kings, CA05, -120.057, 36.033, 810, 79.0, M
KNOXVILLE CREEK CALIFORNIA, Lake, CA02, -122.417, 38.862, 2200, 71.7, M
KONOCTI CALIFORNIA, Lake, CA02, -122.706, 38.912, 2163, 72.2, M
LOS BANOS CALIFORNIA, Merced, CA05, -121.053, 37.055, 350, 75.7, M
MT. LAGUNA CALIFORNIA, San Diego, CA07, -116.420, 32.880, 5760, 73.6, M
LA HONDA CALIFORNIA, San Mateo, CA04, -122.255, 37.305, 872, 61.8, M
LA PANZA CALIFORNIA, San Luis Obispo, CA04, -120.187, 35.381, 1630, 68.1, M
LAURAL MOUNTAIN CALIFORNIA, Kern, CA07, -117.699, 35.478, 4390, 75.3, M
LASSEN LODGE CALIFORNIA, Tehama, CA02, -121.714, 40.344, 4159, 67.3, M
LAUFMAN CALIFORNIA, Lassen, CA03, -120.353, 40.142, 5800, 63.3, M
LADDER BUTTE CALIFORNIA, Lassen, CA02, -121.297, 40.807, 5750, 59.5, M
LEO CARRILLO CALIFORNIA, Los Angeles, CA06, -118.936, 34.046, 50, 62.3, M
LOS GATOS CALIFORNIA, Santa Clara, CA04, -121.943, 37.203, 2000, 71.7, M
LOST HORSE CALIFORNIA, Riverside, CA07, -116.188, 34.018, 4200, 69.8, M
LINCOLN CALIFORNIA, Placer, CA02, -121.268, 38.883, 200, 73.1, M
LOS PRIETOS CALIFORNIA, Santa Barbara, CA06, -119.783, 34.536, 1020, 70.9, M
LAS FLORES CALIFORNIA, San Diego, CA06, -117.439, 33.289, 100, 63.2, M
LAS TABLAS CALIFORNIA, San Luis Obispo, CA04, -120.924, 35.656, 994, 67.8, M
SANTA ROSA ISLAND CALIFORNIA, Santa Barbara, CA06, -120.078, 33.978, 1298, 57.8, M
SANTA ROSA PLATEAU CALIFORNIA, Riverside, CA06, -117.231, 33.529, 1980, 65.5, M
SANTA ROSA CALIFORNIA, Sonoma, CA01, -122.712, 38.479, 576, 67.0, M
STAMPEDE CALIFORNIA, Sierra, CA03, -120.075, 39.483, 6867, 56.7, M
STONYFORD CALIFORNIA, Colusa, CA02, -122.575, 39.367, 1200, 71.8, M
SUGARLOAF (SHF) CALIFORNIA, Shasta, CA02, -122.438, 40.917, 4200, 81.0, M
SPRING VALLEY CALIFORNIA, San Mateo, CA04, -122.436, 37.563, 1075, 60.6, M
TALEGA CALIFORNIA, San Diego, CA06, -117.486, 33.478, 1203, 63.2, M
TANBARK CALIFORNIA, Los Angeles, CA06, -117.761, 34.207, 2600, 68.2, M
TARGET RANGE CALIFORNIA, San Diego, CA06, -117.359, 33.372, 918, 63.3, M
THOMES CREEK CALIFORNIA, Tehama, CA02, -122.610, 39.864, 1040, 77.0, M
TEMESCAL (CNF) CALIFORNIA, Riverside, CA06, -117.483, 33.763, 1125, 70.8, M
MOUNT TOM CALIFORNIA, Fresno, CA05, -119.178, 37.376, 9018, 53.2, M
LAS TRAMPAS CALIFORNIA, Contra Costa, CA04, -122.067, 37.834, 1760, 67.8, M
TRINITY CAMP CALIFORNIA, Trinity, CA01, -122.804, 40.786, 3308, 64.5, M
TRIMMER CALIFORNIA, Fresno, CA05, -119.305, 36.911, 1540, 73.4, M
GAYLOR MEADOW CALIFORNIA, Tuolumne, CA05, -119.318, 37.868, 9270, 56.5, M
UHL / HOT SPRINGS, Tulare, CA05, -118.633, 35.889, 3720, 68.2, M
VALLEY CENTER CALIFORNIA, San Diego, CA06, -117.009, 33.237, 1483, 66.9, M
VAN BREMMER CALIFORNIA, Siskiyou, CA01, -121.794, 41.643, 4928, 58.7, M
WALKER CALIFORNIA, Mono, CA03, -119.459, 38.565, 5440, 65.4, M
WALKER PASS CALIFORNIA, Kern, CA05, -118.057, 35.665, 5572, 69.7, M
WARM SPRINGS CALIFORNIA, Los Angeles, CA06, -118.579, 34.596, 4930, 70.3, M
WEAVERVILLE CALIFORNIA, Trinity, CA01, -122.943, 40.735, 2100, 65.3, M
WEED AIRPORT CALIFORNIA, Siskiyou, CA01, -122.454, 41.479, 2930, 63.4, M
WESTWOOD CALIFORNIA, Lassen, CA02, -120.900, 40.307, 5800, 58.3, M
WHITE CLOUD CALIFORNIA, Nevada, CA02, -120.837, 39.317, 4320, 68.0, M
WHITTIER HILLS CALIFORNIA, Los Angeles, CA06, -118.010, 33.984, 950, 68.4, M
WHITMORE CALIFORNIA, Shasta, CA02, -121.899, 40.619, 2417, 70.8, M
WOFFORD HEIGHTS CALIFORNIA, Kern, CA05, -118.499, 35.722, 3150, 71.4, M
WOLVERTON CALIFORNIA, Tulare, CA05, -118.703, 36.445, 5240, 68.4, M
WHITAKER PEAK CALIFORNIA, Los Angeles, CA06, -118.740, 34.569, 4120, 70.8, M
WHITE WOLF CALIFORNIA, Tuolumne, CA05, -119.650, 37.851, 8025, 51.9, M
YUCCA VALLEY CALIFORNIA, San Bernardino, CA07, -116.408, 34.123, 3260, 73.1, M
HAGAN'S MEADOW, El Dorado, CA03, -119.940, 38.850, 7776, 50.0, 0.20
BLUE LAKES, Alpine, CA05, -119.920, 38.610, 8057, 47.5, 0.40
POISON FLAT, Alpine, CA03, -119.630, 38.510, 7736, 49.5, 0.90
SONORA PASS, Mono, CA03, -119.600, 38.310, 8827, 49.1, 0.20
LEAVITT MEADOWS, Mono, CA03, -119.550, 38.300, 7198, 52.1, 0.10
VIRGINIA LAKES RIDGE, Mono, CA03, -119.230, 38.070, 9445, 49.8, 0.10
LOBDELL LAKE, Mono, CA03, -119.370, 38.440, 9233, 47.5, 0.00
EBBETTS PASS, Alpine, CA03, -119.800, 38.550, 8765, 50.7, 0.80
HEAVENLY VALLEY, El Dorado, CA03, -119.920, 38.920, 8582, 48.3, 2.30
LEAVITT LAKE, Mono, CA03, -119.610, 38.280, 9617, 45.3, 0.40
SPRATT CREEK, Alpine, CA03, -119.820, 38.670, 6115, 56.5, 0.30
MONITOR PASS, Alpine, CA03, -119.610, 38.670, 8310, 51.4, 0.50
CROWDER FLAT, Modoc, CA01, -120.750, 41.890, 5170, 54.0, 0.10
CEDAR PASS, Modoc, CA02, -120.300, 41.580, 7030, 51.7, 0.00
DISMAL SWAMP, Modoc, CA03, -120.180, 41.990, 7360, 46.9, 1.30
ADIN MTN, Modoc, CA02, -120.790, 41.240, 6190, 50.6, 0.00
INDEPENDENCE CREEK, Sierra, CA03, -120.280, 39.490, 6456, 52.0, 0.00
INDEPENDENCE CAMP, Sierra, CA03, -120.290, 39.450, 7003, 51.4, 0.00
INDEPENDENCE LAKE, Nevada, CA03, -120.310, 39.430, 8352, 51.1, 0.20
TRUCKEE #2, Placer, CA03, -120.180, 39.300, 6509, 57.1, 0.30
WARD CREEK #3, Placer, CA03, -120.220, 39.140, 6655, 50.9, 1.10
TAHOE CITY CROSS, Placer, CA03, -120.150, 39.170, 6797, 53.8, 0.20
SQUAW VALLEY G.C., Placer, CA03, -120.260, 39.190, 8029, 50.8, 1.00
CSS LAB, Nevada, CA02, -120.370, 39.330, 6855, 52.4, 0.70
RUBICON #2, El Dorado, CA03, -120.130, 39.000, 7689, 56.0, 0.10
ECHO PEAK, El Dorado, CA03, -120.080, 38.850, 7670, 53.7, 0.70
FALLEN LEAF, El Dorado, CA03, -120.050, 38.930, 6236, 51.6, 0.10
BEAR VALLEY F.D., Kern, CA01, -118.644, 35.166, 4100, 53.7, 0.00
