Name, County, ClimateDivision, Longitude, Latitude, Elevation, MeanAvgTemperature, TotalPrecipitation
IMPERIAL, Imperial, CA07, -115.567, 32.849, -64, 63.9, 0.00
EL CAPITAN DAM, San Diego, CA06, -116.815, 32.886, 600, 57.5, 1.47
LAKESIDE 2 E, San Diego, CA06, -116.895, 32.854, 690, M, 0.92
POWAY VALLEY, San Diego, CA06, -117.031, 33.020, 648, 55.8, 1.17
JULIAN CDF, San Diego, CA06, -116.592, 33.076, 4215, 45.7, 3.89
RAMONA FIRE DEPT, San Diego, CA06, -116.908, 33.011, 1470, 52.7, 0.76
SAN PASQUAL ANIMAL PK, San Diego, CA06, -116.997, 33.096, 420, 56.8, 1.41
CARLSBAD MCCLELLAN PALOMAR AP, San Diego, CA06, -117.277, 33.130, 313, 54.9, 0.52
HENSHAW DAM, San Diego, CA06, -116.761, 33.237, 2700, 46.5, 2.24
VISTA, San Diego, CA06, -117.232, 33.235, 430, 55.9, 0.73
OCEANSIDE MARINA, San Diego, CA06, -117.395, 33.210, 10, 53.3, 0.56
NILAND, Imperial, CA07, -115.524, 33.278, -60, M, 0.00
BORREGO DESERT PARK, San Diego, CA07, -116.404, 33.256, 810, 63.1, 0.28
PALOMAR MTN OBSERVATORY, San Diego, CA06, -116.840, 33.378, 5550, 45.6, 2.33
TEMECULA, Riverside, CA06, -117.151, 33.497, 1020, 55.7, 0.16
MECCA FIRE STATION, Riverside, CA07, -116.073, 33.570, -183, 64.2, 0.00
ANZA, Riverside, CA06, -116.674, 33.556, 3915, M, 0.43
LAGUNA BEACH, Orange, CA06, -117.781, 33.545, 44, 56.1, 1.07
BLYTHE ASOS, Riverside, CA07, -114.715, 33.619, 395, 62.3, 0.04
DESERT RESORTS REGIONAL AP, Riverside, CA07, -116.164, 33.632, -118, 59.5, T
DEEP CANYON LAB, Riverside, CA07, -116.376, 33.651, 1200, M, 0.07
ELSINORE, Riverside, CA06, -117.346, 33.686, 1268, 55.2, 0.34
SANTA ANA JOHN WAYNE AP, Orange, CA06, -117.867, 33.680, 43, 57.7, 0.68
HAYFIELD PUMPING PLANT, Riverside, CA07, -115.629, 33.704, 1370, 58.7, 0.03
SUN CITY, Riverside, CA06, -117.190, 33.716, 1420, 57.5, 0.13
IDYLLWILD FIRE DEPT, Riverside, CA06, -116.707, 33.757, 5380, 44.6, 1.96
SAN JACINTO, Riverside, CA06, -116.975, 33.797, 1525, 55.6, 0.69
HEMET, Riverside, CA06, -116.894, 33.738, 1811, 55.5, 0.42
SANTA ANA FIRE STATION, Orange, CA06, -117.867, 33.744, 135, 58.8, 0.50
LONG BEACH AQUARIUM, Los Angeles, CA06, -118.197, 33.761, 20, 59.0, 0.00
EAGLE MOUNTAIN, Riverside, CA07, -115.451, 33.809, 973, 61.4, 0.00
PALM SPRINGS, Riverside, CA07, -116.510, 33.828, 425, 65.2, 0.00
LONG BEACH DAUGHERTY AP, Los Angeles, CA06, -118.147, 33.812, 34, 58.3, 0.05
SNOW CREEK UPPER, Riverside, CA07, -116.680, 33.873, 1940, M, 0.25
FULLERTON MUNICIPAL AP, Orange, CA06, -117.986, 33.872, 86, 58.6, 0.21
YORBA LINDA, Orange, CA06, -117.819, 33.890, 350, 58.6, 0.00
HAWTHORNE MUNICIPAL AP, Los Angeles, CA06, -118.333, 33.924, 55, 58.3, 0.29
LOS ANGELES INTL AP, Los Angeles, CA06, -118.387, 33.938, 97, 58.0, 0.27
RIVERSIDE FIRE STATION 3, Riverside, CA06, -117.388, 33.951, 840, 56.4, 0.21
RIVERSIDE MUNICIPAL AP, Riverside, CA06, -117.435, 33.953, 845, 55.8, 0.30
CHINO AP, San Bernardino, CA06, -117.625, 33.976, 636, 55.0, 0.49
RIVERSIDE CITRUS EXP, Riverside, CA06, -117.361, 33.967, 986, 57.7, 0.35
MONTEBELLO, Los Angeles, CA06, -118.105, 34.019, 246, 61.4, 0.40
CULVER CITY, Los Angeles, CA06, -118.414, 34.005, 92, 57.7, 0.00
SANTA MONICA MUNICIPAL AP, Los Angeles, CA06, -118.447, 34.021, 175, 56.9, 0.47
SANTA MONICA PIER, Los Angeles, CA06, -118.500, 34.008, 14, 55.8, 0.32
ONTARIO INTL AP, San Bernardino, CA06, -117.577, 34.053, 924, 57.1, 0.90
POMONA/FAIRPLEX, Los Angeles, CA06, -117.766, 34.082, 999, 55.9, 0.00
U C L A, Los Angeles, CA06, -118.443, 34.070, 430, 57.8, 0.31
IRON MOUNTAIN, San Bernardino, CA07, -115.122, 34.147, 922, 63.7, 0.04
TWENTYNINE PALMS, San Bernardino, CA07, -116.037, 34.128, 1975, 57.6, 0.12
SAN BERNARDINO F S 226, San Bernardino, CA06, -117.254, 34.134, 1140, 60.1, 1.00
SAN GABRIEL FIRE DEPT, Los Angeles, CA06, -118.100, 34.084, 363, 59.1, 0.03
POINT MUGU NF, Ventura, CA06, -119.123, 34.124, 12, 52.8, 0.18
SAN GABRIEL CANYON PH, Los Angeles, CA06, -117.908, 34.155, 744, M, 1.32
WOODLAND HILLS PIERCE COLLEGE, Los Angeles, CA06, -118.574, 34.182, 790, 55.9, 0.12
BIG BEAR LAKE DAM, San Bernardino, CA06, -116.975, 34.241, 6815, M, 1.30
MT WILSON CBS, Los Angeles, CA06, -118.071, 34.231, 5710, 46.5, 2.13
VAN NUYS AP, Los Angeles, CA06, -118.491, 34.212, 785, 57.8, 0.09
CAMARILLO AP, Ventura, CA06, -119.088, 34.211, 71, 54.1, 0.16
OXNARD, Ventura, CA06, -119.175, 34.198, 49, 55.1, 0.18
OXNARD VENTURA COUNTY AP, Ventura, CA06, -119.204, 34.200, 39, 54.2, 0.01
PARKER RESRVOIR, San Bernardino, CA07, -114.171, 34.290, 738, 63.4, 0.08
TWENTYNINE PALMS MC, San Bernardino, CA07, -116.147, 34.294, 2003, 56.2, 0.11
BIG BEAR LAKE, San Bernardino, CA06, -116.917, 34.243, 6753, 38.6, 1.14
LAKE ARROWHEAD, San Bernardino, CA07, -117.188, 34.247, 5205, 40.3, 2.27
CHATSWORTH FC 24 F, Los Angeles, CA06, -118.600, 34.250, 950, M, 0.60
VENTURA, Ventura, CA06, -119.292, 34.283, 105, M, 0.39
SANTA PAULA, Ventura, CA06, -119.133, 34.312, 237, 54.5, 0.59
PIRU 2 ESE, Ventura, CA06, -118.757, 34.406, 712, M, 0.46
SANTA BARBARA MUNI AP, Santa Barbara, CA06, -119.842, 34.424, 8, 52.9, 0.44
JUNCAL DAM, Santa Barbara, CA06, -119.507, 34.491, 2260, M, 0.75
VICTORVILLE, San Bernardino, CA07, -117.293, 34.529, 2880, 52.4, 0.27
GIBRALTAR DAM NO. 2, Santa Barbara, CA06, -119.682, 34.523, 1558, M, 0.84
PALMDALE, Los Angeles, CA07, -118.094, 34.588, 2612, 53.9, 0.14
SAUGUS POWER PLANT 1, Los Angeles, CA06, -118.454, 34.590, 2161, M, 0.87
LOS PRIETOS RS, Santa Barbara, CA06, -119.791, 34.544, 1024, M, 0.00
CACHUMA LAKE, Santa Barbara, CA06, -119.982, 34.582, 789, 55.6, 0.79
SALSIPUEDES GAGING STATION, Santa Barbara, CA06, -120.408, 34.585, 254, M, 0.86
EL MIRAGE, San Bernardino, CA07, -117.630, 34.589, 2950, 49.4, 0.13
PALMDALE AP, Los Angeles, CA07, -118.083, 34.629, 2509, 51.8, 0.10
LOMPOC, Santa Barbara, CA06, -120.451, 34.654, 75, 53.8, 0.71
LANCASTER, Los Angeles, CA06, -118.213, 34.741, 2338, 50.8, 0.30
SANDBERG, Los Angeles, CA06, -118.724, 34.744, 4510, 46.1, 0.29
LOS ALAMOS, Santa Barbara, CA06, -120.280, 34.746, 565, 51.7, 0.83
LEBEC, Kern, CA05, -118.865, 34.833, 3575, 44.7, 0.39
GAREY SISQUOC RIVER, Santa Barbara, CA06, -120.305, 34.894, 355, M, 0.75
MITCHELL CAVERNS, San Bernardino, CA07, -115.547, 34.944, 4350, 51.0, 0.11
NEW CUYAMA FIRE STATION, Santa Barbara, CA06, -119.683, 34.946, 2160, 50.4, 0.24
TWITCHELL DAM, Santa Barbara, CA06, -120.321, 34.988, 582, 53.4, 1.68
MOJAVE, Kern, CA07, -118.162, 35.049, 2735, 51.6, 0.15
PISMO BEACH, San Luis Obispo, CA04, -120.683, 35.160, 39, 53.5, 1.22
TAFT, Kern, CA05, -119.430, 35.150, 773, 57.5, 0.16
BAKER, San Bernardino, CA07, -116.063, 35.276, 962, 58.2, 0.00
GOLDSTONE ECHO NO 2, San Bernardino, CA07, -116.784, 35.281, 2950, M, 0.01
SALINAS DAM, San Luis Obispo, CA04, -120.504, 35.337, 1392, M, 1.78
RANDSBURG, Kern, CA07, -117.652, 35.369, 3570, 51.4, 0.13
SANTA MARGARITA BOOST, San Luis Obispo, CA04, -120.637, 35.374, 1148, M, 3.25
MORRO BAY FIRE DEPT, San Luis Obispo, CA04, -120.845, 35.367, 118, 51.0, 1.20
BAKERSFIELD AP, Kern, CA05, -119.055, 35.434, 490, 56.1, 0.43
BUTTONWILLOW, Kern, CA05, -119.470, 35.403, 225, 55.7, 0.35
MOUNTAIN PASS, San Bernardino, CA07, -115.544, 35.470, 4730, 46.9, 0.26
GLENNVILLE, Kern, CA05, -118.701, 35.727, 3140, 46.3, 3.07
TRONA, San Bernardino, CA07, -117.391, 35.764, 1695, 57.1, 0.06
KERN RIVER PH 3, Kern, CA05, -118.439, 35.783, 2703, 50.5, 1.13
DELANO, Kern, CA05, -119.260, 35.768, 302, 55.1, 0.56
BRADLEY TELEMETERING, Monterey, CA04, -120.868, 35.930, 443, M, 0.84
SHOSHONE, Inyo, CA07, -116.271, 35.972, 1546, M, 0.00
PORTERVILLE MUNICIPAL AIRPORT, Tulare, CA05, -119.062, 36.029, 442, 55.2, 0.90
KETTLEMAN CITY, Kings, CA05, -119.960, 36.007, 240, 55.6, 0.59
PORTERVILLE, Tulare, CA05, -119.020, 36.068, 393, 56.2, 1.10
HAIWEE, Inyo, CA07, -117.953, 36.139, 3825, 47.4, 0.00
CORCORAN IRRIGATION DIST., Kings, CA05, -119.582, 36.098, 200, 55.8, 0.68
COALINGA, Fresno, CA05, -120.361, 36.136, 670, 57.4, 0.53
PRIEST VALLEY, Monterey, CA04, -120.695, 36.188, 2300, 48.5, 1.69
KING CITY, Monterey, CA04, -121.138, 36.207, 320, 54.8, 0.58
SPRINGVILLE TULE HD, Tulare, CA05, -118.657, 36.193, 4070, M, 0.00
LINDSAY, Tulare, CA05, -119.054, 36.203, 435, 55.8, 1.36
BIG SUR STATION, Monterey, CA04, -121.780, 36.247, 200, 51.9, 4.62
VISALIA, Tulare, CA05, -119.300, 36.328, 303, 54.7, 1.31
FIVE POINTS 5 SSW, Fresno, CA05, -120.156, 36.364, 285, 54.6, 0.83
ASH MOUNTAIN, Tulare, CA05, -118.825, 36.491, 1708, 52.6, 3.26
THREE RIVERS EDISON PH 1, Tulare, CA05, -118.862, 36.465, 1140, 52.0, 3.08
PINNACLES NATIONAL PARK, San Benito, CA04, -121.182, 36.482, 1307, 51.4, 1.72
CARMEL VALLEY, Monterey, CA04, -121.724, 36.481, 480, 52.3, 1.90
LODGEPOLE, Tulare, CA05, -118.732, 36.604, 6735, 31.5, 7.66
PANOCHE 2 W, San Benito, CA05, -120.884, 36.607, 1400, M, 0.90
MONTEREY, Monterey, CA04, -121.855, 36.593, 122, 52.1, 1.43
SALINAS NO. 2, Monterey, CA04, -121.666, 36.659, 45, 53.9, 1.29
SALINAS AP, Monterey, CA04, -121.609, 36.664, 73, 52.6, 0.40
GRANT GROVE, Tulare, CA05, -118.962, 36.738, 6580, 34.8, 5.93
PAICINES 4 W, San Benito, CA04, -121.349, 36.715, 905, 48.4, 1.37
PINE FLAT DAM, Fresno, CA05, -119.337, 36.821, 615, M, 2.31
LOS BANOS ARBURUA RANCH, Merced, CA05, -120.939, 36.875, 843, M, 0.77
HOLLISTER 2, San Benito, CA04, -121.421, 36.848, 275, 52.5, 1.89
CHITTENDEN PASS, Santa Cruz, CA04, -121.597, 36.900, 82, M, 1.48
BALCH POWER HOUSE, Fresno, CA05, -119.088, 36.909, 1735, 51.7, 3.50
WATSONVILLE WATERWORKS, Santa Cruz, CA04, -121.769, 36.931, 95, 52.2, 1.51
FRIANT GOVERNMENT CAMP, Fresno, CA05, -119.707, 36.997, 410, 54.2, 0.95
MADERA, Madera, CA05, -120.038, 36.954, 270, 53.1, 1.14
WISHON DAM, Fresno, CA05, -118.984, 37.007, 6550, 35.9, 3.17
LOS BANOS DET RESV, Merced, CA05, -120.930, 36.990, 407, 55.1, 0.88
GILROY, Santa Clara, CA04, -121.561, 37.003, 194, 55.7, 1.73
AUBERRY 2 NW, Fresno, CA05, -119.513, 37.092, 2090, 50.8, 2.33
LOS BANOS, Merced, CA05, -120.867, 37.056, 120, 55.1, 0.84
SAN LUIS DAM, Merced, CA05, -121.058, 37.053, 277, 54.7, 0.85
BEN LOMOND NO. 4, Santa Cruz, CA04, -122.080, 37.086, 420, 51.4, 5.41
MORGAN HILL, Santa Clara, CA04, -121.602, 37.136, 375, 55.1, 2.52
SOUTH LAKE, Inyo, CA07, -118.570, 37.168, 9580, M, 1.54
LAKE SABRINA, Inyo, CA07, -118.614, 37.213, 9065, M, 1.15
HUNTINGTON LAKE, Fresno, CA05, -119.221, 37.228, 7020, 32.4, 5.41
BIG CREEK PH 1, Fresno, CA05, -119.242, 37.206, 4878, 45.6, 3.60
NORTH FORK RS, Madera, CA05, -119.510, 37.233, 2645, 47.3, 4.00
BISHOP CREEK INTAKE 2, Inyo, CA07, -118.581, 37.248, 8154, M, 0.70
COARSEGOLD 1 SW, Madera, CA05, -119.705, 37.250, 2230, M, 4.16
NEWMAN, Stanislaus, CA05, -121.018, 37.281, 90, 53.1, 0.97
MOUNT HAMILTON, Santa Clara, CA04, -121.635, 37.343, 4220, 43.3, 3.86
SAN GREGORIO 2 SE, San Mateo, CA04, -122.362, 37.312, 275, 49.4, 2.67
DEEP SPRINGS COLLEGE, Inyo, CA07, -117.980, 37.374, 5225, 38.2, 0.00
BISHOP AIRPORT, Inyo, CA07, -118.359, 37.371, 4110, 45.0, 0.01
MOFFETT FEDERAL AIRFIELD, Santa Clara, CA04, -122.048, 37.406, 39, 53.7, 1.33
WOODSIDE FIRE STATION 1, San Mateo, CA04, -122.256, 37.429, 380, 54.1, 3.67
TURLOCK #2, Stanislaus, CA05, -120.846, 37.502, 103, 55.1, 1.32
PALO ALTO, Santa Clara, CA04, -122.140, 37.444, 25, 52.9, 1.81
SO ENTRANCE YOSEMITE N.P., Mariposa, CA05, -119.633, 37.512, 5047, 38.6, 4.34
MARIPOSA R S, Mariposa, CA05, -119.986, 37.495, 2100, M, 2.39
NEWARK, Alameda, CA04, -122.032, 37.515, 10, 55.8, 1.68
EXCHEQUER DAM, Mariposa, CA05, -120.267, 37.585, 442, M, 2.01
MODESTO AP, Stanislaus, CA05, -120.955, 37.625, 87, 54.0, 1.45
HAYWARD AIR TERMINAL, Alameda, CA04, -122.121, 37.659, 31, 53.9, 2.48
TRACY CARBONA, San Joaquin, CA05, -121.347, 37.682, 135, 53.6, 1.46
LIVERMORE MUNICIPAL AP, Alameda, CA04, -121.815, 37.693, 393, 51.1, 1.73
OAKLAND INTERNATIONAL AIRPORT, Alameda, CA04, -122.233, 37.718, 5, 52.9, 3.24
GEM LAKE, Mono, CA03, -119.140, 37.752, 8970, M, 1.18
UPPER SAN LEANDRO FILTERS, Alameda, CA04, -122.167, 37.772, 394, M, 4.56
SAN FRANCISCO DOWNTOWN, San Francisco, CA04, -122.427, 37.771, 150, 53.6, 2.27
SAN FRANCISCO OCEANSIDE, San Francisco, CA04, -122.505, 37.728, 8, 51.4, 1.90
GROVELAND RS, Tuolumne, CA05, -120.098, 37.823, 3145, M, 4.60
GROVELAND 2, Tuolumne, CA05, -120.226, 37.844, 2800, 45.3, 6.96
TRACY PUMPING PLANT, Alameda, CA05, -121.583, 37.796, 61, 54.8, 2.05
OAKLAND MUSEUM, Alameda, CA04, -122.264, 37.798, 30, 55.0, 2.61
BENTON INSPECTION STN, Mono, CA07, -118.478, 37.843, 5460, 41.4, 0.40
MATHER, Tuolumne, CA05, -119.856, 37.885, 4510, M, 3.80
MOUNT DIABLO JUNCTION, Contra Costa, CA04, -121.930, 37.879, 2170, 50.0, 3.19
ELLERY LAKE, Mono, CA03, -119.230, 37.936, 9645, M, 1.52
STOCKTON AP, San Joaquin, CA05, -121.226, 37.890, 27, 52.7, 1.78
RICHMOND, Contra Costa, CA04, -122.377, 37.919, 20, 54.2, 1.30
MUIR WOODS, Marin, CA01, -122.569, 37.898, 220, M, 4.07
HETCH HETCHY, Tuolumne, CA05, -119.783, 37.961, 3870, 44.5, 3.57
CHERRY VALLEY DAM, Tuolumne, CA05, -119.916, 37.975, 4765, 42.2, 6.46
SONORA, Tuolumne, CA05, -120.387, 37.967, 1675, 48.6, 5.32
STOCKTON FIRE STA 4, San Joaquin, CA05, -121.318, 37.999, 12, 54.0, 2.92
ANTIOCH PUMPING PLANT #3, Contra Costa, CA05, -121.752, 37.983, 60, 58.1, M
CONCORD BUCHANAN FIELD, Contra Costa, CA04, -122.053, 37.992, 23, 53.2, 1.50
CONCORD WASTEWATER PLANT, Contra Costa, CA04, -122.069, 37.983, 40, 54.6, 1.68
SAN RAFAEL-CIVIC CENTER, Marin, CA01, -122.537, 37.998, 120, 52.6, 2.12
KENTFIELD, Marin, CA01, -122.545, 37.957, 145, 53.0, 4.60
MARTINEZ WATER PLANT, Contra Costa, CA04, -122.114, 38.013, 40, 53.4, 2.00
SAN ANDREAS 2, Calaveras, CA05, -120.671, 38.191, 1100, 49.0, 3.71
BODIE CALIFORNIA STATE HISTORIC PARK, Mono, CA03, -119.014, 38.212, 8370, 27.2, 0.91
ACAMPO 5NE, San Joaquin, CA05, -121.201, 38.218, 87, M, 2.74
NAPA COUNTY AIRPORT, Napa, CA04, -122.280, 38.208, 16, 50.3, 1.82
BRIDGEPORT, Mono, CA03, -119.229, 38.258, 6470, 33.5, 0.65
PINECREST SUMMIT RS, Tuolumne, CA05, -120.005, 38.187, 5600, M, 0.05
CALAVERAS BIG TREES, Calaveras, CA05, -120.311, 38.277, 4695, 38.5, 9.93
CAMP PARDEE, Calaveras, CA05, -120.843, 38.249, 658, 52.6, 3.57
TRAVIS FIELD AFB, Solano, CA02, -121.933, 38.267, 62, 53.8, 1.43
FAIRFIELD, Solano, CA02, -122.068, 38.274, 40, 53.9, 1.95
SONOMA, Sonoma, CA01, -122.462, 38.299, 97, 52.6, 2.66
SUTTER HILL CDF, Amador, CA05, -120.801, 38.377, 1586, 48.1, 5.35
WEST POINT, Calaveras, CA05, -120.545, 38.378, 2775, M, 6.22
ATLAS ROAD BROWN, Napa, CA01, -122.248, 38.427, 1680, M, 4.00
GRATON, Sonoma, CA01, -122.865, 38.431, 200, 51.5, 3.88
OCCIDENTAL, Sonoma, CA01, -122.966, 38.386, 865, 58.3, 5.38
TIGER CREEK PH, Amador, CA05, -120.499, 38.446, 2355, M, 0.06
SALT SPRINGS PWR HOUSE, Amador, CA05, -120.219, 38.501, 3700, M, 0.03
FIDDLETOWN DEXTER RCH, Amador, CA05, -120.698, 38.525, 2170, M, 5.46
SACRAMENTO AP ASOS, Sacramento, CA02, -121.496, 38.507, 19, 52.5, 2.87
WINTERS, Yolo, CA02, -121.978, 38.525, 135, 56.1, 1.78
LAKE SOLANO, Solano, CA02, -122.004, 38.492, 187, 54.1, 1.50
SAINT HELENA, Napa, CA01, -122.471, 38.507, 225, 54.3, 3.63
SAINT HELENA 4 WSW, Napa, CA01, -122.538, 38.493, 1780, M, 4.76
FORT ROSS, Sonoma, CA01, -123.245, 38.515, 112, 50.3, 3.32
SACRAMENTO 5 ESE, Sacramento, CA02, -121.418, 38.555, 38, 55.1, 2.85
ANGWIN PACIFIC UNION COLLEGE, Napa, CA01, -122.440, 38.573, 1715, 50.1, 3.69
CALISTOGA, Napa, CA01, -122.578, 38.577, 350, 52.0, 3.57
VENADO, Sonoma, CA01, -123.018, 38.609, 1260, M, 4.64
WOODLAND 1 WNW, Yolo, CA02, -121.794, 38.683, 67, 54.8, 1.85
MARKLEEVILLE, Alpine, CA03, -119.780, 38.692, 5530, 35.5, 2.86
PLACERVILLE, El Dorado, CA02, -120.824, 38.696, 1850, 50.7, 6.47
REPRESA, Sacramento, CA02, -121.161, 38.694, 295, M, 2.75
SACRAMENTO METROPOLITAN AP, Sacramento, CA02, -121.595, 38.701, 24, 51.9, 2.80
WARM SPRINGS DAM, Sonoma, CA01, -122.997, 38.716, 224, M, 0.00
PACIFIC HOUSE, El Dorado, CA02, -120.503, 38.758, 3450, M, 8.16
MIDDLETOWN, Lake, CA02, -122.626, 38.748, 1121, M, 2.51
CLOVERDALE, Sonoma, CA01, -123.026, 38.793, 400, 53.5, 3.08
KELSEY 1 N, El Dorado, CA02, -120.821, 38.809, 2000, M, 6.04
SOUTH LAKE TAHOE AP, El Dorado, CA03, -119.996, 38.898, 6257, 32.1, 1.02
GEORGETOWN RS, El Dorado, CA02, -120.801, 38.933, 3001, 46.7, 9.70
AUBURN, Placer, CA02, -121.084, 38.907, 1292, 51.1, 6.39
NICOLAUS #2, Sutter, CA02, -121.545, 38.926, 43, M, 2.77
YORKVILLE, Mendocino, CA01, -123.231, 38.905, 1100, M, 3.92
CLEARLAKE 4 SE, Lake, CA02, -122.567, 38.924, 1349, 45.6, 0.84
FORESTHILL RANGER STATION, Placer, CA02, -120.845, 39.010, 3015, M, 9.44
LAKEPORT, Lake, CA02, -122.917, 39.033, 1315, 48.0, 2.67
IOWA HILL, Placer, CA02, -120.840, 39.118, 3100, M, 9.53
BEALE AFB, Yuba, CA02, -121.433, 39.133, 113, M, 0.00
MARYSVILLE AIRPORT (ASOS), Yuba, CA02, -121.569, 39.102, 62, 52.1, 3.16
UKIAH MUNICIPAL AP, Mendocino, CA01, -123.200, 39.128, 603, 50.9, 2.13
UKIAH 4 WSW, Mendocino, CA01, -123.272, 39.127, 1328, M, 3.50
GOLD RUN 4 SW, Placer, CA02, -120.900, 39.150, 3220, M, 9.48
WILLIAMS, Colusa, CA02, -122.150, 39.150, 85, M, 4.44
GRASS VALLEY NO. 2, Nevada, CA02, -121.068, 39.204, 2400, 46.0, 8.38
HARRY L. ENGLEBRIGHT DAM, Nevada, CA02, -121.267, 39.237, 800, M, 5.48
COLUSA 2 SSW, Colusa, CA02, -122.027, 39.188, 50, 54.2, 0.90
LAKE MENDOCINO DAM, Mendocino, CA01, -123.185, 39.203, 764, M, 0.18
BLUE CANYON NYACK AP, Placer, CA02, -120.709, 39.276, 5286, 38.9, 10.84
NEVADA CITY, Nevada, CA02, -121.001, 39.247, 2781, 46.2, 9.12
TRUCKEE AIRPORT, Nevada, CA03, -120.139, 39.320, 5900, 30.2, 1.90
TRUCKEE RS, Nevada, CA03, -120.173, 39.333, 5823, 32.4, 3.84
DONNER MEMORIAL ST PARK, Nevada, CA03, -120.233, 39.324, 5937, 33.3, 5.58
DEER CREEK FOREBAY, Nevada, CA02, -120.833, 39.300, 4455, M, 2.77
COLGATE POWERHOUSE, Yuba, CA02, -121.192, 39.331, 595, M, 7.04
BOCA, Nevada, CA03, -120.094, 39.389, 5575, 34.0, 2.41
DOBBINS 1 S, Yuba, CA02, -121.201, 39.358, 1640, 49.1, 7.80
EAST PARK RESERVOIR, Colusa, CA02, -122.518, 39.359, 1205, 48.6, 0.60
STONYFORD, Colusa, CA02, -122.546, 39.375, 1170, M, 0.73
POTTER VALLEY POWERHOUSE, Mendocino, CA01, -123.129, 39.362, 1018, 51.5, 3.90
FARAD, Nevada, CA03, -120.033, 39.428, 5153, M, 0.06
SAGEHEN CREEK, Nevada, CA03, -120.241, 39.432, 6337, 30.5, M
WILLITS 1 NE, Mendocino, CA01, -123.342, 39.419, 1353, 44.3, 4.08
BOWMAN DAM, Nevada, CA02, -120.656, 39.454, 5385, 37.5, 10.67
OROVILLE, Butte, CA02, -121.553, 39.518, 171, 53.0, 3.41
OROVILLE MUNICIPAL AP, Butte, CA02, -121.622, 39.494, 187, 52.9, 2.56
SIERRAVILLE RS, Sierra, CA02, -120.370, 39.583, 4975, 37.9, 2.37
DOWNIEVILLE, Sierra, CA02, -120.824, 39.563, 2915, 43.8, 7.89
STRAWBERRY VALLEY, Yuba, CA02, -121.108, 39.563, 3808, 41.4, 10.75
STONY GORGE RESERVOIR, Glenn, CA02, -122.534, 39.586, 800, 49.6, 0.70
BRUSH CREEK RANGER STATION, Butte, CA02, -121.345, 39.695, 3560, M, 9.32
HARRISON GULCH RS, Shasta, CA02, -122.965, 40.364, 2750, 41.4, 2.43
COLEMAN FISHERIES STATION, Shasta, CA02, -122.143, 40.400, 420, M, 1.33
VOLTA PH, Shasta, CA02, -121.866, 40.458, 2220, M, 2.86
GRIZZLY CREEK STATE PARK, Humboldt, CA01, -123.909, 40.486, 413, M, 4.84
SCOTIA, Humboldt, CA01, -124.104, 40.483, 136, 49.9, 4.84
MANZANITA LAKE, Shasta, CA02, -121.577, 40.541, 5750, 35.2, 3.70
HAYFORK 2 W, Trinity, CA01, -123.212, 40.552, 2300, 44.0, 0.95
WHISKEYTOWN RESERVOIR, Shasta, CA02, -122.528, 40.612, 1295, 51.2, 4.92
HYAMPOM, Trinity, CA01, -123.457, 40.616, 1278, M, 2.41
SHASTA DAM, Shasta, CA02, -122.416, 40.714, 1075, 51.6, 4.91
TRINITY RIVER HATCHERY, Trinity, CA01, -122.795, 40.726, 1861, 45.9, 1.91
BIG BAR 4 E, Trinity, CA01, -123.208, 40.741, 1253, 47.4, 2.01
ROUND MOUNTAIN, Shasta, CA02, -121.935, 40.796, 2100, M, 6.39
BUCKHORN, Shasta, CA02, -121.932, 40.880, 3700, M, 6.36
HAT CREEK, Shasta, CA02, -121.543, 40.932, 3015, 40.2, 1.25
PIT RIVER PH 5, Shasta, CA02, -121.977, 40.987, 1458, M, 7.60
WILLOW CREEK 1 NW, Humboldt, CA01, -123.636, 40.947, 464, 50.6, 4.09
COFFEE CREEK RS, Trinity, CA01, -122.709, 41.089, 2503, M, 1.88
ADIN RANGER STATION, Modoc, CA02, -120.945, 41.193, 4202, 38.6, 1.40
DUNSMUIR TREATMENT PL, Siskiyou, CA02, -122.282, 41.183, 2169, 44.7, 5.20
JESS VALLEY, Modoc, CA02, -120.295, 41.268, 5400, 33.0, 2.15
MCCLOUD, Siskiyou, CA02, -122.138, 41.252, 3233, 40.2, 2.36
ORICK, Humboldt, CA01, -124.067, 41.283, 5, M, 5.96
CALLAHAN, Siskiyou, CA01, -122.825, 41.338, 3085, 41.6, 0.57
SAWYERS BAR RS, Siskiyou, CA01, -123.133, 41.301, 2255, 48.0, 0.14
ORLEANS RS, Humboldt, CA01, -123.534, 41.303, 433, M, 4.00
ORICK PRAIRIE CREEK PARK, Humboldt, CA01, -124.019, 41.362, 160, 44.1, 7.42
CANBY 3 SW, Modoc, CA02, -120.902, 41.422, 4310, 36.2, 0.83
ALTURAS, Modoc, CA02, -120.544, 41.490, 4378, 37.2, 0.45
KLAMATH, Del Norte, CA01, -124.075, 41.579, 28, 47.4, 7.57
GREENVIEW, Siskiyou, CA01, -122.924, 41.552, 2820, M, 0.54
FORT JONES RS, Siskiyou, CA01, -122.848, 41.601, 2729, 41.8, 0.57
LAVA BEDS NAT MON, Siskiyou, CA01, -121.501, 41.702, 4770, 37.6, 2.81
MOUNT HEBRON RS, Siskiyou, CA01, -122.045, 41.783, 4265, 38.4, 0.85
CRESCENT CITY 3 NNW, Del Norte, CA01, -124.215, 41.796, 43, 45.8, 5.98
CRESCENT CITY MCNAMARA AP, Del Norte, CA01, -124.238, 41.784, 56, 46.2, 4.55
OAK KNOLL W. C., Siskiyou, CA01, -122.850, 41.839, 1980, M, 0.93
FORT BIDWELL, Modoc, CA03, -120.157, 41.872, 4739, 39.2, 1.40
GASQUET RS, Del Norte, CA01, -123.965, 41.845, 387, M, 8.49
FORT DICK RIVER, Del Norte, CA01, -124.135, 41.881, -, M, 5.68
TULELAKE, Siskiyou, CA01, -121.474, 41.960, 4038, 36.5, 0.36
COPCO NO 1 DAM, Siskiyou, CA01, -122.338, 41.980, 2665, M, 1.12
ELK VALLEY, Del Norte, CA01, -123.718, 41.988, 1708, M, 7.08
PACIFICA 4 SSE, San Mateo, CA04, -122.472, 37.592, 475, 56.1, 3.56
BARSTOW, San Bernardino, CA07, -117.022, 34.893, 2220, 54.9, 0.15
INYOKERN, Kern, CA07, -117.821, 35.651, 2430, 54.1, 0.00
PEARBLOSSOM, Los Angeles, CA07, -117.897, 34.503, 3101, 52.4, 0.04
EL CAJON, San Diego, CA06, -116.928, 32.801, 495, 57.9, 0.31
MARKLEY COVE, Napa, CA02, -122.124, 38.492, 480, 51.8, 2.01
CORONADO FIRE DEPT, San Diego, CA06, -117.177, 32.692, 18, 57.4, 0.52
CUYAMACA RANCHO ST PARK, San Diego, CA06, -116.559, 32.927, 4870, 46.0, 1.53
FALLBROOK FIRE DEPT, San Diego, CA06, -117.248, 33.384, 698, 55.4, 0.74
DEL MAR FIRE DEPT, San Diego, CA06, -117.262, 32.972, 12, 55.9, 0.66
IMPERIAL BEACH FIRE DEPT, San Diego, CA06, -117.114, 32.576, 22, 52.6, 0.44
LEMON GROVE FIRE DEPARTMENT, San Diego, CA06, -117.030, 32.738, 427, 60.7, 0.86
NATIONAL CITY FIRE DEPT, San Diego, CA06, -117.100, 32.671, 30, 56.7, 0.61
SPRING VALLEY FIRE DEPT, San Diego, CA06, -117.006, 32.710, 270, 56.4, 0.94
MT LAGUNA # 2, San Diego, CA07, -116.422, 32.876, 5760, 43.9, 1.75
SANTEE FIRE DEPT, San Diego, CA06, -116.973, 32.841, 340, 58.6, 0.56
LEE VINING, Mono, CA07, -119.119, 37.957, 6797, 37.5, 1.11
ANAHEIM, Orange, CA06, -117.842, 33.865, 235, 58.3, 0.31
RED BLUFF TREATMENT PLANT, Tehama, CA02, -122.220, 40.162, 265, M, 1.95
NEW MELONES DAM HQ, Tuolumne, CA05, -120.486, 38.005, 960, 53.1, 3.95
MAMMOTH LAKES RS, Mono, CA07, -118.962, 37.648, 7804, 29.7, 2.31
CAMPTONVILLE 1SW, Yuba, CA02, -121.071, 39.440, 2500, M, 9.00
MONTEREY WFO, Monterey, CA04, -121.855, 36.593, 122, 53.2, 1.04
SKYLINE RIDGE PRESERVE, San Mateo, CA04, -122.185, 37.313, 2270, 47.6, 4.99
FREMONT, Alameda, CA04, -122.016, 37.542, 38, 54.7, 1.96
MAD RIVER 12 SE, Trinity, CA01, -123.374, 40.319, 2763, M, 3.40
BISHOP FS, Inyo, CA07, -118.365, 37.368, 4108, M, T
NEWHALL 5NW, Los Angeles, CA06, -118.594, 34.393, 1765, 55.4, 0.27
TEHACHAPI 4 SE, Kern, CA05, -118.422, 35.101, 4220, 43.9, 1.33
REDWOOD CITY #2, San Mateo, CA04, -122.214, 37.488, 10, 55.5, 1.52
WRIGHTWOOD, San Bernardino, CA07, -117.639, 34.362, 6000, 39.9, 0.83
REDDING CDF, Shasta, CA02, -122.299, 40.519, 502, M, 2.95
VALLEJO, Solano, CA01, -122.187, 38.100, 341, 53.3, 1.62
NORTHRIDGE CAL STATE, Los Angeles, CA06, -118.525, 34.245, 904, 58.0, 0.16
OXNARD WFO, Ventura, CA06, -119.137, 34.207, 52, 54.9, 0.20
LAKEHEAD, Shasta, CA02, -122.391, 40.899, 1398, M, 5.11
HANFORD MUNICIPAL AP, Kings, CA05, -119.623, 36.311, 249, 54.9, 1.01
RAMONA AIRPORT, San Diego, CA06, -116.916, 33.038, 1385, 50.7, 1.22
VACAVILLE/NUT TREE AP ASOS, Solano, CA02, -121.959, 38.378, 104, 52.9, 2.22
ALTURAS MUNICIPAL AP, Modoc, CA02, -120.561, 41.484, 4383, 35.8, 0.48
MADERA MUNICIPAL AP, Madera, CA05, -120.111, 36.985, 251, 52.9, 1.27
BAKERSFIELD 5 NW, Kern, CA05, -119.051, 35.419, 470, 54.7, 0.37
FRESNO 5 NE, Fresno, CA05, -119.709, 36.767, 338, 55.3, 0.91
OCEANSIDE MUNICIPAL AP, San Diego, CA06, -117.350, 33.219, 30, 53.6, 0.64
SAN DIEGO SEAWORLD, San Diego, CA06, -117.231, 32.765, 14, 55.6, 0.45
BOULEVARD 2, San Diego, CA07, -116.300, 32.667, 3600, M, 4.96
ARCATA EUREKA AP, Humboldt, CA01, -124.105, 40.978, 211, 45.5, 4.75
CHICO ARMY FLYING SCH, Butte, CA02, -121.850, 39.800, 272, 55.5, 0.00
NEWPORT BEACH HARBOR, Orange, CA06, -117.884, 33.603, 10, 57.6, 0.53
ESCONDIDO NO. 2, San Diego, CA06, -117.090, 33.121, 600, 56.6, 1.28
REDDING AP, Shasta, CA02, -122.298, 40.515, 501, 52.2, 2.58
AVALON CATALINA AP, Los Angeles, CA06, -118.415, 33.404, 1565, 53.4, 0.58
SANTA MARIA PUBLIC AP, Santa Barbara, CA06, -120.452, 34.894, 243, 51.9, 0.75
MOUNT SHASTA, Siskiyou, CA02, -122.333, 41.333, 3535, 40.7, 1.86
RED BLUFF MUNI AP, Tehama, CA02, -122.255, 40.152, 354, 52.7, 1.49
NEEDLES AIRPORT, San Bernardino, CA07, -114.618, 34.768, 888, 62.0, 0.02
CHINA LAKE NAF, Kern, CA07, -117.693, 35.688, 2230, 53.7, T
HEARST CASTLE, San Luis Obispo, CA04, -121.168, 35.684, 1526, 51.1, 2.88
GETTY CENTER, Los Angeles, CA06, -118.479, 34.087, 1117, 56.4, 0.00
HESPERIA 2E, San Bernardino, CA07, -117.266, 34.421, 3055, 49.6, 0.15
RANCHO BERNARDO, San Diego, CA06, -117.081, 33.022, 690, 55.8, 1.12
FELTON, Santa Cruz, CA04, -122.075, 37.051, 400, 50.8, 3.81
PACIFICA 2S, San Mateo, CA04, -122.484, 37.610, 125, 51.7, 2.53
WEST COVINA, Los Angeles, CA06, -117.896, 34.052, 575, 58.3, 0.43
PIONEER 6E, Amador, CA05, -120.512, 38.445, 3000, 46.5, 6.81
SAN JUAN CANYON, Orange, CA06, -117.552, 33.532, 375, 55.4, 1.01
BASSETS STATION, Sierra, CA02, -120.592, 39.618, 5457, 36.8, 5.87
TORRANCE AP, Los Angeles, CA06, -118.342, 33.802, 90, 56.9, 0.17
LOS ANGELES DOWNTOWN/USC, Los Angeles, CA06, -118.291, 34.024, 179, 59.8, 0.32
FRESNO YOSEMITE INT'L, Fresno, CA05, -119.720, 36.780, 334, 55.0, 0.95
MONTEREY PENINSUL AP, Monterey, CA04, -121.849, 36.590, 160, 51.8, 1.01
PASO ROBLES MUNICIPAL AP, San Luis Obispo, CA04, -120.629, 35.669, 820, 50.4, 1.04
MONTAGUE SISKIYOU AIRPORT, Siskiyou, CA01, -122.468, 41.774, 2645, 41.5, 0.58
SAN JOSE, Santa Clara, CA04, -121.903, 37.350, 67, 55.6, 1.80
SAN JOSE, Santa Clara, CA04, -121.924, 37.359, 49, 54.0, 1.55
PALM SPRINGS ASOS, Riverside, CA07, -116.504, 33.822, 409, 63.8, 0.04
SAN DIEGO BROWN FIELD, San Diego, CA06, -116.994, 32.576, 521, 54.7, 0.49
Bakersfield Area, -, -, -, -, -, 56.1, 0.43
Bishop Area, -, -, -, -, -, 45.0, 0.01
Los Angeles Downtown Area, -, -, -, -, -, 59.8, 0.32
Eureka Area, -, -, -, -, -, 46.9, 4.32
Fresno Area, -, -, -, -, -, 55.0, 0.95
Los Angeles Airport Area, -, -, -, -, -, 58.0, 0.27
Long Beach Area, -, -, -, -, -, 58.3, 0.05
Redding Area, -, -, -, -, -, 52.2, 2.58
Sacramento Area, -, -, -, -, -, 52.5, 2.87
San Diego Area, -, -, -, -, -, 57.6, 0.46
Stockton Area, -, -, -, -, -, 52.7, 1.78
San Francisco Airport Area, -, -, -, -, -, 53.8, 2.13
Santa Maria Area, -, -, -, -, -, 51.9, 0.75
CAMP PENDLETON MCAS, San Diego, CA06, -117.355, 33.304, 70, 53.7, 0.52
LEMOORE REEVES NAS, Fresno, CA05, -119.950, 36.333, 232, 53.8, 0.58
ARVIN, Kern, CA05, -118.834, 35.211, 450, 54.4, 0.06
FRAZIER PARK, Kern, CA06, -118.965, 34.827, 4972, 38.8, 0.24
REDONDO BEACH, Los Angeles, CA06, -118.376, 33.834, 142, 57.1, 0.12
BURBANK VALLEY PUMP PLANT, Los Angeles, CA06, -118.348, 34.187, 655, 57.8, 0.34
CHALLENGE-BROWNSVILLE 1.3 WSW, Yuba, CA02, -121.280, 39.452, 2049, M, 0.00
SUSANVILLE 2SW, Lassen, CA03, -120.663, 40.417, 4212, 40.6, T
TEJON RANCHO, Kern, CA05, -118.750, 35.023, 1425, 54.5, 1.40
SAN SIMEON POINT PIEDRAS BLANCAS, San Luis Obispo, CA04, -121.285, 35.666, 59, 50.8, 1.53
BURBANK GLENDALE PASADENA AP, Los Angeles, CA06, -118.365, 34.200, 731, 57.5, T
MOUNT SHASTA, Siskiyou, CA02, -122.317, 41.322, 3613, 40.4, 2.21
WATSONVILLE MUNICIPAL AIRPORT, Santa Cruz, CA04, -121.790, 36.939, 162, 51.2, 1.84
SANTA ROSA SONOMA CO AP, Sonoma, CA04, -122.811, 38.504, 119, 51.3, 2.68
OAKHURST, Madera, CA05, -119.653, 37.331, 2230, 46.6, 3.78
ARBUCKLE BASIN CALIFORNIA, Shasta, CA02, -122.833, 40.398, 1900, 49.5, M
ACTON CALIFORNIA, Los Angeles, CA06, -118.200, 34.446, 2600, 51.9, M
ARROYO GRANDE CALIFORNIA, San Luis Obispo, CA04, -120.392, 35.179, 1048, 52.2, M
ALDER SPRINGS CALIFORNIA, Glenn, CA02, -122.724, 39.651, 4300, 42.9, M
ALPINE CALIFORNIA, San Diego, CA06, -116.739, 32.834, 2041, 54.0, M
LOS ALTOS CALIFORNIA, Santa Clara, CA04, -122.147, 37.358, 645, 56.0, M
AMMO DUMP CALIFORNIA, San Diego, CA06, -117.286, 33.381, 1068, 56.5, M
ANZA CALIFORNIA, Riverside, CA06, -116.673, 33.555, 3920, 47.6, M
ALDER POINT CALIFORNIA, Humboldt, CA01, -123.590, 40.187, 923, 49.4, M
ASH VALLEY CALIFORNIA, Lassen, CA02, -120.686, 41.052, 5100, 35.1, M
BALD MTN LOC CALIFORNIA, El Dorado, CA02, -120.697, 38.906, 4680, 45.4, M
BATTERSON CALIFORNIA, Madera, CA05, -119.508, 37.232, 3160, 49.1, M
BIG BAR CALIFORNIA, Trinity, CA01, -123.233, 40.733, 1500, 49.4, M
BELL CANYON CALIFORNIA, Orange, CA06, -117.592, 33.542, 700, 58.0, M
BEAR PEAK CALIFORNIA, Tulare, CA05, -118.052, 35.884, 8228, 35.2, M
BENTON CALIFORNIA, Mono, CA07, -118.478, 37.843, 5450, 40.7, M
BEVERLY HILLS CALIFORNIA, Los Angeles, CA06, -118.412, 34.125, 1260, 56.1, M
BEAR VALLEY CALIFORNIA, Kern, CA05, -118.625, 35.140, 4000, 50.7, M
BANGOR CALIFORNIA, Butte, CA02, -121.386, 39.398, 803, 51.4, M
BIG HILL CALIFORNIA, Humboldt, CA01, -123.636, 41.098, 3570, 41.9, M
BLACK DIAMOND CALIFORNIA, Contra Costa, CA04, -121.884, 37.950, 1600, 71.9, M
BLUE DOOR CALIFORNIA, Lassen, CA02, -120.337, 41.055, 5615, 34.0, M
BLUE RIDGE (KNF) CALIFORNIA, Siskiyou, CA01, -123.187, 41.269, 5956, 35.8, M
BEN BOLT CALIFORNIA, El Dorado, CA05, -120.934, 38.591, 905, 51.3, M
BOGARD R.S. CALIFORNIA, Lassen, CA02, -121.083, 40.598, 5650, 32.9, M
BOONVILLE CALIFORNIA, Mendocino, CA01, -123.349, 38.988, 644, 50.3, M
BIG PINE FLAT CALIFORNIA, San Bernardino, CA07, -117.013, 34.319, 6861, 39.8, M
BRANCH MOUNTAIN CALIFORNIA, San Luis Obispo, CA04, -120.083, 35.189, 3770, 47.9, M
BRIONES CALIFORNIA, Contra Costa, CA04, -122.118, 37.944, 1450, 52.0, M
BLACKROCK CALIFORNIA, Tulare, CA05, -118.260, 36.093, 8200, 34.4, M
BROOKS CALIFORNIA, Yolo, CA02, -122.145, 38.738, 354, 53.7, M
BIG SUR CALIFORNIA, Monterey, CA04, -121.785, 36.236, 450, 52.7, M
BUCK MEADOWS CALIFORNIA, Tuolumne, CA05, -120.097, 37.823, 3200, 44.7, M
BULL FLAT CALIFORNIA, Lassen, CA03, -120.114, 40.481, 4395, 36.8, M
BURNS CANYON CALIFORNIA, San Bernardino, CA07, -116.634, 34.210, 6000, 44.9, M
BUTTERCUP CALIFORNIA, Imperial, CA07, -114.884, 32.740, 217, 64.0, M
BEAVER CAMP LOC CALIFORNIA, Amador, CA05, -120.325, 38.488, 5000, 44.9, M
BRAZIE RANCH CALIFORNIA, Siskiyou, CA01, -122.594, 41.685, 3000, 43.1, M
CAHUILLA CALIFORNIA, Imperial, CA07, -115.174, 32.974, 278, 64.4, M
CALLAHAN CALIFORNIA, Siskiyou, CA01, -122.796, 41.308, 3136, 48.3, M
CAMERON FIRE STATION CALIFORNI, San Diego, CA06, -116.463, 32.721, 3443, 50.2, M
CANBY CALIFORNIA, Modoc, CA02, -120.868, 41.434, 4312, 37.8, M
CARRIZO CALIFORNIA, San Luis Obispo, CA05, -119.773, 35.096, 2490, 52.7, M
CASE SPRINGS CALIFORNIA, San Diego, CA06, -117.418, 33.445, 2320, 53.2, M
CATHEYS VALLEY CALIFORNIA, Mariposa, CA05, -120.111, 37.468, 1200, 52.5, M
CEDAR GROVE CALIFORNIA, Fresno, CA05, -118.656, 36.788, 4720, 42.0, M
CHEESEBORO CALIFORNIA, Ventura, CA06, -118.717, 34.185, 1650, 57.3, M
CHICO CALIFORNIA, Butte, CA02, -121.779, 39.712, 230, 51.6, M
CHILAO CALIFORNIA, Los Angeles, CA06, -118.030, 34.332, 5450, 46.7, M
CHUCHUPATE CALIFORNIA, Ventura, CA05, -119.012, 34.808, 4900, 39.8, M
CLAREMONT CALIFORNIA, Los Angeles, CA06, -117.707, 34.137, 1645, 55.0, M
CLARK CALIFORNIA, Riverside, CA06, -117.309, 33.877, 1720, 53.4, M
CALAVERAS ROAD CALIFORNIA, Alameda, CA04, -121.844, 37.553, 1230, 51.9, M
CORONA CALIFORNIA, Riverside, CA06, -117.549, 33.874, 640, 59.3, M
COHASSET CALIFORNIA, Butte, CA02, -121.769, 39.872, 1733, 53.6, M
COLLINS BALDY CALIFORNIA, Siskiyou, CA01, -122.950, 41.775, 5493, 36.8, M
CONVERSE CALIFORNIA, San Bernardino, CA06, -116.913, 34.194, 5618, 43.1, M
COOSKIE MOUNTAIN CALIFORNIA, Humboldt, CA01, -124.266, 40.257, 2950, 43.0, M
CORRALITOS CALIFORNIA, Santa Cruz, CA04, -121.798, 36.991, 450, 54.0, M
COUNTY LINE CALIFORNIA, Lake, CA02, -122.412, 39.019, 2085, 51.3, M
CAMP 9 CALIFORNIA, Los Angeles, CA06, -118.422, 34.362, 4000, 50.0, M
CRANE FLAT LOOKOUT CALIFORNIA, Mariposa, CA05, -119.825, 37.762, 6644, 39.0, M
CRESTVIEW CALIFORNIA, Mono, CA07, -118.983, 37.745, 7600, 32.0, M
CORNING CALIFORNIA, Tehama, CA02, -122.170, 39.939, 294, 53.0, M
CARPENTER RIDGE CALIFORNIA, Butte, CA02, -121.582, 40.069, 4812, 41.6, M
CRANSTON CALIFORNIA, Riverside, CA06, -116.841, 33.740, 1950, 57.1, M
CRAZY PEAK CALIFORNIA, Del Norte, CA01, -123.604, 41.992, 3970, 40.9, M
CASHMAN CALIFORNIA, Plumas, CA02, -120.915, 40.002, 4520, 42.8, M
DESCANSO CALIFORNIA, San Diego, CA06, -116.622, 32.857, 3480, 49.2, M
DEVILS GARDEN CALIFORNIA, Modoc, CA02, -120.671, 41.530, 5022, 36.4, M
DIABLO GRANDE CALIFORNIA, Stanislaus, CA05, -121.294, 37.329, 1850, 51.1, M
DEMOCRAT CALIFORNIA, Kern, CA05, -118.630, 35.532, 2356, 50.8, M
DINKEY CALIFORNIA, Fresno, CA05, -119.039, 37.066, 5668, 36.2, M
DELNORTE CALIFORNIA, Santa Barbara, CA06, -119.654, 34.009, 800, 54.5, M
DOG VALLEY CALIFORNIA, Sierra, CA03, -120.048, 39.562, 5976, 36.8, M
DORRIS RANCH CALIFORNIA, Nevada, CA02, -121.117, 39.304, 2025, 50.4, M
DOYLE CALIFORNIA, Lassen, CA03, -120.106, 40.022, 4240, 40.6, M
DEVILS POST PILE CALIFORNIA, Madera, CA05, -119.093, 37.630, 7560, 31.8, M
DUNCAN CALIFORNIA, Placer, CA02, -120.509, 39.144, 7100, 36.1, M
DEL VALLE CALIFORNIA, Los Angeles, CA06, -118.683, 34.431, 1278, 57.2, M
DEVORE CALIFORNIA, San Bernardino, CA06, -117.404, 34.221, 2057, 56.4, M
EAGLE PEAK CALIFORNIA, Tehama, CA02, -122.657, 39.928, 3713, 45.6, M
EEL RIVER CAMP CALIFORNIA, Humboldt, CA01, -123.824, 40.138, 446, 49.1, M
EEL RIVER CALIFORNIA, Mendocino, CA01, -123.083, 39.833, 1500, 49.5, M
EL CARISO CALIFORNIA, Riverside, CA06, -117.411, 33.647, 3038, 55.4, M
MOUNT ELIZABETH CALIFORNIA, Tuolumne, CA05, -120.247, 38.063, 4933, 42.8, M
EL MIRAGE CALIFORNIA, San Bernardino, CA07, -117.550, 34.634, 2880, 51.1, M
FANCHER CREEK CALIFORNIA, Fresno, CA05, -119.466, 36.884, 920, 56.5, M
FAWNSKIN CALIFORNIA, San Bernardino, CA06, -116.899, 34.266, 6900, 37.0, M
FENCE MEADOW CALIFORNIA, Fresno, CA05, -119.175, 36.961, 5048, 42.6, M
FORT HUNTER LIGGET CALIFORNIA, Monterey, CA04, -121.242, 36.012, 1100, 52.1, M
FISH CREEK MTN CALIFORNIA, Imperial, CA07, -116.067, 32.990, 760, 66.9, M
FIVE MILE CALIFORNIA, Inyo, CA07, -117.918, 35.872, 4150, 53.4, M
FORT ORD #1 CALIFORNIA, Monterey, CA04, -121.798, 36.627, 460, 47.7, M
FORT ORD #2 CALIFORNIA, Monterey, CA04, -121.786, 36.627, 490, 51.8, M
FORESTHILL CALIFORNIA, Placer, CA02, -120.732, 39.091, 4355, 45.1, M
FOUNTAIN SPRINGS CALIFORNIA, Tulare, CA05, -118.915, 35.892, 210, 53.4, M
FREMONT CANYON CALIFORNIA, Orange, CA06, -117.711, 33.808, 1781, 57.9, M
FRIEND MOUNTAIN CALIFORNIA, Trinity, CA01, -123.342, 40.505, 4000, 40.1, M
FISH SLOUGH CALIFORNIA, Mono, CA07, -118.408, 37.478, 4500, 43.8, M
GASQUET CALIFORNIA, Del Norte, CA01, -123.979, 41.846, 500, 48.7, M
GRASSHOPPER CALIFORNIA, Lassen, CA03, -120.784, 40.782, 6158, 32.6, M
GOOSE VALLEY CALIFORNIA, San Diego, CA06, -116.846, 33.074, 1530, 52.7, M
GRANITE MOUNTAIN CALIFORNIA, San Bernardino, CA07, -117.026, 34.536, 4720, 48.7, M
GREEN SPRING CALIFORNIA, Tuolumne, CA05, -120.500, 37.833, 1020, 53.2, M
HASTINGS CALIFORNIA, Monterey, CA04, -121.552, 36.389, 1885, 49.6, M
HAWKEYE CALIFORNIA, Sonoma, CA01, -122.917, 38.782, 2000, 51.6, M
HAYFORK CALIFORNIA, Trinity, CA01, -123.165, 40.550, 2323, 44.4, M
HELL HOLE CALIFORNIA, Placer, CA02, -120.422, 39.072, 5240, 41.3, M
HERNANDEZ CALIFORNIA, San Benito, CA04, -120.856, 36.383, 3733, 47.6, M
HIGH SIERRA CALIFORNIA, Fresno, CA05, -119.038, 37.315, 7403, 33.6, M
HOPLAND CALIFORNIA, Mendocino, CA01, -123.081, 39.031, 2682, 48.3, M
HUNTER MOUNTAIN CALIFORNIA, Inyo, CA07, -117.474, 36.563, 6880, 39.1, M
HORSE LAKE CALIFORNIA, Lassen, CA03, -120.503, 40.631, 5100, 35.6, M
HOOPA CALIFORNIA, Humboldt, CA01, -123.671, 41.048, 375, 50.0, M
HORSE THIEF SPRINGS CALIFORNIA, San Bernardino, CA07, -115.909, 35.771, 5000, 47.9, M
HURLEY CALIFORNIA, Fresno, CA05, -119.568, 37.015, 1201, 50.0, M
PARADISE, Butte, CA02, -121.624, 39.754, 1750, 50.7, 5.79
COVELO, Mendocino, CA01, -123.244, 39.816, 1413, 48.0, 2.73
VINTON, Plumas, CA02, -120.186, 39.806, 4950, M, 1.12
PORTOLA, Plumas, CA02, -120.472, 39.805, 4850, 36.4, 2.66
COVELO EEL RIVER RS, Mendocino, CA01, -123.085, 39.826, 1517, M, 3.12
DE SABLA, Butte, CA02, -121.611, 39.872, 2710, 46.8, 6.34
LEGGETT, Mendocino, CA01, -123.720, 39.874, 703, M, 4.64
STANDISH HICKEY ST PK, Mendocino, CA01, -123.727, 39.878, 853, 46.8, 4.97
BUCKS CREEK, Plumas, CA02, -121.315, 39.937, 1891, M, 6.73
DOYLE 4 SSE, Lassen, CA03, -120.083, 39.972, 4390, 41.2, 0.46
DOYLE, Lassen, CA03, -120.105, 40.027, 4293, M, 0.56
RICHARDSON GR ST PK, Humboldt, CA01, -123.793, 40.026, 503, 46.9, 4.98
SHELTER COVE AVIATION, Humboldt, CA01, -124.073, 40.033, 246, 52.5, 5.45
GREENVILLE, Plumas, CA02, -120.950, 40.141, 3590, M, 4.34
CANYON DAM, Plumas, CA02, -121.089, 40.171, 4560, 37.8, 3.44
MIRANDA 4 SE, Humboldt, CA01, -123.776, 40.182, 266, M, 3.40
FORT SEWARD, Humboldt, CA01, -123.632, 40.218, 220, M, 2.24
HONEYDEW 1 SW, Humboldt, CA01, -124.132, 40.238, 373, M, 6.72
CHESTER, Plumas, CA02, -121.242, 40.303, 4530, 36.6, 3.15
MINERAL, Tehama, CA02, -121.609, 40.346, 4875, 35.6, 4.72
INDIAN WELL CALIFORNIA, Siskiyou, CA01, -121.538, 41.742, 4770, 38.7, M
JOHNSONDALE CALIFORNIA, Tulare, CA05, -118.545, 35.972, 4700, 41.6, M
JORDAN CREEK CALIFORNIA, Butte, CA02, -121.367, 39.783, 4400, 39.9, M
JULIAN CALIFORNIA, San Diego, CA07, -116.591, 33.076, 4240, 47.1, M
JUNIPER CREEK CALIFORNIA, Modoc, CA02, -120.472, 41.332, 4372, 37.8, M
KEENWILD CALIFORNIA, Riverside, CA06, -116.767, 33.667, 4920, 47.3, M
KERNVILLE CALIFORNIA, Kern, CA05, -118.417, 35.755, 2720, 52.2, M
KETTLEMAN HILLS CALIFORNIA, Kings, CA05, -120.057, 36.033, 810, 56.9, M
KNOXVILLE CREEK CALIFORNIA, Lake, CA02, -122.417, 38.862, 2200, 49.2, M
KONOCTI CALIFORNIA, Lake, CA02, -122.706, 38.912, 2163, 50.9, M
LOS BANOS CALIFORNIA, Merced, CA05, -121.053, 37.055, 350, 55.4, M
MT. LAGUNA CALIFORNIA, San Diego, CA07, -116.420, 32.880, 5760, 41.1, M
LA HONDA CALIFORNIA, San Mateo, CA04, -122.255, 37.305, 872, 51.1, M
LA PANZA CALIFORNIA, San Luis Obispo, CA04, -120.187, 35.381, 1630, 48.6, M
LAURAL MOUNTAIN CALIFORNIA, Kern, CA07, -117.699, 35.478, 4390, 50.8, M
LASSEN LODGE CALIFORNIA, Tehama, CA02, -121.714, 40.344, 4159, 43.8, M
LAUFMAN CALIFORNIA, Lassen, CA03, -120.353, 40.142, 5800, 39.5, M
LAYTONVILLE CALIFORNIA, Mendocino, CA01, -123.485, 39.702, 1820, 48.1, M
LADDER BUTTE CALIFORNIA, Lassen, CA02, -121.297, 40.807, 5750, 37.4, M
LEO CARRILLO CALIFORNIA, Los Angeles, CA06, -118.936, 34.046, 50, 57.8, M
LOS GATOS CALIFORNIA, Santa Clara, CA04, -121.943, 37.203, 2000, 52.9, M
LOST HORSE CALIFORNIA, Riverside, CA07, -116.188, 34.018, 4200, 49.0, M
LINCOLN CALIFORNIA, Placer, CA02, -121.268, 38.883, 200, 54.0, M
LOS PRIETOS CALIFORNIA, Santa Barbara, CA06, -119.783, 34.536, 1020, 55.4, M
LAS FLORES CALIFORNIA, San Diego, CA06, -117.439, 33.289, 100, 56.8, M
LAS TABLAS CALIFORNIA, San Luis Obispo, CA04, -120.924, 35.656, 994, 50.1, M
CAMPO ASOS, San Diego, CA07, -116.468, 32.626, 2641, 47.8, 0.82
Burbank Glendale Pasadena Area, -, -, -, -, -, 57.5, T
Camarillo Area, -, -, -, -, -, 54.1, 0.16
Needles Area, -, -, -, -, -, 62.0, 0.02
Oxnard Area, -, -, -, -, -, 54.9, 0.20
Palm Springs Area, -, -, -, -, -, 63.8, 0.04
Riverside Area, -, -, -, -, -, 56.4, 0.21
Ramona Area, -, -, -, -, -, 50.7, 1.22
Northern CA 8 Station Index, -, -, -, -, -, M, 5.79
Crescent City Area, -, -, -, -, -, 46.2, 4.55
Escondido Area, -, -, -, -, -, 56.6, 1.28
Sacramento Downtown Area, -, -, -, -, -, 55.1, 2.85
Tahoe City Area, -, -, -, -, -, 32.5, 4.49
Ukiah Area, -, -, -, -, -, 50.9, 2.13
Alturas Area, -, -, -, -, -, 35.8, 0.48
Mount Shasta Area, -, -, -, -, -, 40.7, 1.86
Palmdale Area, -, -, -, -, -, 51.8, 0.10
Lancaster Area, -, -, -, -, -, 50.8, 0.30
El Cajon Area, -, -, -, -, -, 57.9, 0.31
Hanford Area, -, -, -, -, -, 54.9, 1.01
El Centro Area, -, -, -, -, -, 60.9, T
Madera Area, -, -, -, -, -, 52.9, 1.27
Merced Area, -, -, -, -, -, 51.9, 1.48
San Jose Area, -, -, -, -, -, 54.0, 1.55
BARSTOW-DAGGETT AIRPORT, San Bernardino, CA07, -116.787, 34.854, 1919, 56.5, 0.06
MERCED, Merced, CA05, -120.516, 37.289, 154, 53.6, 1.20
SAN DIEGO MONTGOMERY FIELD, San Diego, CA06, -117.137, 32.815, 418, 56.2, 0.71
SAN DIEGO INTERNATIONAL AP, San Diego, CA06, -117.183, 32.734, 15, 57.6, 0.46
SAN DIEGO MIRAMAR NAS, San Diego, CA06, -117.133, 32.867, 477, 55.2, 0.51
NORTH ISLAND NAS, San Diego, CA06, -117.210, 32.692, 14, 57.6, 0.49
SAN FRANCISCO INTERNATIONAL AP, San Mateo, CA04, -122.366, 37.620, 10, 53.8, 2.13
SAN LUIS OBISPO MCCHESNEY FIELD, San Luis Obispo, CA04, -120.644, 35.238, 183, 51.8, 0.54
BRAWLEY 2 SW, Imperial, CA07, -115.558, 32.954, -100, 62.1, 0.00
CEDARVILLE, Modoc, CA03, -120.179, 41.530, 4688, 37.2, 0.82
CHICO UNIVERSITY FARM, Butte, CA02, -121.821, 39.691, 185, 50.3, 2.78
CHULA VISTA, San Diego, CA06, -117.086, 32.640, 56, 55.9, 0.07
COLFAX, Placer, CA02, -120.947, 39.090, 2373, 48.7, 8.98
CUYAMACA, San Diego, CA06, -116.587, 32.990, 4640, 43.0, 1.82
DAVIS 2 WSW EXP FARM, Yolo, CA02, -121.776, 38.535, 60, 53.7, 1.64
DEATH VALLEY NATIONAL PARK, Inyo, CA07, -116.867, 36.463, -194, 65.4, 0.20
FAIRMONT, Los Angeles, CA07, -118.430, 34.705, 3060, 51.4, 0.70
FORT BRAGG 5 N, Mendocino, CA01, -123.756, 39.510, 123, 46.7, 3.51
HANFORD 1 S, Kings, CA05, -119.637, 36.316, 237, 55.0, 1.04
HAPPY CAMP RANGER STATION, Siskiyou, CA01, -123.375, 41.796, 1142, 46.5, 3.07
HEALDSBURG, Sonoma, CA01, -122.866, 38.629, 177, 52.8, 3.46
INDIO FIRE STATION, Riverside, CA07, -116.215, 33.709, -21, 66.6, 0.00
LAKE SPAULDING, Nevada, CA02, -120.639, 39.318, 5156, 35.0, 10.73
LEMON COVE, Tulare, CA05, -119.026, 36.382, 513, 56.0, 1.33
LIVERMORE, Alameda, CA04, -121.751, 37.682, 529, 53.5, 1.65
LODI, San Joaquin, CA05, -121.288, 38.106, 40, 54.2, 1.78
MARYSVILLE, Yuba, CA02, -121.585, 39.146, 57, 55.1, 3.26
MERCED MUNICIPAL AP, Merced, CA05, -120.518, 37.286, 152, 51.9, 1.48
NAPA STATE HOSPITAL, Napa, CA01, -122.265, 38.278, 35, 53.5, 2.63
OJAI, Ventura, CA06, -119.227, 34.448, 745, 55.8, 0.00
ORLAND, Glenn, CA02, -122.200, 39.746, 254, 52.2, 0.97
ORLEANS, Humboldt, CA01, -123.532, 41.309, 403, 49.1, 3.97
PASADENA, Los Angeles, CA06, -118.145, 34.148, 864, 60.0, 0.43
PASO ROBLES, San Luis Obispo, CA04, -120.685, 35.628, 730, 50.2, 1.40
PETALUMA AIRPORT, Sonoma, CA01, -122.608, 38.258, 20, 51.8, 1.97
QUINCY, Plumas, CA02, -120.947, 39.937, 3420, 42.4, 4.13
REDLANDS, San Bernardino, CA06, -117.195, 34.037, 1410, 57.1, 0.78
SANTA BARBARA, Santa Barbara, CA06, -119.684, 34.417, 16, 56.5, 0.40
SANTA CRUZ, Santa Cruz, CA04, -122.000, 36.988, 70, 52.0, 3.52
SANTA ROSA, Sonoma, CA01, -122.713, 38.456, 166, 53.2, 2.43
TAHOE CITY, Placer, CA03, -120.143, 39.168, 6230, 32.5, 4.49
TUSTIN IRVINE RANCH, Orange, CA06, -117.754, 33.703, 235, 54.2, 0.55
UKIAH, Mendocino, CA01, -123.210, 39.147, 636, 50.9, 2.09
VACAVILLE, Solano, CA02, -121.961, 38.396, 110, 53.9, 2.09
WASCO, Kern, CA05, -119.352, 35.589, 291, 56.7, 0.59
WEAVERVILLE, Trinity, CA01, -122.940, 40.737, 2058, 45.1, 2.16
WILLOWS 6 W, Glenn, CA02, -122.305, 39.523, 234, 52.5, 0.46
YOSEMITE PARK HEADQUARTERS, Mariposa, CA05, -119.590, 37.750, 4018, 41.8, 4.03
YREKA, Siskiyou, CA01, -122.641, 41.703, 2709, 41.8, 0.49
BERKELEY, Alameda, CA04, -122.260, 37.874, 310, 52.8, 4.02
BLYTHE, Riverside, CA07, -114.597, 33.613, 268, 61.7, 0.06
EUREKA WFO WOODLEY ISLAND, Humboldt, CA01, -124.160, 40.810, 20, 46.9, 4.32
INDEPENDENCE, Inyo, CA07, -118.204, 36.798, 3950, 49.0, 0.08
SAN LUIS OBISPO POLY, San Luis Obispo, CA04, -120.662, 35.306, 308, 53.4, 2.14
BURNEY, Shasta, CA02, -121.655, 40.880, 3198, 41.8, 1.68
IMPERIAL BEACH REAM FIELD NAS, San Diego, CA06, -117.117, 32.568, 24, 56.2, 0.01
CAMPO, San Diego, CA06, -116.470, 32.626, 2630, 49.6, 1.12
CALEXICO 2 NE, Imperial, CA07, -115.464, 32.688, 12, M, 0.00
EL CENTRO 2 SSW, Imperial, CA07, -115.562, 32.767, -30, 63.3, 0.01
LA MESA, San Diego, CA06, -117.023, 32.768, 530, 57.7, 0.65
IMPERIAL COUNTY AP, Imperial, CA07, -115.577, 32.835, -55, 60.9, T
EL CENTRO NAF, Imperial, CA07, -115.664, 32.832, -46, 64.4, 0.00
ALPINE, San Diego, CA06, -116.777, 32.836, 1695, 55.6, 1.59
LIVERMORE CALIFORNIA, Alameda, CA04, -121.814, 37.712, 800, 54.0, M
LYONS VALLEY CALIFORNIA, Lake, CA01, -123.074, 39.126, 3200, 46.7, M
LYTLE CREEK CALIFORNIA, San Bernardino, CA06, -117.480, 34.234, 2792, 53.2, M
MAD RIVER CALIFORNIA, Trinity, CA01, -123.524, 40.463, 2775, 43.4, M
MALIBU HILLS CALIFORNIA, Los Angeles, CA06, -118.633, 34.058, 1575, 57.4, M
MANZANITA LAKE CALIFORNIA, Shasta, CA02, -121.580, 40.540, 5660, 35.7, M
MAPLE CREEK CALIFORNIA, Humboldt, CA01, -123.937, 40.796, 1680, 47.0, M
MARIPOSA GROVE CALIFORNIA, Mariposa, CA05, -119.605, 37.513, 6400, 40.1, M
MILL CREEK (BDF) CALIFORNIA, San Bernardino, CA06, -117.035, 34.084, 2950, 54.5, M
MCGUIRES CALIFORNIA, Mendocino, CA01, -123.601, 39.353, 593, 49.5, M
MEANS LAKE CALIFORNIA, San Bernardino, CA07, -116.517, 34.391, 2900, 54.0, M
METCALF GAP CALIFORNIA, Madera, CA05, -119.768, 37.409, 3077, 51.0, M
MEYERS CALIFORNIA, El Dorado, CA03, -120.018, 38.849, 6310, 33.4, M
MID HILLS CALIFORNIA, San Bernardino, CA07, -115.411, 35.123, 5413, 43.9, M
MILL CREEK (ANF) CALIFORNIA, Los Angeles, CA06, -118.082, 34.390, 5021, 46.6, M
MILO CALIFORNIA, Tulare, CA05, -118.869, 36.231, 1923, 51.5, M
MALLORY RIDGE CALIFORNIA, Contra Costa, CA05, -121.779, 37.817, 2040, 49.6, M
MONTECITO CALIFORNIA, Santa Barbara, CA06, -119.648, 34.461, 1500, 56.6, M
MOJAVE RIVER SINK CALIFORNIA, San Bernardino, CA07, -116.079, 35.053, 950, 58.1, M
MORMON ROCK CALIFORNIA, San Bernardino, CA06, -117.502, 34.318, 3300, 49.9, M
MOUNTAIN REST CALIFORNIA, Fresno, CA05, -119.371, 37.054, 4100, 47.6, M
MARKLEEVILLE CALIFORNIA, Alpine, CA03, -119.767, 38.683, 5501, 37.8, M
MT. SHASTA CALIFORNIA, Siskiyou, CA02, -122.316, 41.316, -, 41.9, M
MARIPOSA CALIFORNIA, Mariposa, CA05, -119.987, 37.504, 2231, 49.5, M
MT. DIABLO CALIFORNIA, Contra Costa, CA05, -121.914, 37.882, 3849, 42.7, M
MOUNT ZION CALIFORNIA, Amador, CA05, -120.651, 38.389, 2960, 52.9, M
NORTH FORK CALIFORNIA, Madera, CA05, -119.505, 37.233, 2720, 47.6, M
OAK BOTTOM CALIFORNIA, Shasta, CA02, -122.606, 40.651, 1326, 51.1, M
OAK KNOLL CALIFORNIA, Siskiyou, CA01, -122.850, 41.839, 1940, 44.8, M
OAK CREEK CALIFORNIA, Inyo, CA07, -118.259, 36.843, 4855, 49.0, M
OJAI CALIFORNIA, Ventura, CA06, -119.230, 34.448, 765, 52.2, M
OAK GROVE CALIFORNIA, San Diego, CA06, -116.795, 33.393, 2752, 53.5, M
OAKLAND NORTH CALIFORNIA, Contra Costa, CA04, -122.221, 37.865, 1403, 51.7, M
OAK OPENING CALIFORNIA, Tulare, CA05, -118.702, 36.175, 3240, 50.0, M
OAKLAND SOUTH CALIFORNIA, Alameda, CA04, -122.145, 37.786, 1095, 52.4, M
OPAL MOUNTAIN CALIFORNIA, San Bernardino, CA07, -117.176, 35.154, 3240, 53.6, M
OWENS CAMP LOC CALIFORNIA, El Dorado, CA02, -120.245, 38.733, 5240, 47.5, M
OWENS VALLEY CALIFORNIA, Inyo, CA07, -118.551, 37.390, 4640, 47.6, M
OZENA CALIFORNIA, Ventura, CA06, -119.354, 34.682, 3670, 48.7, M
PANAMINT CALIFORNIA, Inyo, CA07, -117.088, 36.120, 6880, 42.8, M
PARKFIELD CALIFORNIA, Monterey, CA04, -120.432, 35.899, 1535, 50.7, M
PATTY MOCUS CALIFORNIA, Tehama, CA02, -122.867, 40.295, 3500, 44.8, M
PINE HILLS CALIFORNIA, San Diego, CA06, -116.634, 33.016, -, 48.2, M
PIERCE CALIFORNIA, Plumas, CA02, -120.642, 40.246, 5700, 37.6, M
PINEHURST CALIFORNIA, Fresno, CA05, -119.000, 36.685, 4060, 46.0, M
PIKE COUNTY LOOKOUT CALIFORNIA, Yuba, CA02, -121.202, 39.475, 3714, 47.2, M
PILOT HILL CALIFORNIA, El Dorado, CA02, -121.009, 38.833, 1200, 49.6, M
PIRU CALIFORNIA, Ventura, CA06, -118.810, 34.404, 614, 53.6, M
PARK RIDGE CALIFORNIA, Tulare, CA05, -118.942, 36.724, 7540, 38.5, M
PINNACLES CALIFORNIA, San Benito, CA04, -121.147, 36.471, 1322, 52.5, M
POPPY PARK CALIFORNIA, Los Angeles, CA07, -118.383, 34.733, 2760, 52.4, M
POTRERO CALIFORNIA, San Diego, CA06, -116.609, 32.606, 2345, 53.9, M
PULGAS CALIFORNIA, San Mateo, CA04, -122.298, 37.475, 644, 53.7, M
QUINCY RD CALIFORNIA, Plumas, CA02, -120.942, 39.973, 3500, 43.4, M
RAVENDALE CALIFORNIA, Lassen, CA03, -120.316, 40.731, 5298, 35.7, M
RANCHITA CALIFORNIA, San Diego, CA07, -116.497, 33.222, 4415, 47.5, M
REDDING AIRPORT CALIFORNIA, Shasta, CA02, -122.291, 40.516, 500, 53.6, M
RICE VALLEY CALIFORNIA, Riverside, CA07, -114.732, 34.061, 820, 60.7, M
ROCK CREEK, Mono, CA07, -118.667, 37.551, 7040, 40.6, M
RODEO VALLEY, Mendocino, CA01, -123.321, 39.668, 2428, 46.9, M
ROSE VALLEY CALIFORNIA, Ventura, CA06, -119.184, 34.543, 3331, 44.1, M
SANTA ROSA ISLAND CALIFORNIA, Santa Barbara, CA06, -120.078, 33.978, 1298, 49.5, M
SANTA ROSA PLATEAU CALIFORNIA, Riverside, CA06, -117.231, 33.529, 1980, 55.3, M
SANTA ROSA CALIFORNIA, Sonoma, CA01, -122.712, 38.479, 576, 52.2, M
STAMPEDE CALIFORNIA, Sierra, CA03, -120.075, 39.483, 6867, 35.5, M
STONYFORD CALIFORNIA, Colusa, CA02, -122.575, 39.367, 1200, 50.0, M
SUGARLOAF (SHF) CALIFORNIA, Shasta, CA02, -122.438, 40.917, 4200, 45.7, M
SPRING VALLEY CALIFORNIA, San Mateo, CA04, -122.436, 37.563, 1075, 51.5, M
TALEGA CALIFORNIA, San Diego, CA06, -117.486, 33.478, 1203, 58.1, M
TANBARK CALIFORNIA, Los Angeles, CA06, -117.761, 34.207, 2600, 53.8, M
TARGET RANGE CALIFORNIA, San Diego, CA06, -117.359, 33.372, 918, 56.8, M
TEMESCAL (LPF) CALIFORNIA, Ventura, CA06, -118.756, 34.481, 1140, 54.6, M
THOMES CREEK CALIFORNIA, Tehama, CA02, -122.610, 39.864, 1040, 54.4, M
TEMESCAL (CNF) CALIFORNIA, Riverside, CA06, -117.483, 33.763, 1125, 57.8, M
MOUNT TOM CALIFORNIA, Fresno, CA05, -119.178, 37.376, 9018, 31.1, M
LAS TRAMPAS CALIFORNIA, Contra Costa, CA04, -122.067, 37.834, 1760, 51.3, M
TRINITY CAMP CALIFORNIA, Trinity, CA01, -122.804, 40.786, 3308, 45.3, M
TRIMMER CALIFORNIA, Fresno, CA05, -119.305, 36.911, 1540, 51.6, M
GAYLOR MEADOW CALIFORNIA, Tuolumne, CA05, -119.318, 37.868, 9270, 26.3, M
UHL / HOT SPRINGS, Tulare, CA05, -118.633, 35.889, 3720, 47.1, M
VALLEY CENTER CALIFORNIA, San Diego, CA06, -117.009, 33.237, 1483, 54.4, M
VAN BREMMER CALIFORNIA, Siskiyou, CA01, -121.794, 41.643, 4928, 38.0, M
VANDENBERG CALIFORNIA, Santa Barbara, CA06, -120.486, 34.759, 1050, 53.2, M
WALKER CALIFORNIA, Mono, CA03, -119.459, 38.565, 5440, 41.8, M
WALKER PASS CALIFORNIA, Kern, CA05, -118.057, 35.665, 5572, 46.0, M
WARM SPRINGS CALIFORNIA, Los Angeles, CA06, -118.579, 34.596, 4930, 50.7, M
WEAVERVILLE CALIFORNIA, Trinity, CA01, -122.943, 40.735, 2100, 46.0, M
WEED AIRPORT CALIFORNIA, Siskiyou, CA01, -122.454, 41.479, 2930, 42.8, M
WESTWOOD CALIFORNIA, Lassen, CA02, -120.900, 40.307, 5800, 35.1, M
WHITE CLOUD CALIFORNIA, Nevada, CA02, -120.837, 39.317, 4320, 45.3, M
WHITTIER HILLS CALIFORNIA, Los Angeles, CA06, -118.010, 33.984, 950, 59.1, M
WHITMORE CALIFORNIA, Shasta, CA02, -121.899, 40.619, 2417, 48.3, M
WOFFORD HEIGHTS CALIFORNIA, Kern, CA05, -118.499, 35.722, 3150, 49.8, M
WOLVERTON CALIFORNIA, Tulare, CA05, -118.703, 36.445, 5240, 45.8, M
WHITAKER PEAK CALIFORNIA, Los Angeles, CA06, -118.740, 34.569, 4120, 51.0, M
YOLLA BOLLA CALIFORNIA, Trinity, CA01, -123.066, 40.338, 4524, 41.3, M
YUCCA VALLEY CALIFORNIA, San Bernardino, CA07, -116.408, 34.123, 3260, 51.5, M
HAGAN'S MEADOW, El Dorado, CA03, -119.940, 38.850, 7776, 32.5, 3.80
BLUE LAKES, Alpine, CA05, -119.920, 38.610, 8057, 26.3, 6.00
POISON FLAT, Alpine, CA03, -119.630, 38.510, 7736, 28.9, 4.40
SONORA PASS, Mono, CA03, -119.600, 38.310, 8827, 26.6, 4.80
LEAVITT MEADOWS, Mono, CA03, -119.550, 38.300, 7198, 32.2, 3.10
VIRGINIA LAKES RIDGE, Mono, CA03, -119.230, 38.070, 9445, 27.5, 2.60
LOBDELL LAKE, Mono, CA03, -119.370, 38.440, 9233, 25.3, 3.00
EBBETTS PASS, Alpine, CA03, -119.800, 38.550, 8765, 30.9, 8.00
HEAVENLY VALLEY, El Dorado, CA03, -119.920, 38.920, 8582, 28.3, 4.40
LEAVITT LAKE, Mono, CA03, -119.610, 38.280, 9617, 24.2, 7.00
SPRATT CREEK, Alpine, CA03, -119.820, 38.670, 6115, 35.4, 4.20
MONITOR PASS, Alpine, CA03, -119.610, 38.670, 8310, 30.5, 2.60
CROWDER FLAT, Modoc, CA01, -120.750, 41.890, 5170, 34.1, 2.00
CEDAR PASS, Modoc, CA02, -120.300, 41.580, 7030, 30.2, 3.70
DISMAL SWAMP, Modoc, CA03, -120.180, 41.990, 7360, 27.0, 5.80
ADIN MTN, Modoc, CA02, -120.790, 41.240, 6190, 29.5, 3.20
INDEPENDENCE CREEK, Sierra, CA03, -120.280, 39.490, 6456, 32.0, 3.80
INDEPENDENCE CAMP, Sierra, CA03, -120.290, 39.450, 7003, 30.7, 4.90
INDEPENDENCE LAKE, Nevada, CA03, -120.310, 39.430, 8352, 29.0, 6.90
TRUCKEE #2, Placer, CA03, -120.180, 39.300, 6509, 35.2, 4.70
WARD CREEK #3, Placer, CA03, -120.220, 39.140, 6655, 32.2, 10.00
TAHOE CITY CROSS, Placer, CA03, -120.150, 39.170, 6797, 33.8, 4.40
SQUAW VALLEY G.C., Placer, CA03, -120.260, 39.190, 8029, 31.1, 10.20
CSS LAB, Nevada, CA02, -120.370, 39.330, 6855, 31.0, 10.50
RUBICON #2, El Dorado, CA03, -120.130, 39.000, 7689, 32.9, 5.40
ECHO PEAK, El Dorado, CA03, -120.080, 38.850, 7670, 32.9, 8.10
FALLEN LEAF, El Dorado, CA03, -120.050, 38.930, 6236, 32.9, 3.30
BEAR VALLEY F.D., Kern, CA01, -118.644, 35.166, 4100, 37.6, 2.33
ROUND MOUNTAIN, Siskiyou, CA02, -121.464, 41.427, 5258, 36.6, M
ROSE PEAK CALIFORNIA, Alameda, CA04, -121.735, 37.502, 3060, 45.7, M
RUSH CREEK CALIFORNIA, Modoc, CA02, -120.864, 41.294, 4800, 36.7, M
SACRAMENTO NWR CALIFORNIA, Glenn, CA02, -122.182, 39.417, 120, 54.0, M
SADDLEBACK BUTTE CALIFORNIA, Los Angeles, CA07, -117.821, 34.685, 2590, 51.1, M
SAUGUS CALIFORNIA, Los Angeles, CA06, -118.525, 34.425, 1450, 56.3, M
SAWYERS BAR CALIFORNIA, Siskiyou, CA01, -123.132, 41.300, 2192, 47.7, M
SANTA CRUZ ISLAND CALIFORNIA, Santa Barbara, CA06, -119.722, 33.996, 250, 51.9, M
SCORPION CALIFORNIA, Trinity, CA01, -122.697, 41.112, 4400, 44.2, M
SODA CREEK CALIFORNIA, Lake, CA01, -122.977, 39.425, 1773, 46.8, M
SADDLEBACK CALIFORNIA, Sierra, CA02, -120.865, 39.638, 6670, 36.1, M
SECRET TOWN CALIFORNIA, Nevada, CA02, -120.885, 39.184, 2826, 48.8, M
SHAVER CALIFORNIA, Fresno, CA05, -119.256, 37.135, 5746, 37.8, M
SCHOOL HOUSE CALIFORNIA, Humboldt, CA01, -123.906, 41.138, 2640, 49.7, M
SHIP MTN. CALIFORNIA, Del Norte, CA01, -123.792, 41.736, 5300, 36.5, M
SHADEQUARTER CALIFORNIA, Tulare, CA05, -118.956, 36.567, 4069, 46.3, M
SIMI VALLEY CALIFORNIA, Ventura, CA06, -118.814, 34.291, 914, 55.2, M
SAN MIGUEL CALIFORNIA, San Diego, CA06, -116.974, 32.685, 425, 58.7, M
SAN LUIS NWR CALIFORNIA, Merced, CA05, -120.794, 37.182, 65, 54.4, M
SANTA RITA CALIFORNIA, San Benito, CA05, -120.598, 36.348, 5000, 46.6, M
SOLDIER MOUNTAIN CALIFORNIA, Shasta, CA02, -121.586, 40.926, 3710, 44.3, M
SQUAW SPRINGS CALIFORNIA, San Bernardino, CA07, -117.568, 35.370, 3620, 53.4, M
SQUAW LAKE CALIFORNIA, Imperial, CA07, -114.494, 32.908, 300, 64.9, M