Name, County, ClimateDivision, Longitude, Latitude, Elevation, MeanAvgTemperature, TotalPrecipitation
IMPERIAL, Imperial, CA07, -115.567, 32.849, -64, 62.7, 0.36
POWAY VALLEY, San Diego, CA06, -117.031, 33.020, 648, 50.4, 1.13
JULIAN CDF, San Diego, CA06, -116.592, 33.076, 4215, M, 4.36
RAMONA FIRE DEPT, San Diego, CA06, -116.908, 33.011, 1470, 49.7, 3.72
SAN PASQUAL ANIMAL PK, San Diego, CA06, -116.997, 33.096, 420, 53.8, 3.38
CARLSBAD MCCLELLAN PALOMAR AP, San Diego, CA06, -117.277, 33.130, 313, 54.1, 2.15
HENSHAW DAM, San Diego, CA06, -116.761, 33.237, 2700, 44.9, 7.83
VISTA, San Diego, CA06, -117.232, 33.235, 430, 52.9, 2.48
OCEANSIDE MARINA, San Diego, CA06, -117.395, 33.210, 10, 51.5, 0.98
NILAND, Imperial, CA07, -115.524, 33.278, -60, M, 0.21
BORREGO DESERT PARK, San Diego, CA07, -116.404, 33.256, 810, 58.5, 1.78
OAK GROVE RS, San Diego, CA06, -116.792, 33.386, 2750, M, 2.85
PALOMAR MTN OBSERVATORY, San Diego, CA06, -116.840, 33.378, 5550, 39.3, 7.02
TEMECULA, Riverside, CA06, -117.151, 33.497, 1020, 52.7, 1.27
MECCA FIRE STATION, Riverside, CA07, -116.073, 33.570, -183, 63.3, 0.01
LAGUNA BEACH, Orange, CA06, -117.781, 33.545, 44, 55.4, 1.89
BLYTHE ASOS, Riverside, CA07, -114.715, 33.619, 395, 59.8, 0.25
DESERT RESORTS REGIONAL AP, Riverside, CA07, -116.164, 33.632, -118, 60.2, 0.18
BARSTOW-DAGGETT AIRPORT, San Bernardino, CA07, -116.787, 34.854, 1919, 53.7, 0.23
MERCED, Merced, CA05, -120.516, 37.289, 154, 50.0, 4.20
SAN DIEGO MONTGOMERY FIELD, San Diego, CA06, -117.137, 32.815, 418, 54.1, 2.42
SAN DIEGO INTERNATIONAL AP, San Diego, CA06, -117.183, 32.734, 15, 57.2, 1.36
SAN DIEGO MIRAMAR NAS, San Diego, CA06, -117.133, 32.867, 477, 53.0, 1.35
NORTH ISLAND NAS, San Diego, CA06, -117.210, 32.692, 14, 54.8, 0.89
SAN FRANCISCO INTERNATIONAL AP, San Mateo, CA04, -122.366, 37.620, 10, 51.0, 6.13
SAN LUIS OBISPO MCCHESNEY FIELD, San Luis Obispo, CA04, -120.644, 35.238, 183, 49.0, 5.75
BRAWLEY 2 SW, Imperial, CA07, -115.558, 32.954, -100, 61.3, 0.40
CEDARVILLE, Modoc, CA03, -120.179, 41.530, 4688, 34.4, 1.43
CHICO UNIVERSITY FARM, Butte, CA02, -121.821, 39.691, 185, 49.2, 3.34
CHULA VISTA, San Diego, CA06, -117.086, 32.640, 56, 55.4, 1.47
COLFAX, Placer, CA02, -120.947, 39.090, 2373, 38.3, 10.24
DAVIS 2 WSW EXP FARM, Yolo, CA02, -121.776, 38.535, 60, 49.6, 5.45
DEATH VALLEY NATIONAL PARK, Inyo, CA07, -116.867, 36.463, -194, 64.2, 0.24
FAIRMONT, Los Angeles, CA07, -118.430, 34.705, 3060, 44.1, 3.82
FORT BRAGG 5 N, Mendocino, CA01, -123.756, 39.510, 123, 45.7, 12.64
HANFORD 1 S, Kings, CA05, -119.637, 36.316, 237, 49.0, 2.72
HAPPY CAMP RANGER STATION, Siskiyou, CA01, -123.375, 41.796, 1142, 43.9, 6.42
HEALDSBURG, Sonoma, CA01, -122.866, 38.629, 177, 49.7, 13.24
INDIO FIRE STATION, Riverside, CA07, -116.215, 33.709, -21, 62.3, 0.00
LEMON COVE, Tulare, CA05, -119.026, 36.382, 513, 51.0, 4.56
LIVERMORE, Alameda, CA04, -121.751, 37.682, 529, 50.4, 4.79
LODI, San Joaquin, CA05, -121.288, 38.106, 40, 51.2, 3.95
MARYSVILLE, Yuba, CA02, -121.585, 39.146, 57, 51.7, 5.69
MERCED MUNICIPAL AP, Merced, CA05, -120.518, 37.286, 152, 48.7, 3.37
NAPA STATE HOSPITAL, Napa, CA01, -122.265, 38.278, 35, 50.0, 8.41
OJAI, Ventura, CA06, -119.227, 34.448, 745, 48.4, 4.84
ORLAND, Glenn, CA02, -122.200, 39.746, 254, 48.7, 5.69
ORLEANS, Humboldt, CA01, -123.532, 41.309, 403, 46.7, 8.48
PASADENA, Los Angeles, CA06, -118.145, 34.148, 864, 55.3, 2.22
PASO ROBLES, San Luis Obispo, CA04, -120.685, 35.628, 730, 47.0, 4.50
PETALUMA AIRPORT, Sonoma, CA01, -122.608, 38.258, 20, 48.9, 8.08
QUINCY, Plumas, CA02, -120.947, 39.937, 3420, 37.7, 10.08
SANTA BARBARA, Santa Barbara, CA06, -119.684, 34.417, 16, 53.7, 4.01
SANTA CRUZ, Santa Cruz, CA04, -122.000, 36.988, 70, 49.9, 10.99
SANTA ROSA, Sonoma, CA01, -122.713, 38.456, 166, 48.5, 9.97
TAHOE CITY, Placer, CA03, -120.143, 39.168, 6230, 28.1, 6.43
UKIAH, Mendocino, CA01, -123.210, 39.147, 636, 46.0, 11.08
VACAVILLE, Solano, CA02, -121.961, 38.396, 110, 49.9, 7.60
WASCO, Kern, CA05, -119.352, 35.589, 291, 50.3, 2.30
WEAVERVILLE, Trinity, CA01, -122.940, 40.737, 2058, 40.8, 8.13
WILLOWS 6 W, Glenn, CA02, -122.305, 39.523, 234, 47.8, 6.63
YOSEMITE PARK HEADQUARTERS, Mariposa, CA05, -119.590, 37.750, 4018, 35.5, 8.90
YREKA, Siskiyou, CA01, -122.641, 41.703, 2709, 38.4, 1.24
BERKELEY, Alameda, CA04, -122.260, 37.874, 310, 50.6, 9.42
BLYTHE, Riverside, CA07, -114.597, 33.613, 268, 62.1, 0.00
EUREKA WFO WOODLEY ISLAND, Humboldt, CA01, -124.160, 40.810, 20, 47.3, 11.11
INDEPENDENCE, Inyo, CA07, -118.204, 36.798, 3950, 44.5, 0.13
SAN LUIS OBISPO POLY, San Luis Obispo, CA04, -120.662, 35.306, 308, 49.7, 4.59
BURNEY, Shasta, CA02, -121.655, 40.880, 3198, 34.8, 7.25
CALEXICO 2 NE, Imperial, CA07, -115.464, 32.688, 12, M, 0.20
EL CENTRO 2 SSW, Imperial, CA07, -115.562, 32.767, -30, 61.8, 0.38
LA MESA, San Diego, CA06, -117.023, 32.768, 530, 54.8, 0.07
IMPERIAL COUNTY AP, Imperial, CA07, -115.577, 32.835, -55, 61.3, 0.36
EL CENTRO NAF, Imperial, CA07, -115.664, 32.832, -46, 62.0, 0.36
ALPINE, San Diego, CA06, -116.777, 32.836, 1695, 52.1, 0.52
CULVER CITY, Los Angeles, CA06, -118.414, 34.005, 92, 54.4, 2.09
SANTA MONICA MUNICIPAL AP, Los Angeles, CA06, -118.447, 34.021, 175, 55.0, 2.76
SANTA MONICA PIER, Los Angeles, CA06, -118.500, 34.008, 14, 53.4, 0.46
ONTARIO INTL AP, San Bernardino, CA06, -117.577, 34.053, 924, 53.7, 3.28
POMONA/FAIRPLEX, Los Angeles, CA06, -117.766, 34.082, 999, 52.7, 4.67
COVINA CITY YARD FC387B, Los Angeles, CA06, -117.880, 34.092, 607, M, 2.74
U C L A, Los Angeles, CA06, -118.443, 34.070, 430, 54.1, 3.63
TOPANGA PATROL FC-6, Los Angeles, CA06, -118.599, 34.084, 745, M, 1.94
IRON MOUNTAIN, San Bernardino, CA07, -115.122, 34.147, 922, 60.5, 0.10
TWENTYNINE PALMS, San Bernardino, CA07, -116.037, 34.128, 1975, 53.4, 0.04
SAN DIMAS FIRE FC 95, Los Angeles, CA06, -117.802, 34.105, 958, M, 1.25
GLENDORA FC 287B, Los Angeles, CA06, -117.847, 34.147, 933, M, 5.41
SAN GABRIEL FIRE DEPT, Los Angeles, CA06, -118.100, 34.084, 363, 54.4, 1.62
POINT MUGU NF, Ventura, CA06, -119.123, 34.124, 12, 50.7, 3.20
ALTADENA, Los Angeles, CA06, -118.138, 34.182, 1127, M, 4.98
SAN GABRIEL CANYON PH, Los Angeles, CA06, -117.908, 34.155, 744, M, 5.93
WOODLAND HILLS PIERCE COLLEGE, Los Angeles, CA06, -118.574, 34.182, 790, 52.5, 3.77
LYTLE CREEK R S, San Bernardino, CA06, -117.471, 34.238, 2730, M, 6.38
MT WILSON CBS, Los Angeles, CA06, -118.071, 34.231, 5710, 39.0, 2.67
LA CRESCENTA FC251 C, Los Angeles, CA06, -118.238, 34.222, 1545, M, 5.37
VAN NUYS AP, Los Angeles, CA06, -118.491, 34.212, 785, 52.1, 3.67
CAMARILLO AP, Ventura, CA06, -119.088, 34.211, 71, 50.6, 2.84
OXNARD VENTURA COUNTY AP, Ventura, CA06, -119.204, 34.200, 39, 51.5, 3.54
PARKER RESRVOIR, San Bernardino, CA07, -114.171, 34.290, 738, 61.6, 0.66
TWENTYNINE PALMS MC, San Bernardino, CA07, -116.147, 34.294, 2003, 53.5, T
BIG BEAR LAKE, San Bernardino, CA06, -116.917, 34.243, 6753, 32.7, 4.67
LAKE ARROWHEAD, San Bernardino, CA07, -117.188, 34.247, 5205, 32.8, 7.71
CHATSWORTH FC 24 F, Los Angeles, CA06, -118.600, 34.250, 950, M, 3.16
VENTURA, Ventura, CA06, -119.292, 34.283, 105, M, 3.82
BIG TUJUNGA DAM FC46, Los Angeles, CA06, -118.188, 34.295, 2326, M, 6.91
PACOIMA DAM FC33A-E, Los Angeles, CA06, -118.400, 34.329, 1550, M, 4.34
SANTA PAULA, Ventura, CA06, -119.133, 34.312, 237, 52.5, 1.19
SANTA BARBARA MUNI AP, Santa Barbara, CA06, -119.842, 34.424, 8, 50.9, 3.86
JUNCAL DAM, Santa Barbara, CA06, -119.507, 34.491, 2260, M, 5.64
VICTORVILLE, San Bernardino, CA07, -117.293, 34.529, 2880, 48.7, 0.83
ACTON ESCONDIDO FC261, Los Angeles, CA06, -118.271, 34.494, 2833, M, 2.69
GIBRALTAR DAM NO. 2, Santa Barbara, CA06, -119.682, 34.523, 1558, M, 5.22
PALMDALE, Los Angeles, CA07, -118.094, 34.588, 2612, 49.0, 1.53
SAUGUS POWER PLANT 1, Los Angeles, CA06, -118.454, 34.590, 2161, M, 4.93
CACHUMA LAKE, Santa Barbara, CA06, -119.982, 34.582, 789, 49.3, 0.78
SALSIPUEDES GAGING STATION, Santa Barbara, CA06, -120.408, 34.585, 254, M, 3.35
EL MIRAGE, San Bernardino, CA07, -117.630, 34.589, 2950, 45.4, 0.72
PALMDALE AP, Los Angeles, CA07, -118.083, 34.629, 2509, 47.1, 1.02
LOMPOC, Santa Barbara, CA06, -120.451, 34.654, 75, 51.7, 3.68
LANCASTER, Los Angeles, CA06, -118.213, 34.741, 2338, 47.8, 1.02
SANDBERG, Los Angeles, CA06, -118.724, 34.744, 4510, 39.3, 2.74
LOS ALAMOS, Santa Barbara, CA06, -120.280, 34.746, 565, 46.6, 2.11
LEBEC, Kern, CA05, -118.865, 34.833, 3575, 43.0, 3.56
CHUCHUPATE RANGER STN, Ventura, CA05, -119.011, 34.808, 5260, 36.4, 3.50
GAREY SISQUOC RIVER, Santa Barbara, CA06, -120.305, 34.894, 355, M, 3.16
MITCHELL CAVERNS, San Bernardino, CA07, -115.547, 34.944, 4350, 46.1, T
NEW CUYAMA FIRE STATION, Santa Barbara, CA06, -119.683, 34.946, 2160, 45.0, 0.41
TWITCHELL DAM, Santa Barbara, CA06, -120.321, 34.988, 582, 50.0, 5.24
MOJAVE, Kern, CA07, -118.162, 35.049, 2735, 46.6, T
PISMO BEACH, San Luis Obispo, CA04, -120.683, 35.160, 39, 49.8, 2.80
TAFT, Kern, CA05, -119.430, 35.150, 773, 52.6, 0.91
BAKER, San Bernardino, CA07, -116.063, 35.276, 962, 55.4, 0.13
GOLDSTONE ECHO NO 2, San Bernardino, CA07, -116.784, 35.281, 2950, M, 0.26
SALINAS DAM, San Luis Obispo, CA04, -120.504, 35.337, 1392, M, 5.91
RANDSBURG, Kern, CA07, -117.652, 35.369, 3570, 46.4, 1.40
SANTA MARGARITA BOOST, San Luis Obispo, CA04, -120.637, 35.374, 1148, M, 8.53
MORRO BAY FIRE DEPT, San Luis Obispo, CA04, -120.845, 35.367, 118, 49.2, 4.58
BAKERSFIELD AP, Kern, CA05, -119.055, 35.434, 490, 52.4, 1.91
BUTTONWILLOW, Kern, CA05, -119.470, 35.403, 225, 51.2, 1.88
MOUNTAIN PASS, San Bernardino, CA07, -115.544, 35.470, 4730, 42.4, 1.13
GLENNVILLE, Kern, CA05, -118.701, 35.727, 3140, 40.6, 6.76
TRONA, San Bernardino, CA07, -117.391, 35.764, 1695, 53.3, 0.50
KERN RIVER PH 3, Kern, CA05, -118.439, 35.783, 2703, 44.8, 3.36
DELANO, Kern, CA05, -119.260, 35.768, 302, 51.2, 2.29
BRADLEY TELEMETERING, Monterey, CA04, -120.868, 35.930, 443, M, 3.00
SHOSHONE, Inyo, CA07, -116.271, 35.972, 1546, M, 0.83
PORTERVILLE MUNICIPAL AIRPORT, Tulare, CA05, -119.062, 36.029, 442, 50.1, 2.24
KETTLEMAN CITY, Kings, CA05, -119.960, 36.007, 240, 50.2, 2.07
HAIWEE, Inyo, CA07, -117.953, 36.139, 3825, 45.6, 0.78
CORCORAN IRRIGATION DIST., Kings, CA05, -119.582, 36.098, 200, 51.0, 2.53
COALINGA, Fresno, CA05, -120.361, 36.136, 670, 50.7, 1.41
PRIEST VALLEY, Monterey, CA04, -120.695, 36.188, 2300, 42.6, 7.17
KING CITY, Monterey, CA04, -121.138, 36.207, 320, 50.1, 3.12
LINDSAY, Tulare, CA05, -119.054, 36.203, 435, 51.4, 3.03
ARROYO SECO RIVER, Monterey, CA04, -121.481, 36.238, 805, M, 1.95
BIG SUR STATION, Monterey, CA04, -121.780, 36.247, 200, 48.7, 11.20
VISALIA, Tulare, CA05, -119.300, 36.328, 303, 51.1, 2.81
FIVE POINTS 5 SSW, Fresno, CA05, -120.156, 36.364, 285, 51.8, 1.08
SAN CLEMENTE DAM, Monterey, CA04, -121.709, 36.438, 600, M, 6.07
ASH MOUNTAIN, Tulare, CA05, -118.825, 36.491, 1708, 46.6, 7.15
THREE RIVERS EDISON PH 1, Tulare, CA05, -118.862, 36.465, 1140, 47.3, 6.24
PINNACLES NATIONAL PARK, San Benito, CA04, -121.182, 36.482, 1307, 43.6, 4.54
CARMEL VALLEY, Monterey, CA04, -121.724, 36.481, 480, 49.0, 5.79
LODGEPOLE, Tulare, CA05, -118.732, 36.604, 6735, 25.3, 11.65
PANOCHE 2 W, San Benito, CA05, -120.884, 36.607, 1400, M, 2.51
MONTEREY, Monterey, CA04, -121.855, 36.593, 122, 49.5, 8.21
SALINAS NO. 2, Monterey, CA04, -121.666, 36.659, 45, 50.9, 5.34
SALINAS AP, Monterey, CA04, -121.609, 36.664, 73, 49.8, 5.02
GRANT GROVE, Tulare, CA05, -118.962, 36.738, 6580, 27.8, 11.87
PAICINES 4 W, San Benito, CA04, -121.349, 36.715, 905, 45.6, 1.69
PINE FLAT DAM, Fresno, CA05, -119.337, 36.821, 615, M, 6.53
LOS BANOS ARBURUA RANCH, Merced, CA05, -120.939, 36.875, 843, M, 1.91
HOLLISTER 2, San Benito, CA04, -121.421, 36.848, 275, 49.3, 3.52
CHITTENDEN PASS, Santa Cruz, CA04, -121.597, 36.900, 82, M, 7.04
BALCH POWER HOUSE, Fresno, CA05, -119.088, 36.909, 1735, 46.2, 7.62
WATSONVILLE WATERWORKS, Santa Cruz, CA04, -121.769, 36.931, 95, 49.6, 8.61
FRIANT GOVERNMENT CAMP, Fresno, CA05, -119.707, 36.997, 410, 49.4, 4.49
MADERA, Madera, CA05, -120.038, 36.954, 270, 48.9, 3.80
WISHON DAM, Fresno, CA05, -118.984, 37.007, 6550, 30.7, 10.67
LOS BANOS DET RESV, Merced, CA05, -120.930, 36.990, 407, 50.9, 2.33
GILROY, Santa Clara, CA04, -121.561, 37.003, 194, 52.2, 6.06
AUBERRY 2 NW, Fresno, CA05, -119.513, 37.092, 2090, 44.6, 7.50
LOS BANOS, Merced, CA05, -120.867, 37.056, 120, 51.0, 2.16
SAN LUIS DAM, Merced, CA05, -121.058, 37.053, 277, 51.0, 3.04
BEN LOMOND NO. 4, Santa Cruz, CA04, -122.080, 37.086, 420, 48.6, 16.84
MORGAN HILL, Santa Clara, CA04, -121.602, 37.136, 375, 51.7, 5.52
ASPENDELL, Inyo, CA01, -118.599, 37.232, 8470, 25.6, 2.47
HUNTINGTON LAKE, Fresno, CA05, -119.221, 37.228, 7020, 29.6, 13.27
BIG CREEK PH 1, Fresno, CA05, -119.242, 37.206, 4878, 35.5, 9.44
NORTH FORK RS, Madera, CA05, -119.510, 37.233, 2645, 42.6, 4.40
LOS GATOS, Santa Clara, CA04, -121.959, 37.232, 365, 49.8, 7.31
COARSEGOLD 1 SW, Madera, CA05, -119.705, 37.250, 2230, M, 8.78
NEWMAN, Stanislaus, CA05, -121.018, 37.281, 90, 52.6, 2.69
MOUNT HAMILTON, Santa Clara, CA04, -121.635, 37.343, 4220, 35.2, 8.07
SAN GREGORIO 2 SE, San Mateo, CA04, -122.362, 37.312, 275, 49.0, 13.07
DEEP SPRINGS COLLEGE, Inyo, CA07, -117.980, 37.374, 5225, 37.9, 0.66
BISHOP AIRPORT, Inyo, CA07, -118.359, 37.371, 4110, 41.4, 0.18
MOFFETT FEDERAL AIRFIELD, Santa Clara, CA04, -122.048, 37.406, 39, 51.5, 5.20
WOODSIDE FIRE STATION 1, San Mateo, CA04, -122.256, 37.429, 380, 49.1, 11.18
TURLOCK #2, Stanislaus, CA05, -120.846, 37.502, 103, 50.3, 3.88
PALO ALTO, Santa Clara, CA04, -122.140, 37.444, 25, 50.9, 4.70
HALF MOON BAY, San Mateo, CA04, -122.443, 37.473, 27, 48.9, 9.50
SO ENTRANCE YOSEMITE N.P., Mariposa, CA05, -119.633, 37.512, 5047, 30.6, 9.27
MARIPOSA R S, Mariposa, CA05, -119.986, 37.495, 2100, 44.6, 6.89
NEWARK, Alameda, CA04, -122.032, 37.515, 10, 52.0, 6.35
EXCHEQUER DAM, Mariposa, CA05, -120.267, 37.585, 442, M, 5.87
MODESTO AP, Stanislaus, CA05, -120.955, 37.625, 87, 52.5, 3.33
HAYWARD AIR TERMINAL, Alameda, CA04, -122.121, 37.659, 31, 51.7, 6.03
TRACY CARBONA, San Joaquin, CA05, -121.347, 37.682, 135, 51.1, 1.85
LIVERMORE MUNICIPAL AP, Alameda, CA04, -121.815, 37.693, 393, 48.7, 4.73
OAKLAND INTERNATIONAL AIRPORT, Alameda, CA04, -122.233, 37.718, 5, 51.6, 7.13
UPPER SAN LEANDRO FILTERS, Alameda, CA04, -122.167, 37.772, 394, M, 8.79
SAN FRANCISCO DOWNTOWN, San Francisco, CA04, -122.427, 37.771, 150, 50.9, 8.74
SAN FRANCISCO OCEANSIDE, San Francisco, CA04, -122.505, 37.728, 8, 50.5, 8.20
GROVELAND RS, Tuolumne, CA05, -120.098, 37.823, 3145, M, 8.30
GROVELAND 2, Tuolumne, CA05, -120.226, 37.844, 2800, 40.7, 10.75
TRACY PUMPING PLANT, Alameda, CA05, -121.583, 37.796, 61, 50.4, 2.45
OAKLAND MUSEUM, Alameda, CA04, -122.264, 37.798, 30, 52.4, 8.38
MATHER, Tuolumne, CA05, -119.856, 37.885, 4510, M, 6.17
MOUNT DIABLO JUNCTION, Contra Costa, CA04, -121.930, 37.879, 2170, 42.0, 7.62
STOCKTON AP, San Joaquin, CA05, -121.226, 37.890, 27, 50.6, 3.83
RICHMOND, Contra Costa, CA04, -122.377, 37.919, 20, 51.0, 8.47
MUIR WOODS, Marin, CA01, -122.569, 37.898, 220, M, 11.29
HETCH HETCHY, Tuolumne, CA05, -119.783, 37.961, 3870, 38.0, 10.26
CHERRY VALLEY DAM, Tuolumne, CA05, -119.916, 37.975, 4765, 34.1, 12.76
SONORA, Tuolumne, CA05, -120.387, 37.967, 1675, 43.2, 10.82
STOCKTON FIRE STA 4, San Joaquin, CA05, -121.318, 37.999, 12, 51.8, 4.68
ANTIOCH PUMPING PLANT #3, Contra Costa, CA05, -121.752, 37.983, 60, 50.7, 3.32
CONCORD BUCHANAN FIELD, Contra Costa, CA04, -122.053, 37.992, 23, 51.1, 4.55
CONCORD WASTEWATER PLANT, Contra Costa, CA04, -122.069, 37.983, 40, 51.9, 6.18
SAN RAFAEL-CIVIC CENTER, Marin, CA01, -122.537, 37.998, 120, 48.6, 11.53
KENTFIELD, Marin, CA01, -122.545, 37.957, 145, 49.6, 13.54
MARTINEZ WATER PLANT, Contra Costa, CA04, -122.114, 38.013, 40, 52.2, 5.70
BODIE CALIFORNIA STATE HISTORIC PARK, Mono, CA03, -119.014, 38.212, 8370, 21.5, 0.64
ACAMPO 5NE, San Joaquin, CA05, -121.201, 38.218, 87, M, 4.66
NAPA COUNTY AIRPORT, Napa, CA04, -122.280, 38.208, 16, 48.3, 4.55
BRIDGEPORT, Mono, CA03, -119.229, 38.258, 6470, 30.1, 1.18
CALAVERAS BIG TREES, Calaveras, CA05, -120.311, 38.277, 4695, 31.6, 16.04
CAMP PARDEE, Calaveras, CA05, -120.843, 38.249, 658, 49.2, 8.04
FAIRFIELD, Solano, CA02, -122.068, 38.274, 40, 49.8, 8.87
SONOMA, Sonoma, CA01, -122.462, 38.299, 97, 48.5, 8.01
SUTTER HILL CDF, Amador, CA05, -120.801, 38.377, 1586, 46.4, 6.62
WEST POINT, Calaveras, CA05, -120.545, 38.378, 2775, M, 13.79
ATLAS ROAD BROWN, Napa, CA01, -122.248, 38.427, 1680, M, 11.52
GRATON, Sonoma, CA01, -122.865, 38.431, 200, 47.5, 11.53
OCCIDENTAL, Sonoma, CA01, -122.966, 38.386, 865, 45.6, 14.66
FIDDLETOWN DEXTER RCH, Amador, CA05, -120.698, 38.525, 2170, M, 12.52
SACRAMENTO AP ASOS, Sacramento, CA02, -121.496, 38.507, 19, 49.7, 5.29
WINTERS, Yolo, CA02, -121.978, 38.525, 135, 51.1, 5.66
LAKE SOLANO, Solano, CA02, -122.004, 38.492, 187, 49.9, 6.12
SAINT HELENA, Napa, CA01, -122.471, 38.507, 225, 48.9, 11.84
SAINT HELENA 4 WSW, Napa, CA01, -122.538, 38.493, 1780, M, 11.84
CAZADERO 5NW, Sonoma, CA01, -123.162, 38.564, 1420, M, 19.28
FORT ROSS, Sonoma, CA01, -123.245, 38.515, 112, 46.3, 6.44
SACRAMENTO 5 ESE, Sacramento, CA02, -121.418, 38.555, 38, 51.5, 6.02
ANGWIN PACIFIC UNION COLLEGE, Napa, CA01, -122.440, 38.573, 1715, 43.6, 10.73
CALISTOGA, Napa, CA01, -122.578, 38.577, 350, 47.5, 10.24
VENADO, Sonoma, CA01, -123.018, 38.609, 1260, M, 15.88
WOODLAND 1 WNW, Yolo, CA02, -121.794, 38.683, 67, 50.7, 5.47
PLACERVILLE, El Dorado, CA02, -120.824, 38.696, 1850, 44.4, 9.97
REPRESA, Sacramento, CA02, -121.161, 38.694, 295, M, 4.14
SACRAMENTO METROPOLITAN AP, Sacramento, CA02, -121.595, 38.701, 24, 49.5, 4.46
PACIFIC HOUSE, El Dorado, CA02, -120.503, 38.758, 3450, M, 16.71
MIDDLETOWN, Lake, CA02, -122.626, 38.748, 1121, M, 11.45
CLOVERDALE, Sonoma, CA01, -123.026, 38.793, 400, 48.0, 15.43
KELSEY 1 N, El Dorado, CA02, -120.821, 38.809, 2000, M, 8.04
SOUTH LAKE TAHOE AP, El Dorado, CA03, -119.996, 38.898, 6257, 26.8, 3.25
GEORGETOWN RS, El Dorado, CA02, -120.801, 38.933, 3001, 40.8, 4.27
AUBURN, Placer, CA02, -121.084, 38.907, 1292, 46.0, 7.71
NICOLAUS #2, Sutter, CA02, -121.545, 38.926, 43, M, 4.69
YORKVILLE, Mendocino, CA01, -123.231, 38.905, 1100, M, 15.28
CLEARLAKE 4 SE, Lake, CA02, -122.567, 38.924, 1349, 42.0, 9.70
FORESTHILL RANGER STATION, Placer, CA02, -120.845, 39.010, 3015, M, 12.84
IOWA HILL, Placer, CA02, -120.840, 39.118, 3100, M, 7.68
MARYSVILLE AIRPORT (ASOS), Yuba, CA02, -121.569, 39.102, 62, 49.3, 5.74
UKIAH MUNICIPAL AP, Mendocino, CA01, -123.200, 39.128, 603, 45.9, 11.15
UKIAH 4 WSW, Mendocino, CA01, -123.272, 39.127, 1328, M, 13.54
GOLD RUN 4 SW, Placer, CA02, -120.900, 39.150, 3220, M, 13.48
WILLIAMS, Colusa, CA02, -122.150, 39.150, 85, M, 13.92
UPPER LAKE 2 N, Lake, CA02, -122.896, 39.191, 1335, 42.5, 11.96
GRASS VALLEY NO. 2, Nevada, CA02, -121.068, 39.204, 2400, 40.5, 16.02
HARRY L. ENGLEBRIGHT DAM, Nevada, CA02, -121.267, 39.237, 800, M, 11.98
COLUSA 2 SSW, Colusa, CA02, -122.027, 39.188, 50, 50.2, 4.94
BLUE CANYON NYACK AP, Placer, CA02, -120.709, 39.276, 5286, 31.0, 15.76
NEVADA CITY, Nevada, CA02, -121.001, 39.247, 2781, 38.8, 17.76
TRUCKEE AIRPORT, Nevada, CA03, -120.139, 39.320, 5900, 28.2, 4.87
TRUCKEE RS, Nevada, CA03, -120.173, 39.333, 5823, 28.6, 7.85
DONNER MEMORIAL ST PARK, Nevada, CA03, -120.233, 39.324, 5937, 27.8, 10.81
DEER CREEK FOREBAY, Nevada, CA02, -120.833, 39.300, 4455, M, 10.42
COLGATE POWERHOUSE, Yuba, CA02, -121.192, 39.331, 595, M, 12.63
MOULTON WEIR, Colusa, CA02, -122.017, 39.333, 76, M, 0.88
BOCA, Nevada, CA03, -120.094, 39.389, 5575, 30.4, 3.92
DOBBINS 1 S, Yuba, CA02, -121.201, 39.358, 1640, 44.2, 15.45
STONYFORD, Colusa, CA02, -122.546, 39.375, 1170, M, 5.51
POTTER VALLEY POWERHOUSE, Mendocino, CA01, -123.129, 39.362, 1018, 45.0, 12.68
SAGEHEN CREEK, Nevada, CA03, -120.241, 39.432, 6337, 27.2, 8.09
WILLITS 1 NE, Mendocino, CA01, -123.342, 39.419, 1353, 41.0, 13.06
BOWMAN DAM, Nevada, CA02, -120.656, 39.454, 5385, 33.3, 0.60
OROVILLE, Butte, CA02, -121.553, 39.518, 171, 49.7, 8.74
OROVILLE MUNICIPAL AP, Butte, CA02, -121.622, 39.494, 187, 49.7, 8.40
SIERRAVILLE RS, Sierra, CA02, -120.370, 39.583, 4975, 33.5, 2.77
DOWNIEVILLE, Sierra, CA02, -120.824, 39.563, 2915, 38.4, 11.42
STRAWBERRY VALLEY, Yuba, CA02, -121.108, 39.563, 3808, 34.5, 22.66
STONY GORGE RESERVOIR, Glenn, CA02, -122.534, 39.586, 800, 44.0, 5.28
BRUSH CREEK RANGER STATION, Butte, CA02, -121.345, 39.695, 3560, M, 21.95
PARADISE, Butte, CA02, -121.624, 39.754, 1750, 46.6, 16.90
COVELO, Mendocino, CA01, -123.244, 39.816, 1413, 44.2, 9.28
VINTON, Plumas, CA02, -120.186, 39.806, 4950, M, 2.19
PORTOLA, Plumas, CA02, -120.472, 39.805, 4850, 30.2, 4.47
DE SABLA, Butte, CA02, -121.611, 39.872, 2710, 39.5, 20.55
STANDISH HICKEY ST PK, Mendocino, CA01, -123.727, 39.878, 853, 43.5, 14.07
BUCKS CREEK, Plumas, CA02, -121.315, 39.937, 1891, M, 18.39
DOYLE 4 SSE, Lassen, CA03, -120.083, 39.972, 4390, 36.6, 1.24
DOYLE, Lassen, CA03, -120.105, 40.027, 4293, M, 1.82
RICHARDSON GR ST PK, Humboldt, CA01, -123.793, 40.026, 503, 43.6, 12.06
SHELTER COVE AVIATION, Humboldt, CA01, -124.073, 40.033, 246, 48.5, 14.58
CANYON DAM, Plumas, CA02, -121.089, 40.171, 4560, 32.3, 8.44
MIRANDA 4 SE, Humboldt, CA01, -123.776, 40.182, 266, M, 14.40
FORT SEWARD, Humboldt, CA01, -123.632, 40.218, 220, M, 12.88
HONEYDEW 1 SW, Humboldt, CA01, -124.132, 40.238, 373, M, 23.80
CHESTER, Plumas, CA02, -121.242, 40.303, 4530, 30.3, 8.11
MINERAL, Tehama, CA02, -121.609, 40.346, 4875, 30.2, 13.25
HARRISON GULCH RS, Shasta, CA02, -122.965, 40.364, 2750, 38.8, 0.20
COLEMAN FISHERIES STATION, Shasta, CA02, -122.143, 40.400, 420, M, 9.08
VOLTA PH, Shasta, CA02, -121.866, 40.458, 2220, M, 7.90
GRIZZLY CREEK STATE PARK, Humboldt, CA01, -123.909, 40.486, 413, M, 0.96
SCOTIA, Humboldt, CA01, -124.104, 40.483, 136, 48.4, 15.20
MANZANITA LAKE, Shasta, CA02, -121.577, 40.541, 5750, 26.8, 7.95
HAYFORK 2 W, Trinity, CA01, -123.212, 40.552, 2300, 39.6, 2.95
WHISKEYTOWN RESERVOIR, Shasta, CA02, -122.528, 40.612, 1295, 44.6, 17.87
SHASTA DAM, Shasta, CA02, -122.416, 40.714, 1075, 44.3, 16.67
TRINITY RIVER HATCHERY, Trinity, CA01, -122.795, 40.726, 1861, 40.8, 6.19
BIG BAR 4 E, Trinity, CA01, -123.208, 40.741, 1253, 43.3, 6.85
ROUND MOUNTAIN, Shasta, CA02, -121.935, 40.796, 2100, M, 18.28
BUCKHORN, Shasta, CA02, -121.932, 40.880, 3700, M, 19.01
HAT CREEK, Shasta, CA02, -121.543, 40.932, 3015, 35.5, 4.08
PIT RIVER PH 5, Shasta, CA02, -121.977, 40.987, 1458, M, 18.30
WILLOW CREEK 1 NW, Humboldt, CA01, -123.636, 40.947, 464, 44.8, 7.38
FALL RIVER MILLS, Shasta, CA02, -121.435, 41.008, 3300, M, 4.25
ADIN RANGER STATION, Modoc, CA02, -120.945, 41.193, 4202, 35.6, 2.57
DUNSMUIR TREATMENT PL, Siskiyou, CA02, -122.282, 41.183, 2169, 38.7, 18.08
JESS VALLEY, Modoc, CA02, -120.295, 41.268, 5400, 32.5, 2.03
MCCLOUD, Siskiyou, CA02, -122.138, 41.252, 3233, 35.2, 9.59
ORICK, Humboldt, CA01, -124.067, 41.283, 5, M, 14.16
CALLAHAN, Siskiyou, CA01, -122.825, 41.338, 3085, 37.3, 2.88
SAWYERS BAR RS, Siskiyou, CA01, -123.133, 41.301, 2255, 40.8, 4.09
ORLEANS RS, Humboldt, CA01, -123.534, 41.303, 433, 43.1, M
ORICK PRAIRIE CREEK PARK, Humboldt, CA01, -124.019, 41.362, 160, 44.1, 13.45
CANBY 3 SW, Modoc, CA02, -120.902, 41.422, 4310, 34.2, 2.01
ALTURAS, Modoc, CA02, -120.544, 41.490, 4378, 33.2, 2.01
GREENVIEW, Siskiyou, CA01, -122.924, 41.552, 2820, M, 2.57
FORT JONES RS, Siskiyou, CA01, -122.848, 41.601, 2729, 37.4, 1.25
LAVA BEDS NAT MON, Siskiyou, CA01, -121.501, 41.702, 4770, 32.1, 1.76
MOUNT HEBRON RS, Siskiyou, CA01, -122.045, 41.783, 4265, 34.8, 0.41
CRESCENT CITY 3 NNW, Del Norte, CA01, -124.215, 41.796, 43, 45.9, 16.21
CRESCENT CITY MCNAMARA AP, Del Norte, CA01, -124.238, 41.784, 56, 46.2, 14.35
OAK KNOLL W. C., Siskiyou, CA01, -122.850, 41.839, 1980, M, 2.66
FORT BIDWELL, Modoc, CA03, -120.157, 41.872, 4739, 34.5, 1.84
GASQUET RS, Del Norte, CA01, -123.965, 41.845, 387, M, 18.61
FORT DICK RIVER, Del Norte, CA01, -124.135, 41.881, -, M, 12.80
TULELAKE, Siskiyou, CA01, -121.474, 41.960, 4038, 33.1, 1.12
COPCO NO 1 DAM, Siskiyou, CA01, -122.338, 41.980, 2665, M, 1.67
ELK VALLEY, Del Norte, CA01, -123.718, 41.988, 1708, M, 12.64
PACIFICA 4 SSE, San Mateo, CA04, -122.472, 37.592, 475, 49.9, 10.97
BARSTOW, San Bernardino, CA07, -117.022, 34.893, 2220, 50.8, 0.67
INYOKERN, Kern, CA07, -117.821, 35.651, 2430, 47.7, 0.78
PEARBLOSSOM, Los Angeles, CA07, -117.897, 34.503, 3101, 48.0, 0.82
EL CAJON, San Diego, CA06, -116.928, 32.801, 495, 55.0, 2.68
MARKLEY COVE, Napa, CA02, -122.124, 38.492, 480, 47.8, 7.54
ELSINORE, Riverside, CA06, -117.346, 33.686, 1268, 52.3, 1.42
SANTA ANA JOHN WAYNE AP, Orange, CA06, -117.867, 33.680, 43, 56.0, 2.19
HAYFIELD PUMPING PLANT, Riverside, CA07, -115.629, 33.704, 1370, 54.6, 0.25
IDYLLWILD FIRE DEPT, Riverside, CA06, -116.707, 33.757, 5380, 37.2, 6.85
HEMET, Riverside, CA06, -116.894, 33.738, 1811, 51.0, 2.90
SANTA ANA FIRE STATION, Orange, CA06, -117.867, 33.744, 135, 56.5, 1.48
EAGLE MOUNTAIN, Riverside, CA07, -115.451, 33.809, 973, 58.2, 0.05
PALM SPRINGS, Riverside, CA07, -116.510, 33.828, 425, 61.6, 0.83
LONG BEACH DAUGHERTY AP, Los Angeles, CA06, -118.147, 33.812, 34, 54.3, 2.50
FULLERTON MUNICIPAL AP, Orange, CA06, -117.986, 33.872, 86, 55.0, 2.37
BEAUMONT #2, Riverside, CA07, -116.990, 33.926, 2591, 48.6, 0.14
YORBA LINDA, Orange, CA06, -117.819, 33.890, 350, 54.7, 3.13
DOWNEY FIRE DEPT. FC107C, Los Angeles, CA06, -118.145, 33.930, 110, M, 3.35
HAWTHORNE MUNICIPAL AP, Los Angeles, CA06, -118.333, 33.924, 55, 56.0, 2.24
LOS ANGELES INTL AP, Los Angeles, CA06, -118.387, 33.938, 97, 54.7, 2.52
RIVERSIDE MUNICIPAL AP, Riverside, CA06, -117.435, 33.953, 845, 52.5, 1.39
CHINO AP, San Bernardino, CA06, -117.625, 33.976, 636, 51.8, 2.82
WHITTIER CITY YARD FC106C, Los Angeles, CA06, -118.022, 33.976, 446, M, 2.35
RIVERSIDE CITRUS EXP, Riverside, CA06, -117.361, 33.967, 986, 54.3, 1.79
MONTEBELLO, Los Angeles, CA06, -118.105, 34.019, 246, 55.2, M
SUSANVILLE 2SW, Lassen, CA03, -120.663, 40.417, 4212, 36.3, 1.95
TEJON RANCHO, Kern, CA05, -118.750, 35.023, 1425, 46.3, 2.30
BURBANK GLENDALE PASADENA AP, Los Angeles, CA06, -118.365, 34.200, 731, 53.0, 3.81
MOUNT SHASTA, Siskiyou, CA02, -122.317, 41.322, 3613, 33.8, 11.89
WATSONVILLE MUNICIPAL AIRPORT, Santa Cruz, CA04, -121.790, 36.939, 162, 49.0, 6.62
SANTA ROSA SONOMA CO AP, Sonoma, CA04, -122.811, 38.504, 119, 48.0, 11.13
OAKHURST, Madera, CA05, -119.653, 37.331, 2230, 39.9, 6.64
CORONADO FIRE DEPT, San Diego, CA06, -117.177, 32.692, 18, 55.2, 1.75
FALLBROOK FIRE DEPT, San Diego, CA06, -117.248, 33.384, 698, 52.2, 1.17
DEL MAR FIRE DEPT, San Diego, CA06, -117.262, 32.972, 12, 53.9, 0.25
LEMON GROVE FIRE DEPARTMENT, San Diego, CA06, -117.030, 32.738, 427, 54.3, 1.59
SPRING VALLEY FIRE DEPT, San Diego, CA06, -117.006, 32.710, 270, 54.8, 1.83
SANTEE FIRE DEPT, San Diego, CA06, -116.973, 32.841, 340, 54.0, 0.19
LEE VINING, Mono, CA07, -119.119, 37.957, 6797, 33.7, 2.01
ANAHEIM, Orange, CA06, -117.842, 33.865, 235, 55.9, 0.63
RED BLUFF TREATMENT PLANT, Tehama, CA02, -122.220, 40.162, 265, M, 5.71
NEW MELONES DAM HQ, Tuolumne, CA05, -120.486, 38.005, 960, 47.8, 9.37
POINT REYES ALERT, Marin, CA01, -122.930, 38.101, 175, M, 5.75
MAMMOTH LAKES RS, Mono, CA07, -118.962, 37.648, 7804, 23.7, 5.39
BIG SUR 3 SE, Monterey, CA04, -121.772, 36.246, 240, M, 2.68
FRAZIER PARK 9 SW, Ventura, CA05, -119.104, 34.733, 5169, M, 3.40
CAMPTONVILLE 1SW, Yuba, CA02, -121.071, 39.440, 2500, M, 3.60
MONTEREY WFO, Monterey, CA04, -121.855, 36.593, 122, 50.9, 7.11
SKYLINE RIDGE PRESERVE, San Mateo, CA04, -122.185, 37.313, 2270, 41.4, 12.45
FREMONT, Alameda, CA04, -122.016, 37.542, 38, 51.7, 7.06
MAD RIVER 12 SE, Trinity, CA01, -123.374, 40.319, 2763, M, 14.10
NEWHALL 5NW, Los Angeles, CA06, -118.594, 34.393, 1765, 49.6, 3.14
TEHACHAPI 4 SE, Kern, CA05, -118.422, 35.101, 4220, 40.1, 2.29
REDWOOD CITY #2, San Mateo, CA04, -122.214, 37.488, 10, 51.4, 1.13
WRIGHTWOOD, San Bernardino, CA07, -117.639, 34.362, 6000, 35.2, 5.34
REDDING CDF, Shasta, CA02, -122.299, 40.519, 502, M, 6.86
VALLEJO, Solano, CA01, -122.187, 38.100, 341, 50.5, 5.53
NORTHRIDGE CAL STATE, Los Angeles, CA06, -118.525, 34.245, 904, 52.6, 2.99
OXNARD WFO, Ventura, CA06, -119.137, 34.207, 52, 52.3, 3.39
LAKEHEAD, Shasta, CA02, -122.391, 40.899, 1398, M, 18.67
HANFORD MUNICIPAL AP, Kings, CA05, -119.623, 36.311, 249, 49.1, 2.60
RAMONA AIRPORT, San Diego, CA06, -116.916, 33.038, 1385, 48.7, 3.52
VACAVILLE/NUT TREE AP ASOS, Solano, CA02, -121.959, 38.378, 104, 49.6, 7.72
ALTURAS MUNICIPAL AP, Modoc, CA02, -120.561, 41.484, 4383, 33.3, 1.87
MADERA MUNICIPAL AP, Madera, CA05, -120.111, 36.985, 251, 49.1, 4.27
BAKERSFIELD 5 NW, Kern, CA05, -119.051, 35.419, 470, 51.5, 1.36
FRESNO 5 NE, Fresno, CA05, -119.709, 36.767, 338, 50.1, 4.56
OCEANSIDE MUNICIPAL AP, San Diego, CA06, -117.350, 33.219, 30, 52.2, 1.89
SAN DIEGO SEAWORLD, San Diego, CA06, -117.231, 32.765, 14, 57.6, 0.95
RIALTO, San Bernardino, CA07, -117.393, 34.130, 1420, 51.9, 1.89
BOULEVARD 2, San Diego, CA07, -116.300, 32.667, 3600, M, 10.84
ARCATA EUREKA AP, Humboldt, CA01, -124.105, 40.978, 211, 46.1, 10.63
CHICO ARMY FLYING SCH, Butte, CA02, -121.850, 39.800, 272, 49.1, 6.38
NEWPORT BEACH HARBOR, Orange, CA06, -117.884, 33.603, 10, 54.2, 1.85
ESCONDIDO NO. 2, San Diego, CA06, -117.090, 33.121, 600, 54.0, 3.02
REDDING AP, Shasta, CA02, -122.298, 40.515, 501, 46.9, 7.56
AVALON CATALINA AP, Los Angeles, CA06, -118.415, 33.404, 1565, 49.0, 2.59
SANTA MARIA PUBLIC AP, Santa Barbara, CA06, -120.452, 34.894, 243, 49.5, 3.57
MOUNT SHASTA, Siskiyou, CA02, -122.333, 41.333, 3535, 34.2, 13.11
RED BLUFF MUNI AP, Tehama, CA02, -122.255, 40.152, 354, 47.4, 5.11
NEEDLES AIRPORT, San Bernardino, CA07, -114.618, 34.768, 888, 61.6, 0.12
CHINA LAKE NAF, Kern, CA07, -117.693, 35.688, 2230, 50.3, 0.57
HEARST CASTLE, San Luis Obispo, CA04, -121.168, 35.684, 1526, 47.0, 7.13
GETTY CENTER, Los Angeles, CA06, -118.479, 34.087, 1117, 52.8, 4.69
HESPERIA 2E, San Bernardino, CA07, -117.266, 34.421, 3055, 41.0, 1.08
RANCHO BERNARDO, San Diego, CA06, -117.081, 33.022, 690, 53.5, 3.02
FELTON, Santa Cruz, CA04, -122.075, 37.051, 400, 47.8, 16.22
PACIFICA 2S, San Mateo, CA04, -122.484, 37.610, 125, 49.2, 5.45
SAN JUAN CANYON, Orange, CA06, -117.552, 33.532, 375, 53.6, 2.65
YOUNTVILLE, Napa, CA01, -122.357, 38.395, 95, 48.0, 7.93
APPLE VALLEY #2, San Bernardino, CA07, -117.279, 34.536, 2780, 47.2, 0.30
OCOTILLO WELLS 2W, San Diego, CA07, -116.169, 33.155, 390, 62.0, 0.01
MT. LAGUNA #3, San Diego, CA07, -116.419, 32.867, 5920, 38.6, 1.77
AVALON INLAND, Los Angeles, CA06, -118.330, 33.338, 90, 52.6, 1.42
DESERT CENTER 2 NNE, Riverside, CA07, -115.392, 33.738, 747, 60.8, 0.00
TORRANCE AP, Los Angeles, CA06, -118.342, 33.802, 90, 53.3, 2.41
MERCED 23 WSW, Merced, CA05, -120.882, 37.238, 78, 48.9, 3.11
REDDING 12 WNW, Shasta, CA02, -122.607, 40.651, 1418, 42.4, 16.31
STOVEPIPE WELLS 1 SW, Inyo, CA07, -117.145, 36.602, 84, 61.7, 0.15
LOS ANGELES DOWNTOWN/USC, Los Angeles, CA06, -118.291, 34.024, 179, 55.3, 2.87
FRESNO YOSEMITE INT'L, Fresno, CA05, -119.720, 36.780, 334, 50.1, 4.73
MONTEREY PENINSUL AP, Monterey, CA04, -121.849, 36.590, 160, 50.5, 5.24
PASO ROBLES MUNICIPAL AP, San Luis Obispo, CA04, -120.629, 35.669, 820, 47.6, 3.90
MONTAGUE SISKIYOU AIRPORT, Siskiyou, CA01, -122.468, 41.774, 2645, 37.7, 0.65
SAN JOSE, Santa Clara, CA04, -121.903, 37.350, 67, 51.3, 6.55
SAN JOSE, Santa Clara, CA04, -121.924, 37.359, 49, 51.1, 4.55
PALM SPRINGS ASOS, Riverside, CA07, -116.504, 33.822, 409, 60.7, 0.71
THOUSAND OAKS 1 SW, Ventura, CA06, -118.899, 34.182, 783, 51.1, 2.48
FILLMORE 2 W, Ventura, CA06, -118.945, 34.409, 495, 51.7, 1.81
SAN DIEGO BROWN FIELD, San Diego, CA06, -116.994, 32.576, 521, 55.8, 2.03
LAKE BERRYESSA, Napa, CA02, -122.250, 38.579, 455, 48.6, 7.03
PACIFIC HOUSE #2, El Dorado, CA02, -120.503, 38.758, 3440, M, 11.52
Bakersfield Area, -, -, -, -, -, 52.4, 1.91
Bishop Area, -, -, -, -, -, 41.4, 0.18
Los Angeles Downtown Area, -, -, -, -, -, 55.3, 2.87
Eureka Area, -, -, -, -, -, 47.3, 11.11
Fresno Area, -, -, -, -, -, 50.1, 4.73
Los Angeles Airport Area, -, -, -, -, -, 54.7, 2.52
Long Beach Area, -, -, -, -, -, 54.3, 2.50
Redding Area, -, -, -, -, -, 46.9, 7.56
Sacramento Area, -, -, -, -, -, 49.7, 5.29
San Diego Area, -, -, -, -, -, 57.2, 1.36
Stockton Area, -, -, -, -, -, 50.6, 3.83
San Francisco Airport Area, -, -, -, -, -, 51.0, 6.13
Santa Maria Area, -, -, -, -, -, 49.5, 3.57
CAMP PENDLETON MCAS, San Diego, CA06, -117.355, 33.304, 70, 51.7, 1.46
LEMOORE REEVES NAS, Fresno, CA05, -119.950, 36.333, 232, 48.6, 3.58
ARVIN, Kern, CA05, -118.834, 35.211, 450, 52.9, 1.04
FRAZIER PARK, Kern, CA06, -118.965, 34.827, 4972, 38.9, 3.36
REDONDO BEACH, Los Angeles, CA06, -118.376, 33.834, 142, 53.3, 0.73
BURBANK VALLEY PUMP PLANT, Los Angeles, CA06, -118.348, 34.187, 655, 53.0, 3.62
ARBUCKLE BASIN CALIFORNIA, Shasta, CA02, -122.833, 40.398, 1900, 40.3, M
ACTON CALIFORNIA, Los Angeles, CA06, -118.200, 34.446, 2600, 46.7, M
ARROYO GRANDE CALIFORNIA, San Luis Obispo, CA04, -120.392, 35.179, 1048, 47.7, M
ALDER SPRINGS CALIFORNIA, Glenn, CA02, -122.724, 39.651, 4300, 35.0, M
ALPINE CALIFORNIA, San Diego, CA06, -116.739, 32.834, 2041, 50.5, M
LOS ALTOS CALIFORNIA, Santa Clara, CA04, -122.147, 37.358, 645, 50.7, M
AMMO DUMP CALIFORNIA, San Diego, CA06, -117.286, 33.381, 1068, 53.4, M
ANZA CALIFORNIA, Riverside, CA06, -116.673, 33.555, 3920, 42.7, M
ALDER POINT CALIFORNIA, Humboldt, CA01, -123.590, 40.187, 923, 44.1, M
ARROYO SECO (MT. DIABLO) CALIF, Monterey, CA04, -121.492, 36.230, 980, 48.8, M
ASH CREEK CALIFORNIA, Siskiyou, CA02, -121.979, 41.277, 3200, 34.2, M
ASH VALLEY CALIFORNIA, Lassen, CA02, -120.686, 41.052, 5100, 31.4, M
BACKBONE CALIFORNIA, Trinity, CA01, -123.142, 40.889, 4700, 33.4, M
BALD MTN LOC CALIFORNIA, El Dorado, CA02, -120.697, 38.906, 4680, 36.7, M
BARNABY CALIFORNIA, Marin, CA01, -122.702, 38.028, 1240, 46.9, M
BATTERSON CALIFORNIA, Madera, CA05, -119.508, 37.232, 3160, 42.1, M
BIG BAR CALIFORNIA, Trinity, CA01, -123.233, 40.733, 1500, 43.6, M
BELL CANYON CALIFORNIA, Orange, CA06, -117.592, 33.542, 700, 51.5, M
BRADLEY CALIFORNIA, Monterey, CA04, -120.803, 35.864, 537, 48.3, M
BEAR PEAK CALIFORNIA, Tulare, CA05, -118.052, 35.884, 8228, 27.0, M
BENTON CALIFORNIA, Mono, CA07, -118.478, 37.843, 5450, 36.3, M
BEAUMONT CALIFORNIA, Riverside, CA06, -116.950, 33.931, 2604, 49.1, M
BEVERLY HILLS CALIFORNIA, Los Angeles, CA06, -118.412, 34.125, 1260, 54.5, M
BANGOR CALIFORNIA, Butte, CA02, -121.386, 39.398, 803, 47.2, M
BIG HILL CALIFORNIA, Humboldt, CA01, -123.636, 41.098, 3570, 36.3, M
BIG PINES CALIFORNIA, Los Angeles, CA07, -117.692, 34.379, 6917, 35.5, M
BIG ROCK CALIFORNIA, Marin, CA01, -122.570, 38.039, 1500, 46.8, M
BLACK DIAMOND CALIFORNIA, Contra Costa, CA04, -121.884, 37.950, 1600, 45.5, M
BLUE DOOR CALIFORNIA, Lassen, CA02, -120.337, 41.055, 5615, 29.9, M
BLUE RIDGE (KNF) CALIFORNIA, Siskiyou, CA01, -123.187, 41.269, 5956, 28.1, M
BEN BOLT CALIFORNIA, El Dorado, CA05, -120.934, 38.591, 905, 46.9, M
BEN LOMOND CALIFORNIA, Santa Cruz, CA04, -122.170, 37.132, 2630, 40.6, M
BOGARD R.S. CALIFORNIA, Lassen, CA02, -121.083, 40.598, 5650, 26.6, M
BOONVILLE CALIFORNIA, Mendocino, CA01, -123.349, 38.988, 644, 45.7, M
BIG PINE FLAT CALIFORNIA, San Bernardino, CA07, -117.013, 34.319, 6861, 35.1, M
BRIDGEPORT 4NW CALIFORNIA, Mono, CA03, -119.289, 38.272, 6650, 31.8, M
BRANCH MOUNTAIN CALIFORNIA, San Luis Obispo, CA04, -120.083, 35.189, 3770, 40.5, M
BEAR FLAT CALIFORNIA, Modoc, CA02, -120.313, 41.295, 6200, 29.5, M
BRIONES CALIFORNIA, Contra Costa, CA04, -122.118, 37.944, 1450, 46.5, M
BLACKROCK CALIFORNIA, Tulare, CA05, -118.260, 36.093, 8200, 28.0, M
BROOKS CALIFORNIA, Yolo, CA02, -122.145, 38.738, 354, 47.9, M
BIG SUR CALIFORNIA, Monterey, CA04, -121.785, 36.236, 450, 49.6, M
BUCK MEADOWS CALIFORNIA, Tuolumne, CA05, -120.097, 37.823, 3200, 38.7, M
BULL FLAT CALIFORNIA, Lassen, CA03, -120.114, 40.481, 4395, 34.6, M
BURNS CANYON CALIFORNIA, San Bernardino, CA07, -116.634, 34.210, 6000, 39.8, M
BUTTERCUP CALIFORNIA, Imperial, CA07, -114.884, 32.740, 217, 61.9, M
BEAVER CAMP LOC CALIFORNIA, Amador, CA05, -120.325, 38.488, 5000, 38.0, M
BRAZIE RANCH CALIFORNIA, Siskiyou, CA01, -122.594, 41.685, 3000, 37.6, M
CAHUILLA CALIFORNIA, Imperial, CA07, -115.174, 32.974, 278, 62.2, M
CALLAHAN CALIFORNIA, Siskiyou, CA01, -122.796, 41.308, 3136, 36.4, M
CAMERON FIRE STATION CALIFORNI, San Diego, CA06, -116.463, 32.721, 3443, 44.4, M
CANBY CALIFORNIA, Modoc, CA02, -120.868, 41.434, 4312, 35.5, M
CARRIZO CALIFORNIA, San Luis Obispo, CA05, -119.773, 35.096, 2490, 46.1, M
CASE SPRINGS CALIFORNIA, San Diego, CA06, -117.418, 33.445, 2320, 48.0, M
CATHEYS VALLEY CALIFORNIA, Mariposa, CA05, -120.111, 37.468, 1200, 47.3, M
CEDAR GROVE CALIFORNIA, Fresno, CA05, -118.656, 36.788, 4720, 36.8, M
CHEESEBORO CALIFORNIA, Ventura, CA06, -118.717, 34.185, 1650, 51.4, M
CHICO CALIFORNIA, Butte, CA02, -121.779, 39.712, 230, 48.8, M
CHILAO CALIFORNIA, Los Angeles, CA06, -118.030, 34.332, 5450, 39.6, M
CHUCHUPATE CALIFORNIA, Ventura, CA05, -119.012, 34.808, 4900, 36.5, M
CLAREMONT CALIFORNIA, Los Angeles, CA06, -117.707, 34.137, 1645, 50.0, M
CLEAR CREEK CALIFORNIA, Los Angeles, CA06, -118.152, 34.271, 3000, 43.4, M
CLARK CALIFORNIA, Riverside, CA06, -117.309, 33.877, 1720, 51.5, M
CALAVERAS ROAD CALIFORNIA, Alameda, CA04, -121.844, 37.553, 1230, 47.5, M
CASE MOUNTAIN CALIFORNIA, Tulare, CA05, -118.809, 36.411, 6450, 33.4, M
CORONA CALIFORNIA, Riverside, CA06, -117.549, 33.874, 640, 54.9, M
COHASSET CALIFORNIA, Butte, CA02, -121.769, 39.872, 1733, 44.3, M
COLLINS BALDY CALIFORNIA, Siskiyou, CA01, -122.950, 41.775, 5493, 29.6, M
CONVERSE CALIFORNIA, San Bernardino, CA06, -116.913, 34.194, 5618, 38.1, M
COOSKIE MOUNTAIN CALIFORNIA, Humboldt, CA01, -124.266, 40.257, 2950, 47.3, M
COUNTY LINE CALIFORNIA, Lake, CA02, -122.412, 39.019, 2085, 43.1, M
CAMP 9 CALIFORNIA, Los Angeles, CA06, -118.422, 34.362, 4000, 42.3, M
CRANE FLAT LOOKOUT CALIFORNIA, Mariposa, CA05, -119.825, 37.762, 6644, 27.5, M
CRESTVIEW CALIFORNIA, Mono, CA07, -118.983, 37.745, 7600, 25.4, M
CORNING CALIFORNIA, Tehama, CA02, -122.170, 39.939, 294, 48.1, M
CARPENTER RIDGE CALIFORNIA, Butte, CA02, -121.582, 40.069, 4812, 34.5, M
CRANSTON CALIFORNIA, Riverside, CA06, -116.841, 33.740, 1950, 50.9, M
CRAZY PEAK CALIFORNIA, Del Norte, CA01, -123.604, 41.992, 3970, 36.3, M
CASHMAN CALIFORNIA, Plumas, CA02, -120.915, 40.002, 4520, 35.8, M
DESCANSO CALIFORNIA, San Diego, CA06, -116.622, 32.857, 3480, 44.9, M
DEVILS GARDEN CALIFORNIA, Modoc, CA02, -120.671, 41.530, 5022, 31.5, M
DIABLO GRANDE CALIFORNIA, Stanislaus, CA05, -121.294, 37.329, 1850, 45.6, M
DEMOCRAT CALIFORNIA, Kern, CA05, -118.630, 35.532, 2356, 46.0, M
DINKEY CALIFORNIA, Fresno, CA05, -119.039, 37.066, 5668, 30.3, M
DELNORTE CALIFORNIA, Santa Barbara, CA06, -119.654, 34.009, 800, 51.6, M
DOG VALLEY CALIFORNIA, Sierra, CA03, -120.048, 39.562, 5976, 32.6, M
DOYLE CALIFORNIA, Lassen, CA03, -120.106, 40.022, 4240, 38.1, M
DUNCAN CALIFORNIA, Placer, CA02, -120.509, 39.144, 7100, 26.2, M
DEL VALLE CALIFORNIA, Los Angeles, CA06, -118.683, 34.431, 1278, 50.8, M
DEVORE CALIFORNIA, San Bernardino, CA06, -117.404, 34.221, 2057, 50.1, M
EAGLE PEAK CALIFORNIA, Tehama, CA02, -122.657, 39.928, 3713, 36.0, M
EEL RIVER CAMP CALIFORNIA, Humboldt, CA01, -123.824, 40.138, 446, 46.2, M
EEL RIVER CALIFORNIA, Mendocino, CA01, -123.083, 39.833, 1500, 43.5, M
EL CARISO CALIFORNIA, Riverside, CA06, -117.411, 33.647, 3038, 49.0, M
MOUNT ELIZABETH CALIFORNIA, Tuolumne, CA05, -120.247, 38.063, 4933, 34.7, M
EL MIRAGE CALIFORNIA, San Bernardino, CA07, -117.550, 34.634, 2880, 47.2, M
FANCHER CREEK CALIFORNIA, Fresno, CA05, -119.466, 36.884, 920, 50.1, M
FAWNSKIN CALIFORNIA, San Bernardino, CA06, -116.899, 34.266, 6900, 33.0, M
FENCE MEADOW CALIFORNIA, Fresno, CA05, -119.175, 36.961, 5048, 36.3, M
FORT HUNTER LIGGET CALIFORNIA, Monterey, CA04, -121.242, 36.012, 1100, 46.2, M
FIGUEROA CALIFORNIA, Santa Barbara, CA06, -120.007, 34.733, 3200, 43.6, M
FISH CREEK MTN CALIFORNIA, Imperial, CA07, -116.067, 32.990, 760, 62.6, M
FIVE MILE CALIFORNIA, Inyo, CA07, -117.918, 35.872, 4150, 47.3, M
FORT ORD #1 CALIFORNIA, Monterey, CA04, -121.798, 36.627, 460, 49.3, M
FORT ORD #2 CALIFORNIA, Monterey, CA04, -121.786, 36.627, 490, 48.5, M
FORESTHILL CALIFORNIA, Placer, CA02, -120.732, 39.091, 4355, 36.7, M
FOUNTAIN SPRINGS CALIFORNIA, Tulare, CA05, -118.915, 35.892, 210, 48.8, M
FREMONT CANYON CALIFORNIA, Orange, CA06, -117.711, 33.808, 1781, 51.7, M
FRIEND MOUNTAIN CALIFORNIA, Trinity, CA01, -123.342, 40.505, 4000, 35.0, M
GASQUET CALIFORNIA, Del Norte, CA01, -123.979, 41.846, 500, 45.9, M
GRASSHOPPER CALIFORNIA, Lassen, CA03, -120.784, 40.782, 6158, 26.4, M
GOOSE VALLEY CALIFORNIA, San Diego, CA06, -116.846, 33.074, 1530, 50.1, M
GORDON CALIFORNIA, Lassen, CA03, -120.896, 40.759, 6200, 27.6, M
GREEN SPRING CALIFORNIA, Tuolumne, CA05, -120.500, 37.833, 1020, 47.6, M
GRIZZLY FLAT CALIFORNIA, El Dorado, CA05, -120.561, 38.620, 3740, 38.1, M
HASTINGS CALIFORNIA, Monterey, CA04, -121.552, 36.389, 1885, 45.0, M
HAWKEYE CALIFORNIA, Sonoma, CA01, -122.917, 38.782, 2000, 42.3, M
HAYFORK CALIFORNIA, Trinity, CA01, -123.165, 40.550, 2323, 40.2, M
HELL HOLE CALIFORNIA, Placer, CA02, -120.422, 39.072, 5240, 33.6, M
HERNANDEZ CALIFORNIA, San Benito, CA04, -120.856, 36.383, 3733, 39.8, M
HIGH SIERRA CALIFORNIA, Fresno, CA05, -119.038, 37.315, 7403, 27.3, M
HOPLAND CALIFORNIA, Mendocino, CA01, -123.081, 39.031, 2682, 39.6, M
HOLLISTER CALIFORNIA, San Benito, CA04, -121.362, 36.842, 404, 50.2, M
HUNTER MOUNTAIN CALIFORNIA, Inyo, CA07, -117.474, 36.563, 6880, 33.4, M
HORSE LAKE CALIFORNIA, Lassen, CA03, -120.503, 40.631, 5100, 32.1, M
HOOPA CALIFORNIA, Humboldt, CA01, -123.671, 41.048, 375, 46.6, M
HORSE THIEF SPRINGS CALIFORNIA, San Bernardino, CA07, -115.909, 35.771, 5000, 43.2, M
HURLEY CALIFORNIA, Fresno, CA05, -119.568, 37.015, 1201, 44.8, M
INDIAN WELL CALIFORNIA, Siskiyou, CA01, -121.538, 41.742, 4770, 33.7, M
JARBO GAP CALIFORNIA, Butte, CA02, -121.489, 39.736, 2490, 41.1, M
JERSEYDALE CALIFORNIA, Mariposa, CA05, -119.839, 37.544, 3900, 39.6, M
JOHNSONDALE CALIFORNIA, Tulare, CA05, -118.545, 35.972, 4700, 37.2, M
JULIAN CALIFORNIA, San Diego, CA07, -116.591, 33.076, 4240, 43.1, M
JUNIPER CREEK CALIFORNIA, Modoc, CA02, -120.472, 41.332, 4372, 34.4, M
KEENWILD CALIFORNIA, Riverside, CA06, -116.767, 33.667, 4920, 41.3, M
KETTLEMAN HILLS CALIFORNIA, Kings, CA05, -120.057, 36.033, 810, 51.0, M
KNOXVILLE CREEK CALIFORNIA, Lake, CA02, -122.417, 38.862, 2200, 41.7, M
KONOCTI CALIFORNIA, Lake, CA02, -122.706, 38.912, 2163, 42.3, M
LOS BANOS CALIFORNIA, Merced, CA05, -121.053, 37.055, 350, 51.0, M
MT. LAGUNA CALIFORNIA, San Diego, CA07, -116.420, 32.880, 5760, 37.6, M
LA HONDA CALIFORNIA, San Mateo, CA04, -122.255, 37.305, 872, 47.3, M
LA PANZA CALIFORNIA, San Luis Obispo, CA04, -120.187, 35.381, 1630, 44.0, M
LAURAL MOUNTAIN CALIFORNIA, Kern, CA07, -117.699, 35.478, 4390, 44.2, M
LASSEN LODGE CALIFORNIA, Tehama, CA02, -121.714, 40.344, 4159, 36.0, M
LAUFMAN CALIFORNIA, Lassen, CA03, -120.353, 40.142, 5800, 35.4, M
LAYTONVILLE CALIFORNIA, Mendocino, CA01, -123.485, 39.702, 1820, 42.7, M
LADDER BUTTE CALIFORNIA, Lassen, CA02, -121.297, 40.807, 5750, 30.8, M
LEO CARRILLO CALIFORNIA, Los Angeles, CA06, -118.936, 34.046, 50, 53.9, M
LOS GATOS CALIFORNIA, Santa Clara, CA04, -121.943, 37.203, 2000, 45.7, M
LOST HORSE CALIFORNIA, Riverside, CA07, -116.188, 34.018, 4200, 44.4, M
LINCOLN CALIFORNIA, Placer, CA02, -121.268, 38.883, 200, 50.1, M
LOWER KLAMATH CALIFORNIA, Siskiyou, CA01, -121.700, 41.999, 4098, 34.0, M
LOS PRIETOS CALIFORNIA, Santa Barbara, CA06, -119.783, 34.536, 1020, 50.1, M
LAS FLORES CALIFORNIA, San Diego, CA06, -117.439, 33.289, 100, 54.7, M
LAS TABLAS CALIFORNIA, San Luis Obispo, CA04, -120.924, 35.656, 994, 46.5, M
LITTLE TUJUNGA CALIFORNIA, Los Angeles, CA06, -118.361, 34.294, 1390, 49.8, M
SANTA ROSA ISLAND CALIFORNIA, Santa Barbara, CA06, -120.078, 33.978, 1298, 48.0, M
SANTA ROSA PLATEAU CALIFORNIA, Riverside, CA06, -117.231, 33.529, 1980, 50.4, M
SANTA ROSA CALIFORNIA, Sonoma, CA01, -122.712, 38.479, 576, 47.9, M
STAMPEDE CALIFORNIA, Sierra, CA03, -120.075, 39.483, 6867, 30.5, M
STONYFORD CALIFORNIA, Colusa, CA02, -122.575, 39.367, 1200, 43.6, M
SUGARLOAF (SHF) CALIFORNIA, Shasta, CA02, -122.438, 40.917, 4200, 37.0, M
SPRING VALLEY CALIFORNIA, San Mateo, CA04, -122.436, 37.563, 1075, 45.1, M
TALEGA CALIFORNIA, San Diego, CA06, -117.486, 33.478, 1203, 53.9, M
TANBARK CALIFORNIA, Los Angeles, CA06, -117.761, 34.207, 2600, 46.7, M
TARGET RANGE CALIFORNIA, San Diego, CA06, -117.359, 33.372, 918, 53.0, M
TEMESCAL (LPF) CALIFORNIA, Ventura, CA06, -118.756, 34.481, 1140, 49.8, M
THOMES CREEK CALIFORNIA, Tehama, CA02, -122.610, 39.864, 1040, 45.4, M
THOUSAND OAKS CALIFORNIA, Ventura, CA06, -118.870, 34.210, 795, 50.1, M
TIMBER MOUNTAIN CALIFORNIA, Modoc, CA01, -121.298, 41.629, 4960, 31.8, M
TEMESCAL (CNF) CALIFORNIA, Riverside, CA06, -117.483, 33.763, 1125, 53.4, M
LAS TRAMPAS CALIFORNIA, Contra Costa, CA04, -122.067, 37.834, 1760, 44.9, M
TRINITY CAMP CALIFORNIA, Trinity, CA01, -122.804, 40.786, 3308, 51.5, M
TRIMMER CALIFORNIA, Fresno, CA05, -119.305, 36.911, 1540, 45.9, M
GAYLOR MEADOW CALIFORNIA, Tuolumne, CA05, -119.318, 37.868, 9270, 17.4, M
UHL / HOT SPRINGS, Tulare, CA05, -118.633, 35.889, 3720, 40.8, M
UNDERWOOD CALIFORNIA, Trinity, CA01, -123.495, 40.722, 2600, 41.1, M
VALLEY CENTER CALIFORNIA, San Diego, CA06, -117.009, 33.237, 1483, 51.8, M
VAN BREMMER CALIFORNIA, Siskiyou, CA01, -121.794, 41.643, 4928, 31.3, M
VALYERMO CALIFORNIA, Los Angeles, CA07, -117.851, 34.446, 3780, 45.5, M
VANDENBERG CALIFORNIA, Santa Barbara, CA06, -120.486, 34.759, 1050, 48.9, M
WALKER CALIFORNIA, Mono, CA03, -119.459, 38.565, 5440, 37.4, M
WALKER PASS CALIFORNIA, Kern, CA05, -118.057, 35.665, 5572, 39.4, M
WARM SPRINGS CALIFORNIA, Los Angeles, CA06, -118.579, 34.596, 4930, 42.9, M
WEED AIRPORT CALIFORNIA, Siskiyou, CA01, -122.454, 41.479, 2930, 38.0, M
WESTWOOD CALIFORNIA, Lassen, CA02, -120.900, 40.307, 5800, 27.1, M
WHITE CLOUD CALIFORNIA, Nevada, CA02, -120.837, 39.317, 4320, 36.5, M
WHITTIER HILLS CALIFORNIA, Los Angeles, CA06, -118.010, 33.984, 950, 53.6, M
WHITMORE CALIFORNIA, Shasta, CA02, -121.899, 40.619, 2417, 39.9, M
WILEY RIDGE CALIFORNIA, Ventura, CA06, -118.841, 34.372, 1645, 49.6, M
WOFFORD HEIGHTS CALIFORNIA, Kern, CA05, -118.499, 35.722, 3150, 43.4, M
WOLVERTON CALIFORNIA, Tulare, CA05, -118.703, 36.445, 5240, 39.4, M
WOODACRE CALIFORNIA, Marin, CA01, -122.645, 37.991, 1400, 45.4, M
WHITAKER PEAK CALIFORNIA, Los Angeles, CA06, -118.740, 34.569, 4120, 42.7, M
WHITE WOLF CALIFORNIA, Tuolumne, CA05, -119.650, 37.851, 8025, 24.6, M
YOLLA BOLLA CALIFORNIA, Trinity, CA01, -123.066, 40.338, 4524, 33.7, M
YUCCA VALLEY CALIFORNIA, San Bernardino, CA07, -116.408, 34.123, 3260, 46.9, M
YUROK CALIFORNIA, Humboldt, CA01, -123.857, 41.290, 495, 45.8, M
HAGAN'S MEADOW, El Dorado, CA03, -119.940, 38.850, 7776, 25.5, 6.70
BLUE LAKES, Alpine, CA05, -119.920, 38.610, 8057, 22.8, 7.80
POISON FLAT, Alpine, CA03, -119.630, 38.510, 7736, 25.1, 7.40
SONORA PASS, Mono, CA03, -119.600, 38.310, 8827, 22.9, 9.90
LEAVITT MEADOWS, Mono, CA03, -119.550, 38.300, 7198, 28.5, 6.10
VIRGINIA LAKES RIDGE, Mono, CA03, -119.230, 38.070, 9445, 23.0, 6.70
LOBDELL LAKE, Mono, CA03, -119.370, 38.440, 9233, 21.6, 7.40
EBBETTS PASS, Alpine, CA03, -119.800, 38.550, 8765, 23.9, 13.50
HEAVENLY VALLEY, El Dorado, CA03, -119.920, 38.920, 8582, 22.0, 7.70
LEAVITT LAKE, Mono, CA03, -119.610, 38.280, 9617, 21.2, 12.10
SPRATT CREEK, Alpine, CA03, -119.820, 38.670, 6115, 33.2, 5.80
MONITOR PASS, Alpine, CA03, -119.610, 38.670, 8310, 26.3, 5.10
BURNSIDE LAKE, Alpine, CA03, -119.890, 38.720, 8129, 22.1, 10.40
SUMMIT MEADOW, Mono, CA03, -119.540, 38.400, 9313, 21.5, 3.90
FORESTDALE CREEK, Alpine, CA03, -119.960, 38.680, 8017, 25.6, 8.80
HORSE MEADOW, Alpine, CA03, -119.890, 38.840, 8557, 23.6, 6.10
CARSON PASS, Alpine, CA02, -119.990, 38.690, 8353, 23.8, 12.70
CROWDER FLAT, Modoc, CA01, -120.750, 41.890, 5170, 31.0, 2.80
CEDAR PASS, Modoc, CA02, -120.300, 41.580, 7030, 25.9, 7.00
DISMAL SWAMP, Modoc, CA03, -120.180, 41.990, 7360, 22.9, 8.10
ADIN MTN, Modoc, CA02, -120.790, 41.240, 6190, 30.1, 6.50
INDEPENDENCE CREEK, Sierra, CA03, -120.280, 39.490, 6456, 29.2, 7.10
INDEPENDENCE CAMP, Sierra, CA03, -120.290, 39.450, 7003, 26.9, 6.70
INDEPENDENCE LAKE, Nevada, CA03, -120.310, 39.430, 8352, 23.5, 13.50
TRUCKEE #2, Placer, CA03, -120.180, 39.300, 6509, 30.6, 8.60
WARD CREEK #3, Placer, CA03, -120.220, 39.140, 6655, 29.3, 16.10
TAHOE CITY CROSS, Placer, CA03, -120.150, 39.170, 6797, 29.8, 9.00
SQUAW VALLEY G.C., Placer, CA03, -120.260, 39.190, 8029, 24.5, 15.90
CSS LAB, Nevada, CA02, -120.370, 39.330, 6855, 26.8, 17.40
RUBICON #2, El Dorado, CA03, -120.130, 39.000, 7689, 27.1, 10.60
ECHO PEAK, El Dorado, CA03, -120.080, 38.850, 7670, 26.4, 15.10
FALLEN LEAF, El Dorado, CA03, -120.050, 38.930, 6236, 30.5, 6.10
BEAR VALLEY F.D., Kern, CA01, -118.644, 35.166, 4100, 37.5, 3.71
CAMPO ASOS, San Diego, CA07, -116.468, 32.626, 2641, 45.4, 3.37
Burbank Glendale Pasadena Area, -, -, -, -, -, 53.0, 3.81
Camarillo Area, -, -, -, -, -, 50.6, 2.84
Needles Area, -, -, -, -, -, 61.6, 0.12
Oxnard Area, -, -, -, -, -, 52.3, 3.39
Palm Springs Area, -, -, -, -, -, 60.7, 0.71
Riverside Area, -, -, -, -, -, M, M
Ramona Area, -, -, -, -, -, 48.7, 3.52
Northern CA 8 Station Index, -, -, -, -, -, M, 14.07
San Joaquin 5 Station Index, -, -, -, -, -, M, 11.54
Crescent City Area, -, -, -, -, -, 46.2, 14.35
Escondido Area, -, -, -, -, -, 54.0, 3.02
Sacramento Downtown Area, -, -, -, -, -, 51.5, 6.02
Tahoe City Area, -, -, -, -, -, 28.1, 6.43
Ukiah Area, -, -, -, -, -, 45.9, 11.15
Alturas Area, -, -, -, -, -, 33.3, 1.87
Mount Shasta Area, -, -, -, -, -, 34.2, 13.11
Palmdale Area, -, -, -, -, -, 47.1, 1.02
Lancaster Area, -, -, -, -, -, 47.8, 1.02
El Cajon Area, -, -, -, -, -, 55.0, 2.68
Hanford Area, -, -, -, -, -, 49.1, 2.60
El Centro Area, -, -, -, -, -, 61.3, 0.36
Madera Area, -, -, -, -, -, 49.1, 4.27
Merced Area, -, -, -, -, -, 48.7, 3.37
San Jose Area, -, -, -, -, -, 51.1, 4.55
LIVERMORE CALIFORNIA, Alameda, CA04, -121.814, 37.712, 800, 49.2, M
LYONS VALLEY CALIFORNIA, Lake, CA01, -123.074, 39.126, 3200, 36.6, M
LYTLE CREEK CALIFORNIA, San Bernardino, CA06, -117.480, 34.234, 2792, 47.1, M
MAD RIVER CALIFORNIA, Trinity, CA01, -123.524, 40.463, 2775, 38.4, M
MALIBU HILLS CALIFORNIA, Los Angeles, CA06, -118.633, 34.058, 1575, 51.2, M
MANZANITA LAKE CALIFORNIA, Shasta, CA02, -121.580, 40.540, 5660, 29.8, M
MAPLE CREEK CALIFORNIA, Humboldt, CA01, -123.937, 40.796, 1680, 35.7, M
MARIPOSA GROVE CALIFORNIA, Mariposa, CA05, -119.605, 37.513, 6400, 32.1, M
MILL CREEK (BDF) CALIFORNIA, San Bernardino, CA06, -117.035, 34.084, 2950, 48.0, M
MCGUIRES CALIFORNIA, Mendocino, CA01, -123.601, 39.353, 593, 45.0, M
MEANS LAKE CALIFORNIA, San Bernardino, CA07, -116.517, 34.391, 2900, 50.6, M
METCALF GAP CALIFORNIA, Madera, CA05, -119.768, 37.409, 3077, 43.9, M
MEYERS CALIFORNIA, El Dorado, CA03, -120.018, 38.849, 6310, 29.5, M
MID HILLS CALIFORNIA, San Bernardino, CA07, -115.411, 35.123, 5413, 40.7, M
MILL CREEK (ANF) CALIFORNIA, Los Angeles, CA06, -118.082, 34.390, 5021, 39.3, M
MILO CALIFORNIA, Tulare, CA05, -118.869, 36.231, 1923, 47.7, M
MALLORY RIDGE CALIFORNIA, Contra Costa, CA05, -121.779, 37.817, 2040, 44.1, M
MONTECITO CALIFORNIA, Santa Barbara, CA06, -119.648, 34.461, 1500, 51.1, M
MODOC NWR CALIFORNIA, Modoc, CA02, -120.354, 41.459, 4380, 34.4, M
MOJAVE RIVER SINK CALIFORNIA, San Bernardino, CA07, -116.079, 35.053, 950, 56.5, M
MORMON ROCK CALIFORNIA, San Bernardino, CA06, -117.502, 34.318, 3300, 45.6, M
MOUNTAIN REST CALIFORNIA, Fresno, CA05, -119.371, 37.054, 4100, 38.3, M
MARKLEEVILLE CALIFORNIA, Alpine, CA03, -119.767, 38.683, 5501, 34.3, M
MT. SHASTA CALIFORNIA, Siskiyou, CA02, -122.316, 41.316, -, 36.2, M
MARIPOSA CALIFORNIA, Mariposa, CA05, -119.987, 37.504, 2231, 43.7, M
MT. DIABLO CALIFORNIA, Contra Costa, CA05, -121.914, 37.882, 3849, 35.5, M
MOUNT ZION CALIFORNIA, Amador, CA05, -120.651, 38.389, 2960, 43.6, M
NORTH FORK CALIFORNIA, Madera, CA05, -119.505, 37.233, 2720, 42.9, M
OAK BOTTOM CALIFORNIA, Shasta, CA02, -122.606, 40.651, 1326, 43.3, M
OAK KNOLL CALIFORNIA, Siskiyou, CA01, -122.850, 41.839, 1940, 41.8, M
OAK MOUNTAIN CALIFORNIA, Shasta, CA02, -121.983, 41.006, 1700, 38.8, M
OAK CREEK CALIFORNIA, Inyo, CA07, -118.259, 36.843, 4855, 43.4, M
OJAI CALIFORNIA, Ventura, CA06, -119.230, 34.448, 765, 48.2, M
OAK GROVE CALIFORNIA, San Diego, CA06, -116.795, 33.393, 2752, 47.9, M
OAK OPENING CALIFORNIA, Tulare, CA05, -118.702, 36.175, 3240, 43.7, M
OAKLAND SOUTH CALIFORNIA, Alameda, CA04, -122.145, 37.786, 1095, 48.4, M
OPAL MOUNTAIN CALIFORNIA, San Bernardino, CA07, -117.176, 35.154, 3240, 48.0, M
OWENS CAMP LOC CALIFORNIA, El Dorado, CA02, -120.245, 38.733, 5240, 34.5, M
OWENS VALLEY CALIFORNIA, Inyo, CA07, -118.551, 37.390, 4640, 42.2, M
OZENA CALIFORNIA, Ventura, CA06, -119.354, 34.682, 3670, 43.3, M
PANAMINT CALIFORNIA, Inyo, CA07, -117.088, 36.120, 6880, 36.2, M
PARKFIELD CALIFORNIA, Monterey, CA04, -120.432, 35.899, 1535, 45.5, M
PATTY MOCUS CALIFORNIA, Tehama, CA02, -122.867, 40.295, 3500, 35.9, M
PINE HILLS CALIFORNIA, San Diego, CA06, -116.634, 33.016, -, 43.7, M
PIERCE CALIFORNIA, Plumas, CA02, -120.642, 40.246, 5700, 32.5, M
PINEHURST CALIFORNIA, Fresno, CA05, -119.000, 36.685, 4060, 39.5, M
PIKE COUNTY LOOKOUT CALIFORNIA, Yuba, CA02, -121.202, 39.475, 3714, 36.7, M
PILOT HILL CALIFORNIA, El Dorado, CA02, -121.009, 38.833, 1200, 45.5, M
PIRU CALIFORNIA, Ventura, CA06, -118.810, 34.404, 614, 50.9, M
PARK RIDGE CALIFORNIA, Tulare, CA05, -118.942, 36.724, 7540, 29.3, M
PINNACLES CALIFORNIA, San Benito, CA04, -121.147, 36.471, 1322, 47.1, M
POPPY PARK CALIFORNIA, Los Angeles, CA07, -118.383, 34.733, 2760, 46.5, M
POTRERO CALIFORNIA, San Diego, CA06, -116.609, 32.606, 2345, 47.5, M
POVERTY CALIFORNIA, Santa Clara, CA04, -121.771, 37.443, 2066, 44.3, M
PANOCHE ROAD CALIFORNIA, Fresno, CA05, -120.766, 36.727, 2032, 46.3, M
QUARTZ HILL CALIFORNIA, Siskiyou, CA01, -122.934, 41.599, 4225, 35.5, M
QUINCY RD CALIFORNIA, Plumas, CA02, -120.942, 39.973, 3500, 38.9, M
RAVENDALE CALIFORNIA, Lassen, CA03, -120.316, 40.731, 5298, 32.3, M
RANCHITA CALIFORNIA, San Diego, CA07, -116.497, 33.222, 4415, 43.0, M
READER RANCH CALIFORNIA, Nevada, CA02, -121.117, 39.304, 1968, 43.7, M
REDDING AIRPORT CALIFORNIA, Shasta, CA02, -122.291, 40.516, 500, 46.7, M
RICE VALLEY CALIFORNIA, Riverside, CA07, -114.732, 34.061, 820, 58.5, M
ROCK CREEK, Mono, CA07, -118.667, 37.551, 7040, 30.8, M
RODEO VALLEY, Mendocino, CA01, -123.321, 39.668, 2428, 39.6, M
ROSE VALLEY CALIFORNIA, Ventura, CA06, -119.184, 34.543, 3331, 40.8, M
ROUND MOUNTAIN, Siskiyou, CA02, -121.464, 41.427, 5258, 30.5, M
ROSE PEAK CALIFORNIA, Alameda, CA04, -121.735, 37.502, 3060, 39.6, M
RUSH CREEK CALIFORNIA, Modoc, CA02, -120.864, 41.294, 4800, 31.4, M
RUTH CALIFORNIA, Trinity, CA01, -123.316, 40.251, 2732, 38.9, M
SACRAMENTO NWR CALIFORNIA, Glenn, CA02, -122.182, 39.417, 120, 49.4, M
SADDLEBACK BUTTE CALIFORNIA, Los Angeles, CA07, -117.821, 34.685, 2590, 47.2, M
SAUGUS CALIFORNIA, Los Angeles, CA06, -118.525, 34.425, 1450, 50.0, M
SAWYERS BAR CALIFORNIA, Siskiyou, CA01, -123.132, 41.300, 2192, 40.8, M
SANTA BARBARA ISLAND CALIFORNI, Santa Barbara, CA06, -119.033, 33.483, 176, 52.3, M
SANTA CRUZ ISLAND CALIFORNIA, Santa Barbara, CA06, -119.722, 33.996, 250, 51.4, M
SCORPION CALIFORNIA, Trinity, CA01, -122.697, 41.112, 4400, 37.1, M
SODA CREEK CALIFORNIA, Lake, CA01, -122.977, 39.425, 1773, 41.6, M
SADDLEBACK CALIFORNIA, Sierra, CA02, -120.865, 39.638, 6670, 27.3, M
SECRET TOWN CALIFORNIA, Nevada, CA02, -120.885, 39.184, 2826, 40.5, M
SANTA FE DAM CALIFORNIA, Los Angeles, CA06, -117.946, 34.121, 500, 55.8, M
SHAVER CALIFORNIA, Fresno, CA05, -119.256, 37.135, 5746, 32.0, M
SCHOOL HOUSE CALIFORNIA, Humboldt, CA01, -123.906, 41.138, 2640, 37.5, M
SHIP MTN. CALIFORNIA, Del Norte, CA01, -123.792, 41.736, 5300, 27.9, M
SHADEQUARTER CALIFORNIA, Tulare, CA05, -118.956, 36.567, 4069, 38.6, M
SIMS CALIFORNIA, Shasta, CA02, -122.373, 41.075, 2400, 38.7, M
SIMI VALLEY CALIFORNIA, Ventura, CA06, -118.814, 34.291, 914, 50.3, M
SAN MIGUEL CALIFORNIA, San Diego, CA06, -116.974, 32.685, 425, 55.1, M
SAN LUIS NWR CALIFORNIA, Merced, CA05, -120.794, 37.182, 65, 50.1, M
SANTA RITA CALIFORNIA, San Benito, CA05, -120.598, 36.348, 5000, 35.3, M
SOLDIER MOUNTAIN CALIFORNIA, Shasta, CA02, -121.586, 40.926, 3710, 37.6, M
SOMES BAR CALIFORNIA, Siskiyou, CA01, -123.496, 41.390, 920, 45.5, M
SQUAW SPRINGS CALIFORNIA, San Bernardino, CA07, -117.568, 35.370, 3620, 46.3, M
SQUAW LAKE CALIFORNIA, Imperial, CA07, -114.494, 32.908, 300, 63.3, M