Name, County, ClimateDivision, Longitude, Latitude, Elevation, MeanAvgTemperature, TotalPrecipitation
IMPERIAL, Imperial, CA07, -115.567, 32.849, -64, 66.7, 0.00
EL CAPITAN DAM, San Diego, CA06, -116.815, 32.886, 600, 64.1, 0.01
LAKESIDE 2 E, San Diego, CA06, -116.895, 32.854, 690, M, 0.45
POWAY VALLEY, San Diego, CA06, -117.031, 33.020, 648, 64.0, 0.00
JULIAN CDF, San Diego, CA06, -116.592, 33.076, 4215, 55.7, T
RAMONA FIRE DEPT, San Diego, CA06, -116.908, 33.011, 1470, 60.1, 0.15
SAN PASQUAL ANIMAL PK, San Diego, CA06, -116.997, 33.096, 420, 62.5, 0.20
CARLSBAD MCCLELLAN PALOMAR AP, San Diego, CA06, -117.277, 33.130, 313, 61.6, 0.28
HENSHAW DAM, San Diego, CA06, -116.761, 33.237, 2700, 54.2, 0.21
VISTA, San Diego, CA06, -117.232, 33.235, 430, 63.8, 0.03
OCEANSIDE MARINA, San Diego, CA06, -117.395, 33.210, 10, 59.4, 0.00
BORREGO DESERT PARK, San Diego, CA07, -116.404, 33.256, 810, 67.5, 0.00
OAK GROVE RS, San Diego, CA06, -116.792, 33.386, 2750, M, 0.00
PALOMAR MTN OBSERVATORY, San Diego, CA06, -116.840, 33.378, 5550, 54.4, 0.22
TEMECULA, Riverside, CA06, -117.151, 33.497, 1020, 60.5, 0.01
MECCA FIRE STATION, Riverside, CA07, -116.073, 33.570, -183, 73.0, 0.00
LAGUNA BEACH, Orange, CA06, -117.781, 33.545, 44, 61.5, 0.17
BLYTHE ASOS, Riverside, CA07, -114.715, 33.619, 395, 64.4, 0.00
DESERT RESORTS REGIONAL AP, Riverside, CA07, -116.164, 33.632, -118, 64.0, 0.00
DEEP CANYON LAB, Riverside, CA07, -116.376, 33.651, 1200, M, 0.00
ELSINORE, Riverside, CA06, -117.346, 33.686, 1268, 61.4, 0.00
SANTA ANA JOHN WAYNE AP, Orange, CA06, -117.867, 33.680, 43, 64.4, 0.17
HAYFIELD PUMPING PLANT, Riverside, CA07, -115.629, 33.704, 1370, 61.9, 0.00
IDYLLWILD FIRE DEPT, Riverside, CA06, -116.707, 33.757, 5380, 49.4, 0.37
SAN JACINTO, Riverside, CA06, -116.975, 33.797, 1525, 61.3, 0.07
HEMET, Riverside, CA06, -116.894, 33.738, 1811, 61.4, 0.07
SANTA ANA FIRE STATION, Orange, CA06, -117.867, 33.744, 135, 65.0, 0.11
EAGLE MOUNTAIN, Riverside, CA07, -115.451, 33.809, 973, 65.5, 0.00
PALM SPRINGS, Riverside, CA07, -116.510, 33.828, 425, 68.4, 0.00
LONG BEACH DAUGHERTY AP, Los Angeles, CA06, -118.147, 33.812, 34, 63.5, 0.11
PALOS VERDES ES FC43D, Los Angeles, CA06, -118.391, 33.800, 220, M, 0.20
SNOW CREEK UPPER, Riverside, CA07, -116.680, 33.873, 1940, M, 0.00
FULLERTON MUNICIPAL AP, Orange, CA06, -117.986, 33.872, 86, 64.1, 0.15
BEAUMONT #2, Riverside, CA07, -116.990, 33.926, 2591, 61.0, 0.00
YORBA LINDA, Orange, CA06, -117.819, 33.890, 350, 63.9, 0.00
DOWNEY FIRE DEPT. FC107C, Los Angeles, CA06, -118.145, 33.930, 110, M, 0.00
HAWTHORNE MUNICIPAL AP, Los Angeles, CA06, -118.333, 33.924, 55, 65.0, 0.28
LOS ANGELES INTL AP, Los Angeles, CA06, -118.387, 33.938, 97, 63.6, 0.25
RIVERSIDE FIRE STATION 3, Riverside, CA06, -117.388, 33.951, 840, 64.1, 0.00
RIVERSIDE MUNICIPAL AP, Riverside, CA06, -117.435, 33.953, 845, 61.0, 0.05
CHINO AP, San Bernardino, CA06, -117.625, 33.976, 636, 60.8, 0.10
WHITTIER CITY YARD FC106C, Los Angeles, CA06, -118.022, 33.976, 446, M, 0.04
RIVERSIDE CITRUS EXP, Riverside, CA06, -117.361, 33.967, 986, 64.6, 0.05
CULVER CITY, Los Angeles, CA06, -118.414, 34.005, 92, 61.4, 0.25
SANTA MONICA MUNICIPAL AP, Los Angeles, CA06, -118.447, 34.021, 175, 62.3, 0.17
SANTA MONICA PIER, Los Angeles, CA06, -118.500, 34.008, 14, 63.0, 0.13
ONTARIO INTL AP, San Bernardino, CA06, -117.577, 34.053, 924, 63.3, 0.15
POMONA/FAIRPLEX, Los Angeles, CA06, -117.766, 34.082, 999, 54.0, 0.00
COVINA CITY YARD FC387B, Los Angeles, CA06, -117.880, 34.092, 607, M, 0.22
U C L A, Los Angeles, CA06, -118.443, 34.070, 430, 65.9, 0.14
TOPANGA PATROL FC-6, Los Angeles, CA06, -118.599, 34.084, 745, M, 0.19
IRON MOUNTAIN, San Bernardino, CA07, -115.122, 34.147, 922, 65.8, 0.00
TWENTYNINE PALMS, San Bernardino, CA07, -116.037, 34.128, 1975, 61.2, 0.00
SAN DIMAS FIRE FC 95, Los Angeles, CA06, -117.802, 34.105, 958, M, 0.00
GLENDORA FC 287B, Los Angeles, CA06, -117.847, 34.147, 933, M, 0.08
SAN GABRIEL FIRE DEPT, Los Angeles, CA06, -118.100, 34.084, 363, 64.2, 0.12
POINT MUGU NF, Ventura, CA06, -119.123, 34.124, 12, 59.0, T
SAN GABRIEL CANYON PH, Los Angeles, CA06, -117.908, 34.155, 744, M, 0.15
WOODLAND HILLS PIERCE COLLEGE, Los Angeles, CA06, -118.574, 34.182, 790, 63.5, 0.11
LYTLE CREEK R S, San Bernardino, CA06, -117.471, 34.238, 2730, M, 0.00
MT WILSON CBS, Los Angeles, CA06, -118.071, 34.231, 5710, 56.1, 0.11
LA CRESCENTA FC251 C, Los Angeles, CA06, -118.238, 34.222, 1545, M, 0.10
VAN NUYS AP, Los Angeles, CA06, -118.491, 34.212, 785, 63.9, 0.15
CAMARILLO AP, Ventura, CA06, -119.088, 34.211, 71, 60.4, 0.07
OXNARD VENTURA COUNTY AP, Ventura, CA06, -119.204, 34.200, 39, 60.7, 0.15
PARKER RESRVOIR, San Bernardino, CA07, -114.171, 34.290, 738, 65.4, 0.00
TWENTYNINE PALMS MC, San Bernardino, CA07, -116.147, 34.294, 2003, 59.7, 0.00
BIG BEAR LAKE, San Bernardino, CA06, -116.917, 34.243, 6753, 43.9, 0.08
LAKE ARROWHEAD, San Bernardino, CA07, -117.188, 34.247, 5205, 46.5, 0.40
CHATSWORTH FC 24 F, Los Angeles, CA06, -118.600, 34.250, 950, M, 2.13
CRYSTAL LAKE FC238C, Los Angeles, CA06, -117.842, 34.318, 5345, M, 0.78
BIG TUJUNGA DAM FC46, Los Angeles, CA06, -118.188, 34.295, 2326, M, 0.08
PACOIMA DAM FC33A-E, Los Angeles, CA06, -118.400, 34.329, 1550, M, 0.09
SANTA PAULA, Ventura, CA06, -119.133, 34.312, 237, 62.1, 0.00
SANTA BARBARA MUNI AP, Santa Barbara, CA06, -119.842, 34.424, 8, 58.2, 0.27
VICTORVILLE, San Bernardino, CA07, -117.293, 34.529, 2880, 56.6, 0.00
ACTON ESCONDIDO FC261, Los Angeles, CA06, -118.271, 34.494, 2833, M, 0.04
GIBRALTAR DAM NO. 2, Santa Barbara, CA06, -119.682, 34.523, 1558, M, 0.23
PALMDALE, Los Angeles, CA07, -118.094, 34.588, 2612, 55.6, 0.00
SAUGUS POWER PLANT 1, Los Angeles, CA06, -118.454, 34.590, 2161, M, 0.01
CACHUMA LAKE, Santa Barbara, CA06, -119.982, 34.582, 789, 58.9, 0.20
SALSIPUEDES GAGING STATION, Santa Barbara, CA06, -120.408, 34.585, 254, M, 0.44
EL MIRAGE, San Bernardino, CA07, -117.630, 34.589, 2950, 52.8, 0.00
PALMDALE AP, Los Angeles, CA07, -118.083, 34.629, 2509, 54.9, T
LOMPOC, Santa Barbara, CA06, -120.451, 34.654, 75, 58.8, 0.40
LANCASTER, Los Angeles, CA06, -118.213, 34.741, 2338, 53.4, T
SANDBERG, Los Angeles, CA06, -118.724, 34.744, 4510, 52.3, 0.11
LOS ALAMOS, Santa Barbara, CA06, -120.280, 34.746, 565, 53.5, 0.01
LEBEC, Kern, CA05, -118.865, 34.833, 3575, 50.2, 0.73
CHUCHUPATE RANGER STN, Ventura, CA05, -119.011, 34.808, 5260, 46.7, 0.29
GAREY SISQUOC RIVER, Santa Barbara, CA06, -120.305, 34.894, 355, M, 0.12
MITCHELL CAVERNS, San Bernardino, CA07, -115.547, 34.944, 4350, 57.4, 0.00
NEW CUYAMA FIRE STATION, Santa Barbara, CA06, -119.683, 34.946, 2160, 54.2, 0.11
TWITCHELL DAM, Santa Barbara, CA06, -120.321, 34.988, 582, 62.0, 0.32
MOJAVE, Kern, CA07, -118.162, 35.049, 2735, 58.1, 0.00
PISMO BEACH, San Luis Obispo, CA04, -120.683, 35.160, 39, 59.5, 0.27
TAFT, Kern, CA05, -119.430, 35.150, 773, 56.5, 0.14
BAKER, San Bernardino, CA07, -116.063, 35.276, 962, 59.3, 0.00
SALINAS DAM, San Luis Obispo, CA04, -120.504, 35.337, 1392, M, 0.13
RANDSBURG, Kern, CA07, -117.652, 35.369, 3570, 55.4, 0.00
SANTA MARGARITA BOOST, San Luis Obispo, CA04, -120.637, 35.374, 1148, M, 0.21
MORRO BAY FIRE DEPT, San Luis Obispo, CA04, -120.845, 35.367, 118, 57.5, 0.49
BAKERSFIELD AP, Kern, CA05, -119.055, 35.434, 490, 55.4, 0.02
BUTTONWILLOW, Kern, CA05, -119.470, 35.403, 225, 54.8, 0.14
MOUNTAIN PASS, San Bernardino, CA07, -115.544, 35.470, 4730, 53.8, 0.00
GLENNVILLE, Kern, CA05, -118.701, 35.727, 3140, 47.2, 0.24
TRONA, San Bernardino, CA07, -117.391, 35.764, 1695, 58.7, 0.00
KERN RIVER PH 3, Kern, CA05, -118.439, 35.783, 2703, 53.1, 0.00
DELANO, Kern, CA05, -119.260, 35.768, 302, 55.1, 0.04
BRADLEY TELEMETERING, Monterey, CA04, -120.868, 35.930, 443, M, 0.08
SHOSHONE, Inyo, CA07, -116.271, 35.972, 1546, M, 0.00
PORTERVILLE MUNICIPAL AIRPORT, Tulare, CA05, -119.062, 36.029, 442, 54.8, 0.09
KETTLEMAN CITY, Kings, CA05, -119.960, 36.007, 240, 54.8, 0.18
HAIWEE, Inyo, CA07, -117.953, 36.139, 3825, 47.4, 0.00
CORCORAN IRRIGATION DIST., Kings, CA05, -119.582, 36.098, 200, 55.1, 0.20
COALINGA, Fresno, CA05, -120.361, 36.136, 670, 57.4, 0.00
PRIEST VALLEY, Monterey, CA04, -120.695, 36.188, 2300, 49.0, 0.58
KING CITY, Monterey, CA04, -121.138, 36.207, 320, 55.6, 0.52
LINDSAY, Tulare, CA05, -119.054, 36.203, 435, 54.4, 0.01
ARROYO SECO RIVER, Monterey, CA04, -121.481, 36.238, 805, M, 0.07
BIG SUR STATION, Monterey, CA04, -121.780, 36.247, 200, 55.8, 2.81
VISALIA, Tulare, CA05, -119.300, 36.328, 303, 54.5, 0.03
FIVE POINTS 5 SSW, Fresno, CA05, -120.156, 36.364, 285, 53.6, 0.08
SAN CLEMENTE DAM, Monterey, CA04, -121.709, 36.438, 600, M, 1.16
ASH MOUNTAIN, Tulare, CA05, -118.825, 36.491, 1708, 56.5, 0.43
THREE RIVERS EDISON PH 1, Tulare, CA05, -118.862, 36.465, 1140, 53.2, 0.32
PINNACLES NATIONAL PARK, San Benito, CA04, -121.182, 36.482, 1307, 53.9, 0.89
CARMEL VALLEY, Monterey, CA04, -121.724, 36.481, 480, 55.3, 1.51
LODGEPOLE, Tulare, CA05, -118.732, 36.604, 6735, 36.1, 1.01
PANOCHE 2 W, San Benito, CA05, -120.884, 36.607, 1400, M, 0.37
MONTEREY, Monterey, CA04, -121.855, 36.593, 122, 55.1, 1.86
SALINAS NO. 2, Monterey, CA04, -121.666, 36.659, 45, 55.8, 2.01
SALINAS AP, Monterey, CA04, -121.609, 36.664, 73, 54.8, 1.32
GRANT GROVE, Tulare, CA05, -118.962, 36.738, 6580, 43.5, 0.93
PAICINES 4 W, San Benito, CA04, -121.349, 36.715, 905, 39.2, 0.00
PINE FLAT DAM, Fresno, CA05, -119.337, 36.821, 615, M, 0.03
LOS BANOS ARBURUA RANCH, Merced, CA05, -120.939, 36.875, 843, M, 0.53
HOLLISTER 2, San Benito, CA04, -121.421, 36.848, 275, 54.7, 0.71
CHITTENDEN PASS, Santa Cruz, CA04, -121.597, 36.900, 82, M, 1.52
BALCH POWER HOUSE, Fresno, CA05, -119.088, 36.909, 1735, 54.5, 0.54
WATSONVILLE WATERWORKS, Santa Cruz, CA04, -121.769, 36.931, 95, 55.1, 1.52
FRIANT GOVERNMENT CAMP, Fresno, CA05, -119.707, 36.997, 410, 55.0, 0.61
MADERA, Madera, CA05, -120.038, 36.954, 270, 53.3, 0.56
WISHON DAM, Fresno, CA05, -118.984, 37.007, 6550, 43.7, 1.24
LOS BANOS DET RESV, Merced, CA05, -120.930, 36.990, 407, 53.3, 0.41
GILROY, Santa Clara, CA04, -121.561, 37.003, 194, 55.1, 0.33
AUBERRY 2 NW, Fresno, CA05, -119.513, 37.092, 2090, 52.0, 0.77
LOS BANOS, Merced, CA05, -120.867, 37.056, 120, 55.3, 0.28
SAN LUIS DAM, Merced, CA05, -121.058, 37.053, 277, 56.1, 0.55
BEN LOMOND NO. 4, Santa Cruz, CA04, -122.080, 37.086, 420, 54.8, 3.90
MORGAN HILL, Santa Clara, CA04, -121.602, 37.136, 375, 56.4, 0.36
ASPENDELL, Inyo, CA01, -118.599, 37.232, 8470, 41.3, T
HUNTINGTON LAKE, Fresno, CA05, -119.221, 37.228, 7020, 39.8, 1.97
BIG CREEK PH 1, Fresno, CA05, -119.242, 37.206, 4878, 48.9, 0.93
NORTH FORK RS, Madera, CA05, -119.510, 37.233, 2645, 52.9, 1.23
LOS GATOS, Santa Clara, CA04, -121.959, 37.232, 365, 53.6, 0.44
COARSEGOLD 1 SW, Madera, CA05, -119.705, 37.250, 2230, M, 0.91
NEWMAN, Stanislaus, CA05, -121.018, 37.281, 90, 55.4, 0.56
MOUNT HAMILTON, Santa Clara, CA04, -121.635, 37.343, 4220, 47.3, 3.31
SAN GREGORIO 2 SE, San Mateo, CA04, -122.362, 37.312, 275, 52.3, 2.65
DEEP SPRINGS COLLEGE, Inyo, CA07, -117.980, 37.374, 5225, 41.8, T
BISHOP AIRPORT, Inyo, CA07, -118.359, 37.371, 4110, 46.9, 0.00
MOFFETT FEDERAL AIRFIELD, Santa Clara, CA04, -122.048, 37.406, 39, 55.6, 0.77
WOODSIDE FIRE STATION 1, San Mateo, CA04, -122.256, 37.429, 380, 53.5, 3.36
TURLOCK #2, Stanislaus, CA05, -120.846, 37.502, 103, 54.8, 0.79
PALO ALTO, Santa Clara, CA04, -122.140, 37.444, 25, 53.3, 1.03
REDWOOD CITY, San Mateo, CA04, -122.239, 37.477, 31, 54.3, 0.49
HALF MOON BAY, San Mateo, CA04, -122.443, 37.473, 27, 53.1, 2.38
SO ENTRANCE YOSEMITE N.P., Mariposa, CA05, -119.633, 37.512, 5047, 42.1, 1.59
MARIPOSA R S, Mariposa, CA05, -119.986, 37.495, 2100, 53.4, 2.19
NEWARK, Alameda, CA04, -122.032, 37.515, 10, 56.0, 1.31
EXCHEQUER DAM, Mariposa, CA05, -120.267, 37.585, 442, M, 1.79
MODESTO AP, Stanislaus, CA05, -120.955, 37.625, 87, 55.3, 0.95
HAYWARD AIR TERMINAL, Alameda, CA04, -122.121, 37.659, 31, 55.3, 1.68
TRACY CARBONA, San Joaquin, CA05, -121.347, 37.682, 135, 55.4, 0.49
LIVERMORE MUNICIPAL AP, Alameda, CA04, -121.815, 37.693, 393, 53.7, 1.56
OAKLAND INTERNATIONAL AIRPORT, Alameda, CA04, -122.233, 37.718, 5, 54.7, 2.25
UPPER SAN LEANDRO FILTERS, Alameda, CA04, -122.167, 37.772, 394, M, 2.50
SAN FRANCISCO DOWNTOWN, San Francisco, CA04, -122.427, 37.771, 150, 56.3, 3.05
SAN FRANCISCO OCEANSIDE, San Francisco, CA04, -122.505, 37.728, 8, 55.1, 2.60
GROVELAND RS, Tuolumne, CA05, -120.098, 37.823, 3145, M, 2.33
GROVELAND 2, Tuolumne, CA05, -120.226, 37.844, 2800, 45.1, 2.32
TRACY PUMPING PLANT, Alameda, CA05, -121.583, 37.796, 61, 55.7, 1.33
OAKLAND MUSEUM, Alameda, CA04, -122.264, 37.798, 30, 57.1, 1.67
MATHER, Tuolumne, CA05, -119.856, 37.885, 4510, M, 2.50
MOUNT DIABLO JUNCTION, Contra Costa, CA04, -121.930, 37.879, 2170, 49.5, 2.27
STOCKTON AP, San Joaquin, CA05, -121.226, 37.890, 27, 54.3, 1.08
RICHMOND, Contra Costa, CA04, -122.377, 37.919, 20, 56.1, 2.30
MUIR WOODS, Marin, CA01, -122.569, 37.898, 220, M, 6.58
HETCH HETCHY, Tuolumne, CA05, -119.783, 37.961, 3870, 46.7, 2.86
CHERRY VALLEY DAM, Tuolumne, CA05, -119.916, 37.975, 4765, 45.8, 2.44
SONORA, Tuolumne, CA05, -120.387, 37.967, 1675, 49.8, 2.44
STOCKTON FIRE STA 4, San Joaquin, CA05, -121.318, 37.999, 12, 55.3, 1.61
ANTIOCH PUMPING PLANT #3, Contra Costa, CA05, -121.752, 37.983, 60, 55.1, 0.71
CONCORD BUCHANAN FIELD, Contra Costa, CA04, -122.053, 37.992, 23, 55.0, 1.15
CONCORD WASTEWATER PLANT, Contra Costa, CA04, -122.069, 37.983, 40, 55.7, 1.45
SAN RAFAEL-CIVIC CENTER, Marin, CA01, -122.537, 37.998, 120, 61.5, 0.00
KENTFIELD, Marin, CA01, -122.545, 37.957, 145, 54.5, 4.57
MARTINEZ WATER PLANT, Contra Costa, CA04, -122.114, 38.013, 40, 52.7, 1.84
BODIE CALIFORNIA STATE HISTORIC PARK, Mono, CA03, -119.014, 38.212, 8370, 30.9, 0.05
ACAMPO 5NE, San Joaquin, CA05, -121.201, 38.218, 87, M, 0.84
NAPA COUNTY AIRPORT, Napa, CA04, -122.280, 38.208, 16, 52.2, 1.04
BRIDGEPORT, Mono, CA03, -119.229, 38.258, 6470, 37.1, 0.02
CALAVERAS BIG TREES, Calaveras, CA05, -120.311, 38.277, 4695, 41.3, 4.41
CAMP PARDEE, Calaveras, CA05, -120.843, 38.249, 658, 54.2, 1.36
FAIRFIELD, Solano, CA02, -122.068, 38.274, 40, 54.7, 2.55
SONOMA, Sonoma, CA01, -122.462, 38.299, 97, 53.4, 4.20
SUTTER HILL CDF, Amador, CA05, -120.801, 38.377, 1586, 52.5, 2.40
WEST POINT, Calaveras, CA05, -120.545, 38.378, 2775, M, 3.33
ATLAS ROAD BROWN, Napa, CA01, -122.248, 38.427, 1680, M, 3.08
GRATON, Sonoma, CA01, -122.865, 38.431, 200, 53.0, 5.47
OCCIDENTAL, Sonoma, CA01, -122.966, 38.386, 865, 51.5, 7.29
FIDDLETOWN DEXTER RCH, Amador, CA05, -120.698, 38.525, 2170, M, 2.10
SACRAMENTO AP ASOS, Sacramento, CA02, -121.496, 38.507, 19, 53.4, 1.12
WINTERS, Yolo, CA02, -121.978, 38.525, 135, 55.5, 1.80
LAKE SOLANO, Solano, CA02, -122.004, 38.492, 187, 54.5, 1.68
SAINT HELENA, Napa, CA01, -122.471, 38.507, 225, 54.4, 2.81
SAINT HELENA 4 WSW, Napa, CA01, -122.538, 38.493, 1780, M, 3.60
CAZADERO 5NW, Sonoma, CA01, -123.162, 38.564, 1420, M, 7.79
FORT ROSS, Sonoma, CA01, -123.245, 38.515, 112, 53.2, 5.06
SACRAMENTO 5 ESE, Sacramento, CA02, -121.418, 38.555, 38, 55.6, 1.03
ANGWIN PACIFIC UNION COLLEGE, Napa, CA01, -122.440, 38.573, 1715, 50.4, 3.21
CALISTOGA, Napa, CA01, -122.578, 38.577, 350, 53.4, 2.93
VENADO, Sonoma, CA01, -123.018, 38.609, 1260, M, 4.92
WOODLAND 1 WNW, Yolo, CA02, -121.794, 38.683, 67, 55.4, 1.69
PLACERVILLE, El Dorado, CA02, -120.824, 38.696, 1850, 51.4, 2.94
REPRESA, Sacramento, CA02, -121.161, 38.694, 295, M, 0.68
SACRAMENTO METROPOLITAN AP, Sacramento, CA02, -121.595, 38.701, 24, 53.1, 1.45
PACIFIC HOUSE, El Dorado, CA02, -120.503, 38.758, 3450, M, 6.92
MIDDLETOWN, Lake, CA02, -122.626, 38.748, 1121, M, 3.90
CLOVERDALE, Sonoma, CA01, -123.026, 38.793, 400, 54.7, 2.77
KELSEY 1 N, El Dorado, CA02, -120.821, 38.809, 2000, M, 3.31
SOUTH LAKE TAHOE AP, El Dorado, CA03, -119.996, 38.898, 6257, 37.7, 1.61
GEORGETOWN RS, El Dorado, CA02, -120.801, 38.933, 3001, 46.9, 3.93
AUBURN, Placer, CA02, -121.084, 38.907, 1292, 53.7, 1.36
NICOLAUS #2, Sutter, CA02, -121.545, 38.926, 43, M, 1.55
YORKVILLE, Mendocino, CA01, -123.231, 38.905, 1100, M, 5.52
CLEARLAKE 4 SE, Lake, CA02, -122.567, 38.924, 1349, 47.9, 1.99
FORESTHILL RANGER STATION, Placer, CA02, -120.845, 39.010, 3015, M, 5.78
MARYSVILLE AIRPORT (ASOS), Yuba, CA02, -121.569, 39.102, 62, 52.4, 1.99
UKIAH MUNICIPAL AP, Mendocino, CA01, -123.200, 39.128, 603, 51.3, 4.14
UKIAH 4 WSW, Mendocino, CA01, -123.272, 39.127, 1328, M, 6.80
GOLD RUN 4 SW, Placer, CA02, -120.900, 39.150, 3220, M, 5.77
WILLIAMS, Colusa, CA02, -122.150, 39.150, 85, M, 7.52
UPPER LAKE 2 N, Lake, CA02, -122.896, 39.191, 1335, 53.5, 0.70
GRASS VALLEY NO. 2, Nevada, CA02, -121.068, 39.204, 2400, 46.9, 3.65
HARRY L. ENGLEBRIGHT DAM, Nevada, CA02, -121.267, 39.237, 800, M, 2.99
COLUSA 2 SSW, Colusa, CA02, -122.027, 39.188, 50, 53.2, 1.92
BLUE CANYON NYACK AP, Placer, CA02, -120.709, 39.276, 5286, 43.5, 7.27
NEVADA CITY, Nevada, CA02, -121.001, 39.247, 2781, 47.1, 5.99
TRUCKEE AIRPORT, Nevada, CA03, -120.139, 39.320, 5900, 37.4, 1.79
TRUCKEE RS, Nevada, CA03, -120.173, 39.333, 5823, 36.6, 3.33
DONNER MEMORIAL ST PARK, Nevada, CA03, -120.233, 39.324, 5937, 36.9, 4.21
DEER CREEK FOREBAY, Nevada, CA02, -120.833, 39.300, 4455, M, 2.17
COLGATE POWERHOUSE, Yuba, CA02, -121.192, 39.331, 595, M, 4.23
MOULTON WEIR, Colusa, CA02, -122.017, 39.333, 76, M, 1.32
BOCA, Nevada, CA03, -120.094, 39.389, 5575, 38.0, 1.75
DOBBINS 1 S, Yuba, CA02, -121.201, 39.358, 1640, 49.6, 4.89
STONYFORD, Colusa, CA02, -122.546, 39.375, 1170, M, 0.44
POTTER VALLEY POWERHOUSE, Mendocino, CA01, -123.129, 39.362, 1018, 49.9, 5.78
WILLITS 1 NE, Mendocino, CA01, -123.342, 39.419, 1353, 46.6, 6.38
BOWMAN DAM, Nevada, CA02, -120.656, 39.454, 5385, 41.0, 7.31
OROVILLE, Butte, CA02, -121.553, 39.518, 171, 53.4, 3.64
OROVILLE MUNICIPAL AP, Butte, CA02, -121.622, 39.494, 187, 53.4, 2.35
SIERRAVILLE RS, Sierra, CA02, -120.370, 39.583, 4975, 41.1, 1.16
DOWNIEVILLE, Sierra, CA02, -120.824, 39.563, 2915, 43.9, 8.32
STRAWBERRY VALLEY, Yuba, CA02, -121.108, 39.563, 3808, 44.4, 9.35
STONY GORGE RESERVOIR, Glenn, CA02, -122.534, 39.586, 800, 50.9, 1.27
BRUSH CREEK RANGER STATION, Butte, CA02, -121.345, 39.695, 3560, M, 6.31
PARADISE, Butte, CA02, -121.624, 39.754, 1750, 52.3, 5.60
COVELO, Mendocino, CA01, -123.244, 39.816, 1413, 47.3, 4.80
VINTON, Plumas, CA02, -120.186, 39.806, 4950, M, 1.01
PORTOLA, Plumas, CA02, -120.472, 39.805, 4850, 38.9, 2.26
DE SABLA, Butte, CA02, -121.611, 39.872, 2710, 46.9, 6.34
LEGGETT, Mendocino, CA01, -123.720, 39.874, 703, M, 0.68
STANDISH HICKEY ST PK, Mendocino, CA01, -123.727, 39.878, 853, 48.4, 10.54
BUCKS CREEK, Plumas, CA02, -121.315, 39.937, 1891, M, 6.79
DOYLE 4 SSE, Lassen, CA03, -120.083, 39.972, 4390, 41.7, 1.44
DOYLE, Lassen, CA03, -120.105, 40.027, 4293, M, 0.75
RICHARDSON GR ST PK, Humboldt, CA01, -123.793, 40.026, 503, 49.5, 9.30
SHELTER COVE AVIATION, Humboldt, CA01, -124.073, 40.033, 246, 54.3, 13.94
CANYON DAM, Plumas, CA02, -121.089, 40.171, 4560, 40.1, 2.83
MIRANDA 4 SE, Humboldt, CA01, -123.776, 40.182, 266, M, 2.08
FORT SEWARD, Humboldt, CA01, -123.632, 40.218, 220, M, 6.96
HONEYDEW 1 SW, Humboldt, CA01, -124.132, 40.238, 373, M, 11.96
CHESTER, Plumas, CA02, -121.242, 40.303, 4530, 38.1, 4.72
MINERAL, Tehama, CA02, -121.609, 40.346, 4875, 37.0, 5.21
HARRISON GULCH RS, Shasta, CA02, -122.965, 40.364, 2750, 40.6, 0.06
COLEMAN FISHERIES STATION, Shasta, CA02, -122.143, 40.400, 420, M, 3.87
VOLTA PH, Shasta, CA02, -121.866, 40.458, 2220, M, 5.03
GRIZZLY CREEK STATE PARK, Humboldt, CA01, -123.909, 40.486, 413, M, 9.17
SCOTIA, Humboldt, CA01, -124.104, 40.483, 136, 53.7, 7.65
MANZANITA LAKE, Shasta, CA02, -121.577, 40.541, 5750, 37.8, 3.20
WHISKEYTOWN RESERVOIR, Shasta, CA02, -122.528, 40.612, 1295, 49.2, 5.79
SHASTA DAM, Shasta, CA02, -122.416, 40.714, 1075, 51.7, 6.98
TRINITY RIVER HATCHERY, Trinity, CA01, -122.795, 40.726, 1861, 45.8, 5.54
BIG BAR 4 E, Trinity, CA01, -123.208, 40.741, 1253, 47.3, 5.78
ROUND MOUNTAIN, Shasta, CA02, -121.935, 40.796, 2100, M, 9.39
BUCKHORN, Shasta, CA02, -121.932, 40.880, 3700, M, 12.16
HAT CREEK, Shasta, CA02, -121.543, 40.932, 3015, 40.2, 3.56
PIT RIVER PH 5, Shasta, CA02, -121.977, 40.987, 1458, M, 12.98
WILLOW CREEK 1 NW, Humboldt, CA01, -123.636, 40.947, 464, 49.9, 5.93
FALL RIVER MILLS, Shasta, CA02, -121.435, 41.008, 3300, M, 2.00
ADIN RANGER STATION, Modoc, CA02, -120.945, 41.193, 4202, 39.7, 1.90
DUNSMUIR TREATMENT PL, Siskiyou, CA02, -122.282, 41.183, 2169, 44.3, 8.74
JESS VALLEY, Modoc, CA02, -120.295, 41.268, 5400, 37.7, 2.99
MCCLOUD, Siskiyou, CA02, -122.138, 41.252, 3233, 39.2, 2.97
ORICK, Humboldt, CA01, -124.067, 41.283, 5, M, 9.92
CALLAHAN, Siskiyou, CA01, -122.825, 41.338, 3085, 42.2, 2.95
SAWYERS BAR RS, Siskiyou, CA01, -123.133, 41.301, 2255, 45.1, 8.74
ORLEANS RS, Humboldt, CA01, -123.534, 41.303, 433, 47.7, M
CANBY 3 SW, Modoc, CA02, -120.902, 41.422, 4310, 37.3, 2.94
ALTURAS, Modoc, CA02, -120.544, 41.490, 4378, 39.5, 1.04
KLAMATH, Del Norte, CA01, -124.075, 41.579, 28, 48.9, 20.74
FORT JONES RS, Siskiyou, CA01, -122.848, 41.601, 2729, 42.7, 1.36
LAVA BEDS NAT MON, Siskiyou, CA01, -121.501, 41.702, 4770, 37.9, 1.19
MOUNT HEBRON RS, Siskiyou, CA01, -122.045, 41.783, 4265, 38.7, 0.87
CRESCENT CITY 3 NNW, Del Norte, CA01, -124.215, 41.796, 43, 48.9, 18.97
CRESCENT CITY MCNAMARA AP, Del Norte, CA01, -124.238, 41.784, 56, 49.9, 15.32
OAK KNOLL W. C., Siskiyou, CA01, -122.850, 41.839, 1980, M, 5.23
GASQUET RS, Del Norte, CA01, -123.965, 41.845, 387, M, 23.21
FORT DICK RIVER, Del Norte, CA01, -124.135, 41.881, -, M, 21.88
TULELAKE, Siskiyou, CA01, -121.474, 41.960, 4038, 38.4, 1.14
COPCO NO 1 DAM, Siskiyou, CA01, -122.338, 41.980, 2665, M, 3.68
ELK VALLEY, Del Norte, CA01, -123.718, 41.988, 1708, M, 22.80
PACIFICA 4 SSE, San Mateo, CA04, -122.472, 37.592, 475, 57.8, 1.90
BARSTOW, San Bernardino, CA07, -117.022, 34.893, 2220, 56.7, T
INYOKERN, Kern, CA07, -117.821, 35.651, 2430, 56.0, 0.00
PEARBLOSSOM, Los Angeles, CA07, -117.897, 34.503, 3101, 56.9, 0.00
EL CAJON, San Diego, CA06, -116.928, 32.801, 495, 64.8, 0.00
MARKLEY COVE, Napa, CA02, -122.124, 38.492, 480, 53.7, 1.18
SUSANVILLE 2SW, Lassen, CA03, -120.663, 40.417, 4212, 40.1, 1.10
TEJON RANCHO, Kern, CA05, -118.750, 35.023, 1425, 48.9, 0.32
BURBANK GLENDALE PASADENA AP, Los Angeles, CA06, -118.365, 34.200, 731, 62.8, 0.09
MOUNT SHASTA, Siskiyou, CA02, -122.317, 41.322, 3613, 40.4, 4.05
WATSONVILLE MUNICIPAL AIRPORT, Santa Cruz, CA04, -121.790, 36.939, 162, 54.8, 1.03
SANTA ROSA SONOMA CO AP, Sonoma, CA04, -122.811, 38.504, 119, 52.6, 3.75
OAKHURST, Madera, CA05, -119.653, 37.331, 2230, 45.2, 1.22
LORAINE 5 NNE, Kern, CA05, -118.412, 35.384, 4235, 48.2, 0.04
CORONADO FIRE DEPT, San Diego, CA06, -117.177, 32.692, 18, 62.9, 0.10
FALLBROOK FIRE DEPT, San Diego, CA06, -117.248, 33.384, 698, 64.8, 0.00
DEL MAR FIRE DEPT, San Diego, CA06, -117.262, 32.972, 12, 58.6, 0.13
IMPERIAL BEACH FIRE DEPT, San Diego, CA06, -117.114, 32.576, 22, 64.6, 0.00
LEMON GROVE FIRE DEPARTMENT, San Diego, CA06, -117.030, 32.738, 427, 61.0, 0.20
SPRING VALLEY FIRE DEPT, San Diego, CA06, -117.006, 32.710, 270, 62.6, 0.10
SANTEE FIRE DEPT, San Diego, CA06, -116.973, 32.841, 340, 64.0, 0.00
LEE VINING, Mono, CA07, -119.119, 37.957, 6797, 41.9, 0.35
ANAHEIM, Orange, CA06, -117.842, 33.865, 235, 66.8, 0.00
RED BLUFF TREATMENT PLANT, Tehama, CA02, -122.220, 40.162, 265, M, 2.30
NEW MELONES DAM HQ, Tuolumne, CA05, -120.486, 38.005, 960, 55.3, 2.17
POINT REYES ALERT, Marin, CA01, -122.930, 38.101, 175, M, 1.11
MAMMOTH LAKES RS, Mono, CA07, -118.962, 37.648, 7804, 40.4, 0.64
BIG SUR 3 SE, Monterey, CA04, -121.772, 36.246, 240, M, 0.12
FRAZIER PARK 9 SW, Ventura, CA05, -119.104, 34.733, 5169, M, 0.08
CAMPTONVILLE 1SW, Yuba, CA02, -121.071, 39.440, 2500, M, 6.80
MONTEREY WFO, Monterey, CA04, -121.855, 36.593, 122, 54.0, 1.34
SKYLINE RIDGE PRESERVE, San Mateo, CA04, -122.185, 37.313, 2270, 50.0, 2.02
FREMONT, Alameda, CA04, -122.016, 37.542, 38, 55.4, 1.65
MAD RIVER 12 SE, Trinity, CA01, -123.374, 40.319, 2763, M, 8.80
NEWHALL 5NW, Los Angeles, CA06, -118.594, 34.393, 1765, 63.7, T
TEHACHAPI 4 SE, Kern, CA05, -118.422, 35.101, 4220, 48.5, 0.29
REDWOOD CITY #2, San Mateo, CA04, -122.214, 37.488, 10, 56.6, 0.84
WRIGHTWOOD, San Bernardino, CA07, -117.639, 34.362, 6000, 44.2, T
REDDING CDF, Shasta, CA02, -122.299, 40.519, 502, M, 2.32
NORTHRIDGE CAL STATE, Los Angeles, CA06, -118.525, 34.245, 904, 66.1, 0.10
OXNARD WFO, Ventura, CA06, -119.137, 34.207, 52, 61.8, 0.13
LAKEHEAD, Shasta, CA02, -122.391, 40.899, 1398, M, 8.39
HANFORD MUNICIPAL AP, Kings, CA05, -119.623, 36.311, 249, 53.0, 0.20
RAMONA AIRPORT, San Diego, CA06, -116.916, 33.038, 1385, 58.3, 0.17
VACAVILLE/NUT TREE AP ASOS, Solano, CA02, -121.959, 38.378, 104, 54.3, 2.09
ALTURAS MUNICIPAL AP, Modoc, CA02, -120.561, 41.484, 4383, 37.3, 1.46
MADERA MUNICIPAL AP, Madera, CA05, -120.111, 36.985, 251, 53.8, 0.55
BAKERSFIELD 5 NW, Kern, CA05, -119.051, 35.419, 470, 55.6, 0.00
FRESNO 5 NE, Fresno, CA05, -119.709, 36.767, 338, 55.8, 0.30
OCEANSIDE MUNICIPAL AP, San Diego, CA06, -117.350, 33.219, 30, 58.6, 0.19
SAN DIEGO SEAWORLD, San Diego, CA06, -117.231, 32.765, 14, 62.3, 0.10
RIALTO, San Bernardino, CA07, -117.393, 34.130, 1420, 66.2, 0.00
BOULEVARD 2, San Diego, CA07, -116.300, 32.667, 3600, M, 3.47
ARCATA EUREKA AP, Humboldt, CA01, -124.105, 40.978, 211, 51.0, 9.50
CHICO ARMY FLYING SCH, Butte, CA02, -121.850, 39.800, 272, 53.9, 2.66
NEWPORT BEACH HARBOR, Orange, CA06, -117.884, 33.603, 10, 62.5, 0.13
ESCONDIDO NO. 2, San Diego, CA06, -117.090, 33.121, 600, 64.9, 0.00
REDDING AP, Shasta, CA02, -122.298, 40.515, 501, 51.4, 3.88
AVALON CATALINA AP, Los Angeles, CA06, -118.415, 33.404, 1565, 63.1, 1.45
SANTA MARIA PUBLIC AP, Santa Barbara, CA06, -120.452, 34.894, 243, 60.7, 0.36
MOUNT SHASTA, Siskiyou, CA02, -122.333, 41.333, 3535, 40.5, 3.29
RED BLUFF MUNI AP, Tehama, CA02, -122.255, 40.152, 354, 52.3, 1.88
NEEDLES AIRPORT, San Bernardino, CA07, -114.618, 34.768, 888, 63.7, 0.00
CHINA LAKE NAF, Kern, CA07, -117.693, 35.688, 2230, 55.0, 0.00
HEARST CASTLE, San Luis Obispo, CA04, -121.168, 35.684, 1526, 59.6, 1.13
GETTY CENTER, Los Angeles, CA06, -118.479, 34.087, 1117, 65.8, 0.17
HESPERIA 2E, San Bernardino, CA07, -117.266, 34.421, 3055, 50.9, T
RANCHO BERNARDO, San Diego, CA06, -117.081, 33.022, 690, 63.1, 0.12
FELTON, Santa Cruz, CA04, -122.075, 37.051, 400, 52.7, 4.57
PACIFICA 2S, San Mateo, CA04, -122.484, 37.610, 125, 53.8, 0.65
SAN JUAN CANYON, Orange, CA06, -117.552, 33.532, 375, 61.2, 0.05
YOUNTVILLE, Napa, CA01, -122.357, 38.395, 95, 52.6, 1.62
APPLE VALLEY #2, San Bernardino, CA07, -117.279, 34.536, 2780, 56.0, 0.00
OCOTILLO WELLS 2W, San Diego, CA07, -116.169, 33.155, 390, 71.1, 0.00
IRVINE RANCH, Orange, CA06, -117.723, 33.720, 540, 64.2, 0.18
MT. LAGUNA #3, San Diego, CA07, -116.419, 32.867, 5920, 50.5, 0.13
AVALON INLAND, Los Angeles, CA06, -118.330, 33.338, 90, 61.0, 0.19
DESERT CENTER 2 NNE, Riverside, CA07, -115.392, 33.738, 747, 65.2, 0.00
TORRANCE AP, Los Angeles, CA06, -118.342, 33.802, 90, 62.2, 0.13
MERCED 23 WSW, Merced, CA05, -120.882, 37.238, 78, 52.3, 0.43
REDDING 12 WNW, Shasta, CA02, -122.607, 40.651, 1418, 48.6, 3.48
STOVEPIPE WELLS 1 SW, Inyo, CA07, -117.145, 36.602, 84, 63.2, 0.00
LOS ANGELES DOWNTOWN/USC, Los Angeles, CA06, -118.291, 34.024, 179, 67.3, 0.16
FRESNO YOSEMITE INT'L, Fresno, CA05, -119.720, 36.780, 334, 55.4, 0.23
MONTEREY PENINSUL AP, Monterey, CA04, -121.849, 36.590, 160, 55.1, 0.93
PASO ROBLES MUNICIPAL AP, San Luis Obispo, CA04, -120.629, 35.669, 820, 54.2, 0.20
MONTAGUE SISKIYOU AIRPORT, Siskiyou, CA01, -122.468, 41.774, 2645, 42.4, 2.01
SAN JOSE, Santa Clara, CA04, -121.903, 37.350, 67, 56.4, 1.38
SAN JOSE, Santa Clara, CA04, -121.924, 37.359, 49, 56.0, 1.04
PALM SPRINGS ASOS, Riverside, CA07, -116.504, 33.822, 409, 67.7, 0.00
THOUSAND OAKS 1 SW, Ventura, CA06, -118.899, 34.182, 783, 62.4, 0.11
FILLMORE 2 W, Ventura, CA06, -118.945, 34.409, 495, 62.2, 0.10
SAN DIEGO BROWN FIELD, San Diego, CA06, -116.994, 32.576, 521, 61.1, 0.22
LAKE BERRYESSA, Napa, CA02, -122.250, 38.579, 455, 55.3, 1.55
PACIFIC HOUSE #2, El Dorado, CA02, -120.503, 38.758, 3440, M, 6.00
Bakersfield Area, -, -, -, -, -, 55.4, 0.02
Bishop Area, -, -, -, -, -, 46.9, 0.00
Los Angeles Downtown Area, -, -, -, -, -, 67.3, 0.16
Eureka Area, -, -, -, -, -, 51.9, 7.41
Fresno Area, -, -, -, -, -, 55.4, 0.23
Los Angeles Airport Area, -, -, -, -, -, 63.6, 0.25
Long Beach Area, -, -, -, -, -, 63.5, 0.11
Redding Area, -, -, -, -, -, 51.4, 3.88
Sacramento Area, -, -, -, -, -, 53.4, 1.12
San Diego Area, -, -, -, -, -, 63.4, 0.15
Stockton Area, -, -, -, -, -, 54.3, 1.08
San Francisco Airport Area, -, -, -, -, -, 55.5, 1.64
Santa Maria Area, -, -, -, -, -, 60.7, 0.36
LEMOORE REEVES NAS, Fresno, CA05, -119.950, 36.333, 232, 52.9, 0.08
MOUNTAIN PASS 1SE, San Bernardino, CA07, -115.531, 35.459, 4777, 48.9, 0.00
ARVIN, Kern, CA05, -118.834, 35.211, 450, 51.1, 0.07
FRAZIER PARK, Kern, CA06, -118.965, 34.827, 4972, 48.7, 0.13
EDWARDS AFB NORTH AUXILIARY AIRFIELD, Kern, CA07, -117.865, 34.988, 2283, 52.9, T
REDONDO BEACH, Los Angeles, CA06, -118.376, 33.834, 142, 61.2, 0.21
BURBANK VALLEY PUMP PLANT, Los Angeles, CA06, -118.348, 34.187, 655, 63.1, 0.10
DAVIS 2.7 W, Yolo, CA02, -121.786, 38.552, 57, M, 0.00
ARBUCKLE BASIN CALIFORNIA, Shasta, CA02, -122.833, 40.398, 1900, 49.3, M
ACTON CALIFORNIA, Los Angeles, CA06, -118.200, 34.446, 2600, 57.4, M
ARROYO GRANDE CALIFORNIA, San Luis Obispo, CA04, -120.392, 35.179, 1048, 61.1, M
ALDER SPRINGS CALIFORNIA, Glenn, CA02, -122.724, 39.651, 4300, 44.6, M
ALPINE CALIFORNIA, San Diego, CA06, -116.739, 32.834, 2041, 63.1, M
AMMO DUMP CALIFORNIA, San Diego, CA06, -117.286, 33.381, 1068, 65.3, M
ANZA CALIFORNIA, Riverside, CA06, -116.673, 33.555, 3920, 53.0, M
ALDER POINT CALIFORNIA, Humboldt, CA01, -123.590, 40.187, 923, 49.3, M
ARROYO SECO (MT. DIABLO) CALIF, Monterey, CA04, -121.492, 36.230, 980, 55.9, M
ASH CREEK CALIFORNIA, Siskiyou, CA02, -121.979, 41.277, 3200, 38.7, M
ASH VALLEY CALIFORNIA, Lassen, CA02, -120.686, 41.052, 5100, 36.2, M
BACKBONE CALIFORNIA, Trinity, CA01, -123.142, 40.889, 4700, 41.0, M
BALD MTN LOC CALIFORNIA, El Dorado, CA02, -120.697, 38.906, 4680, 48.2, M
BARNABY CALIFORNIA, Marin, CA01, -122.702, 38.028, 1240, 54.8, M
BATTERSON CALIFORNIA, Madera, CA05, -119.508, 37.232, 3160, 53.4, M
BIG BAR CALIFORNIA, Trinity, CA01, -123.233, 40.733, 1500, 47.1, M
BELL CANYON CALIFORNIA, Orange, CA06, -117.592, 33.542, 700, 66.1, M
BRADLEY CALIFORNIA, Monterey, CA04, -120.803, 35.864, 537, 55.4, M
BEAR PEAK CALIFORNIA, Tulare, CA05, -118.052, 35.884, 8228, 43.7, M
BENTON CALIFORNIA, Mono, CA07, -118.478, 37.843, 5450, 43.1, M
BEAUMONT CALIFORNIA, Riverside, CA06, -116.950, 33.931, 2604, 60.7, M
BEVERLY HILLS CALIFORNIA, Los Angeles, CA06, -118.412, 34.125, 1260, 67.6, M
BEAR VALLEY CALIFORNIA, Kern, CA05, -118.625, 35.140, 4000, 50.1, M
BANGOR CALIFORNIA, Butte, CA02, -121.386, 39.398, 803, 52.5, M
BIG HILL CALIFORNIA, Humboldt, CA01, -123.636, 41.098, 3570, 42.0, M
BIG PINES CALIFORNIA, Los Angeles, CA07, -117.692, 34.379, 6917, 50.0, M
BIG ROCK CALIFORNIA, Marin, CA01, -122.570, 38.039, 1500, 54.8, M
BLACK DIAMOND CALIFORNIA, Contra Costa, CA04, -121.884, 37.950, 1600, 52.5, M
BLUE DOOR CALIFORNIA, Lassen, CA02, -120.337, 41.055, 5615, 35.7, M
BLUE RIDGE (KNF) CALIFORNIA, Siskiyou, CA01, -123.187, 41.269, 5956, 36.6, M
BEN BOLT CALIFORNIA, El Dorado, CA05, -120.934, 38.591, 905, 52.2, M
BEN LOMOND CALIFORNIA, Santa Cruz, CA04, -122.170, 37.132, 2630, 51.3, M
BOGARD R.S. CALIFORNIA, Lassen, CA02, -121.083, 40.598, 5650, 34.3, M
BOONVILLE CALIFORNIA, Mendocino, CA01, -123.349, 38.988, 644, 52.1, M
BIG PINE FLAT CALIFORNIA, San Bernardino, CA07, -117.013, 34.319, 6861, 46.7, M
BRIDGEPORT 4NW CALIFORNIA, Mono, CA03, -119.289, 38.272, 6650, 41.3, M
BRANCH MOUNTAIN CALIFORNIA, San Luis Obispo, CA04, -120.083, 35.189, 3770, 52.3, M
BEAR FLAT CALIFORNIA, Modoc, CA02, -120.313, 41.295, 6200, 34.8, M
BRIONES CALIFORNIA, Contra Costa, CA04, -122.118, 37.944, 1450, 54.3, M
BLACKROCK CALIFORNIA, Tulare, CA05, -118.260, 36.093, 8200, 42.4, M
BROOKS CALIFORNIA, Yolo, CA02, -122.145, 38.738, 354, 54.2, M
BIG SUR CALIFORNIA, Monterey, CA04, -121.785, 36.236, 450, 59.2, M
BUCK MEADOWS CALIFORNIA, Tuolumne, CA05, -120.097, 37.823, 3200, 47.4, M
BULL FLAT CALIFORNIA, Lassen, CA03, -120.114, 40.481, 4395, 37.2, M
BURNS CANYON CALIFORNIA, San Bernardino, CA07, -116.634, 34.210, 6000, 52.3, M
BUTTERCUP CALIFORNIA, Imperial, CA07, -114.884, 32.740, 217, 67.8, M
BEAVER CAMP LOC CALIFORNIA, Amador, CA05, -120.325, 38.488, 5000, 48.5, M
BRAZIE RANCH CALIFORNIA, Siskiyou, CA01, -122.594, 41.685, 3000, 38.3, M
CAHUILLA CALIFORNIA, Imperial, CA07, -115.174, 32.974, 278, 69.9, M
CALLAHAN CALIFORNIA, Siskiyou, CA01, -122.796, 41.308, 3136, 43.3, M
CAMERON FIRE STATION CALIFORNI, San Diego, CA06, -116.463, 32.721, 3443, 54.4, M
CANBY CALIFORNIA, Modoc, CA02, -120.868, 41.434, 4312, 38.9, M
CARRIZO CALIFORNIA, San Luis Obispo, CA05, -119.773, 35.096, 2490, 56.9, M
CASE SPRINGS CALIFORNIA, San Diego, CA06, -117.418, 33.445, 2320, 63.2, M
CATHEYS VALLEY CALIFORNIA, Mariposa, CA05, -120.111, 37.468, 1200, 54.8, M
CEDAR GROVE CALIFORNIA, Fresno, CA05, -118.656, 36.788, 4720, 45.6, M
CHEESEBORO CALIFORNIA, Ventura, CA06, -118.717, 34.185, 1650, 66.1, M
CHICO CALIFORNIA, Butte, CA02, -121.779, 39.712, 230, 52.8, M
CHILAO CALIFORNIA, Los Angeles, CA06, -118.030, 34.332, 5450, 55.9, M
CHUCHUPATE CALIFORNIA, Ventura, CA05, -119.012, 34.808, 4900, 45.3, M
CLAREMONT CALIFORNIA, Los Angeles, CA06, -117.707, 34.137, 1645, 61.8, M
CLEAR CREEK CALIFORNIA, Los Angeles, CA06, -118.152, 34.271, 3000, 60.7, M
CLARK CALIFORNIA, Riverside, CA06, -117.309, 33.877, 1720, 63.5, M
CALAVERAS ROAD CALIFORNIA, Alameda, CA04, -121.844, 37.553, 1230, 54.6, M
CASE MOUNTAIN CALIFORNIA, Tulare, CA05, -118.809, 36.411, 6450, 48.6, M
CORONA CALIFORNIA, Riverside, CA06, -117.549, 33.874, 640, 62.3, M
COHASSET CALIFORNIA, Butte, CA02, -121.769, 39.872, 1733, 52.0, M
COLLINS BALDY CALIFORNIA, Siskiyou, CA01, -122.950, 41.775, 5493, 35.7, M
CONVERSE CALIFORNIA, San Bernardino, CA06, -116.913, 34.194, 5618, 51.7, M
COOSKIE MOUNTAIN CALIFORNIA, Humboldt, CA01, -124.266, 40.257, 2950, 45.6, M
CORRALITOS CALIFORNIA, Santa Cruz, CA04, -121.798, 36.991, 450, 56.9, M
COUNTY LINE CALIFORNIA, Lake, CA02, -122.412, 39.019, 2085, 52.0, M
CAMP 9 CALIFORNIA, Los Angeles, CA06, -118.422, 34.362, 4000, 57.8, M
CRESTVIEW CALIFORNIA, Mono, CA07, -118.983, 37.745, 7600, 37.7, M
CORNING CALIFORNIA, Tehama, CA02, -122.170, 39.939, 294, 53.0, M
CARPENTER RIDGE CALIFORNIA, Butte, CA02, -121.582, 40.069, 4812, 42.0, M
CRANSTON CALIFORNIA, Riverside, CA06, -116.841, 33.740, 1950, 63.9, M
CRAZY PEAK CALIFORNIA, Del Norte, CA01, -123.604, 41.992, 3970, 41.7, M
CASHMAN CALIFORNIA, Plumas, CA02, -120.915, 40.002, 4520, 42.6, M
DESCANSO CALIFORNIA, San Diego, CA06, -116.622, 32.857, 3480, 57.6, M
DEVILS GARDEN CALIFORNIA, Modoc, CA02, -120.671, 41.530, 5022, 37.4, M
DIABLO GRANDE CALIFORNIA, Stanislaus, CA05, -121.294, 37.329, 1850, 54.2, M
DEMOCRAT CALIFORNIA, Kern, CA05, -118.630, 35.532, 2356, 54.1, M
DINKEY CALIFORNIA, Fresno, CA05, -119.039, 37.066, 5668, 41.4, M
DELNORTE CALIFORNIA, Santa Barbara, CA06, -119.654, 34.009, 800, 64.0, M
DOG VALLEY CALIFORNIA, Sierra, CA03, -120.048, 39.562, 5976, 43.8, M
DOYLE CALIFORNIA, Lassen, CA03, -120.106, 40.022, 4240, 41.9, M
DUNCAN CALIFORNIA, Placer, CA02, -120.509, 39.144, 7100, 41.0, M
DEL VALLE CALIFORNIA, Los Angeles, CA06, -118.683, 34.431, 1278, 63.9, M
DEVORE CALIFORNIA, San Bernardino, CA06, -117.404, 34.221, 2057, 62.9, M
EAGLE PEAK CALIFORNIA, Tehama, CA02, -122.657, 39.928, 3713, 46.4, M
EEL RIVER CAMP CALIFORNIA, Humboldt, CA01, -123.824, 40.138, 446, 52.1, M
EEL RIVER CALIFORNIA, Mendocino, CA01, -123.083, 39.833, 1500, 49.0, M
EL CARISO CALIFORNIA, Riverside, CA06, -117.411, 33.647, 3038, 64.1, M
MOUNT ELIZABETH CALIFORNIA, Tuolumne, CA05, -120.247, 38.063, 4933, 46.7, M
EL MIRAGE CALIFORNIA, San Bernardino, CA07, -117.550, 34.634, 2880, 53.6, M
ESPERANZA CALIFORNIA, Calaveras, CA05, -120.515, 38.243, 2559, 51.0, M
FANCHER CREEK CALIFORNIA, Fresno, CA05, -119.466, 36.884, 920, 57.0, M
FAWNSKIN CALIFORNIA, San Bernardino, CA06, -116.899, 34.266, 6900, 45.0, M
FENCE MEADOW CALIFORNIA, Fresno, CA05, -119.175, 36.961, 5048, 49.2, M
FORT HUNTER LIGGET CALIFORNIA, Monterey, CA04, -121.242, 36.012, 1100, 55.4, M
FIGUEROA CALIFORNIA, Santa Barbara, CA06, -120.007, 34.733, 3200, 60.2, M
FISH CREEK MTN CALIFORNIA, Imperial, CA07, -116.067, 32.990, 760, 72.9, M
FIVE MILE CALIFORNIA, Inyo, CA07, -117.918, 35.872, 4150, 57.9, M
FORT ORD #1 CALIFORNIA, Monterey, CA04, -121.798, 36.627, 460, 56.5, M
FORT ORD #2 CALIFORNIA, Monterey, CA04, -121.786, 36.627, 490, 55.2, M
FORESTHILL CALIFORNIA, Placer, CA02, -120.732, 39.091, 4355, 47.1, M
FOUNTAIN SPRINGS CALIFORNIA, Tulare, CA05, -118.915, 35.892, 210, 54.9, M
FREMONT CANYON CALIFORNIA, Orange, CA06, -117.711, 33.808, 1781, 67.0, M
FRIEND MOUNTAIN CALIFORNIA, Trinity, CA01, -123.342, 40.505, 4000, 41.0, M
GASQUET CALIFORNIA, Del Norte, CA01, -123.979, 41.846, 500, 49.2, M
GRASSHOPPER CALIFORNIA, Lassen, CA03, -120.784, 40.782, 6158, 35.3, M
GOOSE VALLEY CALIFORNIA, San Diego, CA06, -116.846, 33.074, 1530, 61.5, M
GORDON CALIFORNIA, Lassen, CA03, -120.896, 40.759, 6200, 35.7, M
GREEN SPRING CALIFORNIA, Tuolumne, CA05, -120.500, 37.833, 1020, 54.1, M
GRIZZLY FLAT CALIFORNIA, El Dorado, CA05, -120.561, 38.620, 3740, 48.3, M
HASTINGS CALIFORNIA, Monterey, CA04, -121.552, 36.389, 1885, 54.2, M
HAWKEYE CALIFORNIA, Sonoma, CA01, -122.917, 38.782, 2000, 51.5, M
HAYFORK CALIFORNIA, Trinity, CA01, -123.165, 40.550, 2323, 44.4, M
HELL HOLE CALIFORNIA, Placer, CA02, -120.422, 39.072, 5240, 44.6, M
HERNANDEZ CALIFORNIA, San Benito, CA04, -120.856, 36.383, 3733, 51.9, M
HIGH GLADE LOOKOUT CALIFORNIA, Lake, CA02, -122.808, 39.208, 4840, 43.4, M
HIGH SIERRA CALIFORNIA, Fresno, CA05, -119.038, 37.315, 7403, 41.0, M
HOPLAND CALIFORNIA, Mendocino, CA01, -123.081, 39.031, 2682, 48.8, M
HOLLISTER CALIFORNIA, San Benito, CA04, -121.362, 36.842, 404, 56.2, M
HUNTER MOUNTAIN CALIFORNIA, Inyo, CA07, -117.474, 36.563, 6880, 43.6, M
HORSE LAKE CALIFORNIA, Lassen, CA03, -120.503, 40.631, 5100, 36.7, M
HOOPA CALIFORNIA, Humboldt, CA01, -123.671, 41.048, 375, 50.9, M
HORSE THIEF SPRINGS CALIFORNIA, San Bernardino, CA07, -115.909, 35.771, 5000, 53.5, M
HURLEY CALIFORNIA, Fresno, CA05, -119.568, 37.015, 1201, 50.4, M
INDIAN WELL CALIFORNIA, Siskiyou, CA01, -121.538, 41.742, 4770, 40.3, M
JARBO GAP CALIFORNIA, Butte, CA02, -121.489, 39.736, 2490, 49.0, M
JERSEYDALE CALIFORNIA, Mariposa, CA05, -119.839, 37.544, 3900, 50.4, M
JOHNSONDALE CALIFORNIA, Tulare, CA05, -118.545, 35.972, 4700, 44.9, M
JUANITA LAKE CALIFORNIA, Siskiyou, CA01, -122.006, 41.786, 5400, 39.2, M
JULIAN CALIFORNIA, San Diego, CA07, -116.591, 33.076, 4240, 55.8, M
JUNIPER CREEK CALIFORNIA, Modoc, CA02, -120.472, 41.332, 4372, 40.3, M
KEENWILD CALIFORNIA, Riverside, CA06, -116.767, 33.667, 4920, 54.5, M
KETTLEMAN HILLS CALIFORNIA, Kings, CA05, -120.057, 36.033, 810, 57.0, M
KNOXVILLE CREEK CALIFORNIA, Lake, CA02, -122.417, 38.862, 2200, 50.0, M
KONOCTI CALIFORNIA, Lake, CA02, -122.706, 38.912, 2163, 50.5, M
LOS BANOS CALIFORNIA, Merced, CA05, -121.053, 37.055, 350, 56.4, M
MT. LAGUNA CALIFORNIA, San Diego, CA07, -116.420, 32.880, 5760, 48.9, M
LA HONDA CALIFORNIA, San Mateo, CA04, -122.255, 37.305, 872, 52.9, M
LA PANZA CALIFORNIA, San Luis Obispo, CA04, -120.187, 35.381, 1630, 51.2, M
LAURAL MOUNTAIN CALIFORNIA, Kern, CA07, -117.699, 35.478, 4390, 55.6, M
LASSEN LODGE CALIFORNIA, Tehama, CA02, -121.714, 40.344, 4159, 45.2, M
LAUFMAN CALIFORNIA, Lassen, CA03, -120.353, 40.142, 5800, 40.9, M
LAYTONVILLE CALIFORNIA, Mendocino, CA01, -123.485, 39.702, 1820, 46.8, M
LADDER BUTTE CALIFORNIA, Lassen, CA02, -121.297, 40.807, 5750, 39.3, M
LEO CARRILLO CALIFORNIA, Los Angeles, CA06, -118.936, 34.046, 50, 64.3, M
LOS GATOS CALIFORNIA, Santa Clara, CA04, -121.943, 37.203, 2000, 57.9, M
LOST HORSE CALIFORNIA, Riverside, CA07, -116.188, 34.018, 4200, 53.2, M
LINCOLN CALIFORNIA, Placer, CA02, -121.268, 38.883, 200, 53.3, M
LOWER KLAMATH CALIFORNIA, Siskiyou, CA01, -121.700, 41.999, 4098, 37.7, M
LOS PRIETOS CALIFORNIA, Santa Barbara, CA06, -119.783, 34.536, 1020, 59.4, M
LAS FLORES CALIFORNIA, San Diego, CA06, -117.439, 33.289, 100, 63.0, M
LAS TABLAS CALIFORNIA, San Luis Obispo, CA04, -120.924, 35.656, 994, 52.2, M
LITTLE TUJUNGA CALIFORNIA, Los Angeles, CA06, -118.361, 34.294, 1390, 64.1, M
LIVERMORE CALIFORNIA, Alameda, CA04, -121.814, 37.712, 800, 55.4, M
LYONS VALLEY CALIFORNIA, Lake, CA01, -123.074, 39.126, 3200, 46.7, M
LYTLE CREEK CALIFORNIA, San Bernardino, CA06, -117.480, 34.234, 2792, 60.1, M
MAD RIVER CALIFORNIA, Trinity, CA01, -123.524, 40.463, 2775, 44.5, M
MALIBU HILLS CALIFORNIA, Los Angeles, CA06, -118.633, 34.058, 1575, 65.5, M
MANZANITA LAKE CALIFORNIA, Shasta, CA02, -121.580, 40.540, 5660, 37.0, M
MARIPOSA GROVE CALIFORNIA, Mariposa, CA05, -119.605, 37.513, 6400, 46.7, M
MILL CREEK (BDF) CALIFORNIA, San Bernardino, CA06, -117.035, 34.084, 2950, 61.6, M
MCGUIRES CALIFORNIA, Mendocino, CA01, -123.601, 39.353, 593, 51.0, M
MEANS LAKE CALIFORNIA, San Bernardino, CA07, -116.517, 34.391, 2900, 57.3, M
MENDOCINO PASS CALIFORNIA, Mendocino, CA01, -122.945, 39.808, 5420, 39.8, M
METCALF GAP CALIFORNIA, Madera, CA05, -119.768, 37.409, 3077, 55.0, M
MEYERS CALIFORNIA, El Dorado, CA03, -120.018, 38.849, 6310, 41.1, M
MID HILLS CALIFORNIA, San Bernardino, CA07, -115.411, 35.123, 5413, 51.0, M
MILL CREEK (ANF) CALIFORNIA, Los Angeles, CA06, -118.082, 34.390, 5021, 54.4, M
MILO CALIFORNIA, Tulare, CA05, -118.869, 36.231, 1923, 56.1, M
MALLORY RIDGE CALIFORNIA, Contra Costa, CA05, -121.779, 37.817, 2040, 52.3, M
MONTECITO CALIFORNIA, Santa Barbara, CA06, -119.648, 34.461, 1500, 66.9, M
MODOC NWR CALIFORNIA, Modoc, CA02, -120.354, 41.459, 4380, 38.4, M
MOJAVE RIVER SINK CALIFORNIA, San Bernardino, CA07, -116.079, 35.053, 950, 58.2, M
MORMON ROCK CALIFORNIA, San Bernardino, CA06, -117.502, 34.318, 3300, 57.9, M
MOUNTAIN REST CALIFORNIA, Fresno, CA05, -119.371, 37.054, 4100, 51.0, M
MARKLEEVILLE CALIFORNIA, Alpine, CA03, -119.767, 38.683, 5501, 42.6, M
MT. SHASTA CALIFORNIA, Siskiyou, CA02, -122.316, 41.316, -, 41.4, M
MARIPOSA CALIFORNIA, Mariposa, CA05, -119.987, 37.504, 2231, 52.2, M
MT. DIABLO CALIFORNIA, Contra Costa, CA05, -121.914, 37.882, 3849, 47.6, M
MOUNT ZION CALIFORNIA, Amador, CA05, -120.651, 38.389, 2960, 51.2, M
NORTH FORK CALIFORNIA, Madera, CA05, -119.505, 37.233, 2720, 52.7, M
OAK BOTTOM CALIFORNIA, Shasta, CA02, -122.606, 40.651, 1326, 49.6, M
OAK KNOLL CALIFORNIA, Siskiyou, CA01, -122.850, 41.839, 1940, 45.3, M
OAK MOUNTAIN CALIFORNIA, Shasta, CA02, -121.983, 41.006, 1700, 45.9, M
OAK CREEK CALIFORNIA, Inyo, CA07, -118.259, 36.843, 4855, 51.9, M
OJAI CALIFORNIA, Ventura, CA06, -119.230, 34.448, 765, 58.8, M
OAK GROVE CALIFORNIA, San Diego, CA06, -116.795, 33.393, 2752, 59.0, M
OAKLAND NORTH CALIFORNIA, Contra Costa, CA04, -122.221, 37.865, 1403, 53.4, M
OAK OPENING CALIFORNIA, Tulare, CA05, -118.702, 36.175, 3240, 53.2, M
OPAL MOUNTAIN CALIFORNIA, San Bernardino, CA07, -117.176, 35.154, 3240, 58.2, M
OWENS CAMP LOC CALIFORNIA, El Dorado, CA02, -120.245, 38.733, 5240, 42.9, M
OWENS VALLEY CALIFORNIA, Inyo, CA07, -118.551, 37.390, 4640, 51.0, M
OZENA CALIFORNIA, Ventura, CA06, -119.354, 34.682, 3670, 52.8, M
PANAMINT CALIFORNIA, Inyo, CA07, -117.088, 36.120, 6880, 47.5, M
PARKFIELD CALIFORNIA, Monterey, CA04, -120.432, 35.899, 1535, 53.8, M
PATTY MOCUS CALIFORNIA, Tehama, CA02, -122.867, 40.295, 3500, 44.2, M
PINE HILLS CALIFORNIA, San Diego, CA06, -116.634, 33.016, -, 57.5, M
PIERCE CALIFORNIA, Plumas, CA02, -120.642, 40.246, 5700, 39.1, M
PINEHURST CALIFORNIA, Fresno, CA05, -119.000, 36.685, 4060, 51.5, M
PIKE COUNTY LOOKOUT CALIFORNIA, Yuba, CA02, -121.202, 39.475, 3714, 47.0, M
PILOT HILL CALIFORNIA, El Dorado, CA02, -121.009, 38.833, 1200, 51.0, M
PIRU CALIFORNIA, Ventura, CA06, -118.810, 34.404, 614, 63.2, M
PARK RIDGE CALIFORNIA, Tulare, CA05, -118.942, 36.724, 7540, 45.8, M
PINNACLES CALIFORNIA, San Benito, CA04, -121.147, 36.471, 1322, 56.2, M
POPPY PARK CALIFORNIA, Los Angeles, CA07, -118.383, 34.733, 2760, 55.7, M
POTRERO CALIFORNIA, San Diego, CA06, -116.609, 32.606, 2345, 58.3, M
POVERTY CALIFORNIA, Santa Clara, CA04, -121.771, 37.443, 2066, 52.5, M
PANOCHE ROAD CALIFORNIA, Fresno, CA05, -120.766, 36.727, 2032, 54.0, M
PULGAS CALIFORNIA, San Mateo, CA04, -122.298, 37.475, 644, 55.9, M
QUARTZ HILL CALIFORNIA, Siskiyou, CA01, -122.934, 41.599, 4225, 41.9, M
QUINCY RD CALIFORNIA, Plumas, CA02, -120.942, 39.973, 3500, 43.8, M
RAVENDALE CALIFORNIA, Lassen, CA03, -120.316, 40.731, 5298, 37.1, M
RANCHITA CALIFORNIA, San Diego, CA07, -116.497, 33.222, 4415, 56.4, M
READER RANCH CALIFORNIA, Nevada, CA02, -121.117, 39.304, 1968, 51.3, M
REDDING AIRPORT CALIFORNIA, Shasta, CA02, -122.291, 40.516, 500, 51.7, M
RICE VALLEY CALIFORNIA, Riverside, CA07, -114.732, 34.061, 820, 63.4, M
ROCK CREEK, Mono, CA07, -118.667, 37.551, 7040, 41.3, M
RODEO VALLEY, Mendocino, CA01, -123.321, 39.668, 2428, 47.2, M
ROSE VALLEY CALIFORNIA, Ventura, CA06, -119.184, 34.543, 3331, 50.4, M
ROUND MOUNTAIN, Siskiyou, CA02, -121.464, 41.427, 5258, 36.3, M
ROSE PEAK CALIFORNIA, Alameda, CA04, -121.735, 37.502, 3060, 49.4, M
RATTLESNAKE CALIFORNIA, Tulare, CA05, -118.422, 36.407, 8600, 48.4, M
RUSH CREEK CALIFORNIA, Modoc, CA02, -120.864, 41.294, 4800, 38.5, M
RUTH CALIFORNIA, Trinity, CA01, -123.316, 40.251, 2732, 45.3, M
SACRAMENTO NWR CALIFORNIA, Glenn, CA02, -122.182, 39.417, 120, 53.8, M
SADDLEBACK BUTTE CALIFORNIA, Los Angeles, CA07, -117.821, 34.685, 2590, 53.0, M
SAUGUS CALIFORNIA, Los Angeles, CA06, -118.525, 34.425, 1450, 63.3, M
SAWYERS BAR CALIFORNIA, Siskiyou, CA01, -123.132, 41.300, 2192, 45.0, M
SANTA BARBARA ISLAND CALIFORNI, Santa Barbara, CA06, -119.033, 33.483, 176, 62.0, M
SANTA CRUZ ISLAND CALIFORNIA, Santa Barbara, CA06, -119.722, 33.996, 250, 62.5, M
SCORPION CALIFORNIA, Trinity, CA01, -122.697, 41.112, 4400, 42.6, M
SODA CREEK CALIFORNIA, Lake, CA01, -122.977, 39.425, 1773, 47.7, M
SADDLEBACK CALIFORNIA, Sierra, CA02, -120.865, 39.638, 6670, 38.1, M
SECRET TOWN CALIFORNIA, Nevada, CA02, -120.885, 39.184, 2826, 49.5, M
SANTA FE DAM CALIFORNIA, Los Angeles, CA06, -117.946, 34.121, 500, 66.8, M
SHAVER CALIFORNIA, Fresno, CA05, -119.256, 37.135, 5746, 43.1, M
SCHOOL HOUSE CALIFORNIA, Humboldt, CA01, -123.906, 41.138, 2640, 45.9, M
SHIP MTN. CALIFORNIA, Del Norte, CA01, -123.792, 41.736, 5300, 35.6, M
SHADEQUARTER CALIFORNIA, Tulare, CA05, -118.956, 36.567, 4069, 51.4, M
SIMS CALIFORNIA, Shasta, CA02, -122.373, 41.075, 2400, 46.0, M
SIMI VALLEY CALIFORNIA, Ventura, CA06, -118.814, 34.291, 914, 64.4, M
SLATER BUTTE CALIFORNIA, Siskiyou, CA01, -123.352, 41.859, 4670, 37.4, M
SAN MIGUEL CALIFORNIA, San Diego, CA06, -116.974, 32.685, 425, 64.9, M
SAN LUIS NWR CALIFORNIA, Merced, CA05, -120.794, 37.182, 65, 53.9, M
SANTA RITA CALIFORNIA, San Benito, CA05, -120.598, 36.348, 5000, 49.2, M
SOLDIER MOUNTAIN CALIFORNIA, Shasta, CA02, -121.586, 40.926, 3710, 43.3, M
SOMES BAR CALIFORNIA, Siskiyou, CA01, -123.496, 41.390, 920, 48.0, M
SQUAW SPRINGS CALIFORNIA, San Bernardino, CA07, -117.568, 35.370, 3620, 58.1, M
SQUAW LAKE CALIFORNIA, Imperial, CA07, -114.494, 32.908, 300, 68.7, M
SANTA ROSA ISLAND CALIFORNIA, Santa Barbara, CA06, -120.078, 33.978, 1298, 57.6, M
SANTA ROSA PLATEAU CALIFORNIA, Riverside, CA06, -117.231, 33.529, 1980, 63.6, M
SANTA ROSA CALIFORNIA, Sonoma, CA01, -122.712, 38.479, 576, 55.3, M
STAMPEDE CALIFORNIA, Sierra, CA03, -120.075, 39.483, 6867, 38.1, M
STONYFORD CALIFORNIA, Colusa, CA02, -122.575, 39.367, 1200, 50.9, M
SUGARLOAF (SHF) CALIFORNIA, Shasta, CA02, -122.438, 40.917, 4200, 44.4, M
SUGARLOAF CALIFORNIA, Tulare, CA05, -118.675, 36.727, 8120, 49.1, M
TALEGA CALIFORNIA, San Diego, CA06, -117.486, 33.478, 1203, 66.2, M
TANBARK CALIFORNIA, Los Angeles, CA06, -117.761, 34.207, 2600, 62.0, M
TARGET RANGE CALIFORNIA, San Diego, CA06, -117.359, 33.372, 918, 65.8, M
TEMESCAL (LPF) CALIFORNIA, Ventura, CA06, -118.756, 34.481, 1140, 62.2, M
THOMES CREEK CALIFORNIA, Tehama, CA02, -122.610, 39.864, 1040, 53.3, M
THOUSAND OAKS CALIFORNIA, Ventura, CA06, -118.870, 34.210, 795, 62.2, M
TIMBER MOUNTAIN CALIFORNIA, Modoc, CA01, -121.298, 41.629, 4960, 38.2, M
TEMESCAL (CNF) CALIFORNIA, Riverside, CA06, -117.483, 33.763, 1125, 64.8, M
MOUNT TOM CALIFORNIA, Fresno, CA05, -119.178, 37.376, 9018, 38.5, M
LAS TRAMPAS CALIFORNIA, Contra Costa, CA04, -122.067, 37.834, 1760, 52.6, M
TRINITY CAMP CALIFORNIA, Trinity, CA01, -122.804, 40.786, 3308, 59.3, M
TRIMMER CALIFORNIA, Fresno, CA05, -119.305, 36.911, 1540, 54.5, M
GAYLOR MEADOW CALIFORNIA, Tuolumne, CA05, -119.318, 37.868, 9270, 32.4, M
UHL / HOT SPRINGS, Tulare, CA05, -118.633, 35.889, 3720, 50.8, M
UNDERWOOD CALIFORNIA, Trinity, CA01, -123.495, 40.722, 2600, 45.4, M
VAN BREMMER CALIFORNIA, Siskiyou, CA01, -121.794, 41.643, 4928, 38.6, M
VALYERMO CALIFORNIA, Los Angeles, CA07, -117.851, 34.446, 3780, 53.7, M
VANDENBERG CALIFORNIA, Santa Barbara, CA06, -120.486, 34.759, 1050, 59.7, M
WALKER CALIFORNIA, Mono, CA03, -119.459, 38.565, 5440, 45.4, M
WALKER PASS CALIFORNIA, Kern, CA05, -118.057, 35.665, 5572, 50.9, M
WARM SPRINGS CALIFORNIA, Los Angeles, CA06, -118.579, 34.596, 4930, 56.7, M
WEED AIRPORT CALIFORNIA, Siskiyou, CA01, -122.454, 41.479, 2930, 43.7, M
WESTWOOD CALIFORNIA, Lassen, CA02, -120.900, 40.307, 5800, 37.1, M
WHITE CLOUD CALIFORNIA, Nevada, CA02, -120.837, 39.317, 4320, 46.2, M
WHITTIER HILLS CALIFORNIA, Los Angeles, CA06, -118.010, 33.984, 950, 66.9, M
WHITMORE CALIFORNIA, Shasta, CA02, -121.899, 40.619, 2417, 47.5, M
WILEY RIDGE CALIFORNIA, Ventura, CA06, -118.841, 34.372, 1645, 63.4, M
WOFFORD HEIGHTS CALIFORNIA, Kern, CA05, -118.499, 35.722, 3150, 54.4, M
WOLVERTON CALIFORNIA, Tulare, CA05, -118.703, 36.445, 5240, 51.0, M
WHITAKER PEAK CALIFORNIA, Los Angeles, CA06, -118.740, 34.569, 4120, 56.9, M
WHITE WOLF CALIFORNIA, Tuolumne, CA05, -119.650, 37.851, 8025, 38.1, M
YOLLA BOLLA CALIFORNIA, Trinity, CA01, -123.066, 40.338, 4524, 41.7, M
YUCCA VALLEY CALIFORNIA, San Bernardino, CA07, -116.408, 34.123, 3260, 56.2, M
YUROK CALIFORNIA, Humboldt, CA01, -123.857, 41.290, 495, 50.0, M
HAGAN'S MEADOW, El Dorado, CA03, -119.940, 38.850, 7776, 36.1, 3.30
BLUE LAKES, Alpine, CA05, -119.920, 38.610, 8057, 34.8, 3.90
POISON FLAT, Alpine, CA03, -119.630, 38.510, 7736, 36.0, 2.10
SONORA PASS, Mono, CA03, -119.600, 38.310, 8827, 35.8, 2.60
LEAVITT MEADOWS, Mono, CA03, -119.550, 38.300, 7198, 37.9, 2.40
VIRGINIA LAKES RIDGE, Mono, CA03, -119.230, 38.070, 9445, 36.2, 1.20
LOBDELL LAKE, Mono, CA03, -119.370, 38.440, 9233, 33.9, 0.80
EBBETTS PASS, Alpine, CA03, -119.800, 38.550, 8765, 36.1, 4.10
HEAVENLY VALLEY, El Dorado, CA03, -119.920, 38.920, 8582, 34.7, 2.50
LEAVITT LAKE, Mono, CA03, -119.610, 38.280, 9617, 34.5, 4.00
SPRATT CREEK, Alpine, CA03, -119.820, 38.670, 6115, 40.6, 2.60
MONITOR PASS, Alpine, CA03, -119.610, 38.670, 8310, 37.5, 0.90
BURNSIDE LAKE, Alpine, CA03, -119.890, 38.720, 8129, 33.9, 3.50
SUMMIT MEADOW, Mono, CA03, -119.540, 38.400, 9313, 35.5, 1.10
FORESTDALE CREEK, Alpine, CA03, -119.960, 38.680, 8017, 37.0, 6.60
HORSE MEADOW, Alpine, CA03, -119.890, 38.840, 8557, 35.6, 2.70
CARSON PASS, Alpine, CA02, -119.990, 38.690, 8353, 34.8, 4.00
CROWDER FLAT, Modoc, CA01, -120.750, 41.890, 5170, 36.2, 2.40
CEDAR PASS, Modoc, CA02, -120.300, 41.580, 7030, 33.3, 4.70
DISMAL SWAMP, Modoc, CA03, -120.180, 41.990, 7360, 30.7, 7.00
ADIN MTN, Modoc, CA02, -120.790, 41.240, 6190, 34.3, 4.10
INDEPENDENCE CREEK, Sierra, CA03, -120.280, 39.490, 6456, 36.7, 2.60
INDEPENDENCE CAMP, Sierra, CA03, -120.290, 39.450, 7003, 37.2, 3.50
INDEPENDENCE LAKE, Nevada, CA03, -120.310, 39.430, 8352, 34.6, 5.10
TRUCKEE #2, Placer, CA03, -120.180, 39.300, 6509, 38.9, 3.50
WARD CREEK #3, Placer, CA03, -120.220, 39.140, 6655, 37.2, 9.60
TAHOE CITY CROSS, Placer, CA03, -120.150, 39.170, 6797, 39.0, 4.30
SQUAW VALLEY G.C., Placer, CA03, -120.260, 39.190, 8029, 36.0, 9.80
CSS LAB, Nevada, CA02, -120.370, 39.330, 6855, 36.5, 8.00
RUBICON #2, El Dorado, CA03, -120.130, 39.000, 7689, 37.6, 4.80
ECHO PEAK, El Dorado, CA03, -120.080, 38.850, 7670, 38.4, 9.90
FALLEN LEAF, El Dorado, CA03, -120.050, 38.930, 6236, 39.1, 3.10
CAMPO ASOS, San Diego, CA07, -116.468, 32.626, 2641, 54.4, 0.15
Burbank Glendale Pasadena Area, -, -, -, -, -, 62.8, 0.09
Camarillo Area, -, -, -, -, -, 60.4, 0.07
Needles Area, -, -, -, -, -, 63.7, 0.00
Oxnard Area, -, -, -, -, -, 61.8, 0.13
Palm Springs Area, -, -, -, -, -, 67.7, 0.00
Riverside Area, -, -, -, -, -, 64.1, 0.00
Ramona Area, -, -, -, -, -, 58.3, 0.17
Northern CA 8 Station Index, -, -, -, -, -, M, 5.61
San Joaquin 5 Station Index, -, -, -, -, -, M, 2.15
BARSTOW-DAGGETT AIRPORT, San Bernardino, CA07, -116.787, 34.854, 1919, 57.9, 0.00
MERCED, Merced, CA05, -120.516, 37.289, 154, 53.6, 0.85
SAN DIEGO MONTGOMERY FIELD, San Diego, CA06, -117.137, 32.815, 418, 63.3, 0.35
SAN DIEGO INTERNATIONAL AP, San Diego, CA06, -117.183, 32.734, 15, 63.4, 0.15
SAN DIEGO MIRAMAR NAS, San Diego, CA06, -117.133, 32.867, 477, 63.3, 0.05
NORTH ISLAND NAS, San Diego, CA06, -117.210, 32.692, 14, 66.6, 0.07
SAN FRANCISCO INTERNATIONAL AP, San Mateo, CA04, -122.366, 37.620, 10, 55.5, 1.64
SAN LUIS OBISPO MCCHESNEY FIELD, San Luis Obispo, CA04, -120.644, 35.238, 183, 60.1, 0.49
BRAWLEY 2 SW, Imperial, CA07, -115.558, 32.954, -100, 66.6, 0.00
CEDARVILLE, Modoc, CA03, -120.179, 41.530, 4688, 38.7, 2.49
CHICO UNIVERSITY FARM, Butte, CA02, -121.821, 39.691, 185, 52.5, 0.81
CHULA VISTA, San Diego, CA06, -117.086, 32.640, 56, 64.2, 0.00
COLFAX, Placer, CA02, -120.947, 39.090, 2373, 47.4, 2.31
CUYAMACA, San Diego, CA06, -116.587, 32.990, 4640, 49.4, 0.57
DAVIS 2 WSW EXP FARM, Yolo, CA02, -121.776, 38.535, 60, 54.4, 2.14
DEATH VALLEY NATIONAL PARK, Inyo, CA07, -116.867, 36.463, -194, 64.6, 0.00
FAIRMONT, Los Angeles, CA07, -118.430, 34.705, 3060, 56.7, 0.02
FORT BRAGG 5 N, Mendocino, CA01, -123.756, 39.510, 123, 50.1, 5.63
HANFORD 1 S, Kings, CA05, -119.637, 36.316, 237, 51.9, 0.22
HAPPY CAMP RANGER STATION, Siskiyou, CA01, -123.375, 41.796, 1142, 49.1, 3.72
HEALDSBURG, Sonoma, CA01, -122.866, 38.629, 177, 54.8, 2.90
INDIO FIRE STATION, Riverside, CA07, -116.215, 33.709, -21, 65.9, 0.00
LEMON COVE, Tulare, CA05, -119.026, 36.382, 513, 55.1, 0.12
LIVERMORE, Alameda, CA04, -121.751, 37.682, 529, 54.6, 1.68
LODI, San Joaquin, CA05, -121.288, 38.106, 40, 53.0, 1.72
MARYSVILLE, Yuba, CA02, -121.585, 39.146, 57, 54.3, 1.27
MERCED MUNICIPAL AP, Merced, CA05, -120.518, 37.286, 152, 52.9, 0.74
NAPA STATE HOSPITAL, Napa, CA01, -122.265, 38.278, 35, 54.9, 3.30
OJAI, Ventura, CA06, -119.227, 34.448, 745, 58.4, 0.11
ORLAND, Glenn, CA02, -122.200, 39.746, 254, 53.3, 1.64
ORLEANS, Humboldt, CA01, -123.532, 41.309, 403, 49.1, 12.78
PASADENA, Los Angeles, CA06, -118.145, 34.148, 864, 65.4, 0.10
PASO ROBLES, San Luis Obispo, CA04, -120.685, 35.628, 730, 53.4, 0.28
PETALUMA AIRPORT, Sonoma, CA01, -122.608, 38.258, 20, 53.1, 2.98
QUINCY, Plumas, CA02, -120.947, 39.937, 3420, 42.2, 3.52
REDLANDS, San Bernardino, CA06, -117.195, 34.037, 1410, 63.5, 0.08
SANTA BARBARA, Santa Barbara, CA06, -119.684, 34.417, 16, 62.9, 0.25
SANTA CRUZ, Santa Cruz, CA04, -122.000, 36.988, 70, 54.8, 3.26
SANTA ROSA, Sonoma, CA01, -122.713, 38.456, 166, 53.9, 3.66
TAHOE CITY, Placer, CA03, -120.143, 39.168, 6230, 38.0, 3.10
UKIAH, Mendocino, CA01, -123.210, 39.147, 636, 51.8, 3.84
VACAVILLE, Solano, CA02, -121.961, 38.396, 110, 55.3, 2.02
WASCO, Kern, CA05, -119.352, 35.589, 291, 52.8, 0.04
WILLOWS 6 W, Glenn, CA02, -122.305, 39.523, 234, 53.6, 1.02
YOSEMITE PARK HEADQUARTERS, Mariposa, CA05, -119.590, 37.750, 4018, 46.0, 0.11
YREKA, Siskiyou, CA01, -122.641, 41.703, 2709, 42.8, 3.27
BERKELEY, Alameda, CA04, -122.260, 37.874, 310, 55.4, 2.05
BLYTHE, Riverside, CA07, -114.597, 33.613, 268, 64.0, 0.00
EUREKA WFO WOODLEY ISLAND, Humboldt, CA01, -124.160, 40.810, 20, 51.9, 7.41
INDEPENDENCE, Inyo, CA07, -118.204, 36.798, 3950, 52.4, 0.00
SAN LUIS OBISPO POLY, San Luis Obispo, CA04, -120.662, 35.306, 308, 59.4, 0.01
BURNEY, Shasta, CA02, -121.655, 40.880, 3198, 39.7, 2.44
CAMPO, San Diego, CA06, -116.470, 32.626, 2630, 55.8, 0.17
CALEXICO 2 NE, Imperial, CA07, -115.464, 32.688, 12, M, 0.00
EL CENTRO 2 SSW, Imperial, CA07, -115.562, 32.767, -30, 66.9, 0.00
IMPERIAL COUNTY AP, Imperial, CA07, -115.577, 32.835, -55, 66.7, 0.00
EL CENTRO NAF, Imperial, CA07, -115.664, 32.832, -46, 65.9, 0.00
ALPINE, San Diego, CA06, -116.777, 32.836, 1695, 60.8, 0.00
Crescent City Area, -, -, -, -, -, 49.9, 15.32
Escondido Area, -, -, -, -, -, 64.9, 0.00
Sacramento Downtown Area, -, -, -, -, -, 55.6, 1.03
Tahoe City Area, -, -, -, -, -, 38.0, 3.10
Ukiah Area, -, -, -, -, -, 51.3, 4.14
El Cajon Area, -, -, -, -, -, 64.8, 0.00
Hanford Area, -, -, -, -, -, 53.0, 0.20
El Centro Area, -, -, -, -, -, 66.7, 0.00
Madera Area, -, -, -, -, -, 53.8, 0.55
Merced Area, -, -, -, -, -, 52.9, 0.74
San Jose Area, -, -, -, -, -, 56.0, 1.04
Alturas Area, -, -, -, -, -, 37.3, 1.46
Mount Shasta Area, -, -, -, -, -, 40.5, 3.29
Palmdale Area, -, -, -, -, -, 54.9, T
Lancaster Area, -, -, -, -, -, 53.4, T