Name, County, ClimateDivision, Longitude, Latitude, Elevation, MeanAvgTemperature, TotalPrecipitation
BARSTOW-DAGGETT AIRPORT, San Bernardino, CA07, -116.787, 34.854, 1919, 66.7, 0.00
MERCED, Merced, CA05, -120.516, 37.289, 154, 62.4, 1.26
SAN DIEGO MONTGOMERY FIELD, San Diego, CA06, -117.137, 32.815, 418, 66.6, 0.22
SAN DIEGO INTERNATIONAL AP, San Diego, CA06, -117.183, 32.734, 15, 66.7, 0.37
SAN DIEGO MIRAMAR NAS, San Diego, CA06, -117.133, 32.867, 477, 66.0, 0.22
NORTH ISLAND NAS, San Diego, CA06, -117.210, 32.692, 14, 68.9, 1.52
SAN FRANCISCO INTERNATIONAL AP, San Mateo, CA04, -122.366, 37.620, 10, 59.9, 1.97
SAN LUIS OBISPO MCCHESNEY FIELD, San Luis Obispo, CA04, -120.644, 35.238, 183, 62.4, 0.68
CEDARVILLE, Modoc, CA03, -120.179, 41.530, 4688, 45.7, 1.93
CHICO UNIVERSITY FARM, Butte, CA02, -121.821, 39.691, 185, 64.2, 1.49
CHULA VISTA, San Diego, CA06, -117.086, 32.640, 56, 67.0, 0.00
COLFAX, Placer, CA02, -120.947, 39.090, 2373, 55.2, 2.43
CUYAMACA, San Diego, CA06, -116.587, 32.990, 4640, 52.8, 0.30
DAVIS 2 WSW EXP FARM, Yolo, CA02, -121.776, 38.535, 60, 62.0, 1.35
DEATH VALLEY NATIONAL PARK, Inyo, CA07, -116.867, 36.463, -194, 77.1, 0.00
FAIRMONT, Los Angeles, CA07, -118.430, 34.705, 3060, 61.1, 0.10
FORT BRAGG 5 N, Mendocino, CA01, -123.756, 39.510, 123, 52.2, 4.93
HANFORD 1 S, Kings, CA05, -119.637, 36.316, 237, 60.9, 0.35
HAPPY CAMP RANGER STATION, Siskiyou, CA01, -123.375, 41.796, 1142, 52.9, 5.96
HEALDSBURG, Sonoma, CA01, -122.866, 38.629, 177, 59.8, 5.06
INDIO FIRE STATION, Riverside, CA07, -116.215, 33.709, -21, 77.9, 0.00
LEMON COVE, Tulare, CA05, -119.026, 36.382, 513, 63.7, 1.61
LIVERMORE, Alameda, CA04, -121.751, 37.682, 529, 61.1, 1.12
LODI, San Joaquin, CA05, -121.288, 38.106, 40, 61.3, 0.65
MARYSVILLE, Yuba, CA02, -121.585, 39.146, 57, 61.2, 1.65
MERCED MUNICIPAL AP, Merced, CA05, -120.518, 37.286, 152, 61.6, 0.77
NAPA STATE HOSPITAL, Napa, CA01, -122.265, 38.278, 35, 61.5, 2.01
OJAI, Ventura, CA06, -119.227, 34.448, 745, 64.1, 0.32
ORLAND, Glenn, CA02, -122.200, 39.746, 254, 61.8, 0.77
ORLEANS, Humboldt, CA01, -123.532, 41.309, 403, 56.3, 8.53
PASADENA, Los Angeles, CA06, -118.145, 34.148, 864, 70.0, 0.57
PASO ROBLES, San Luis Obispo, CA04, -120.685, 35.628, 730, 59.9, 0.96
PETALUMA AIRPORT, Sonoma, CA01, -122.608, 38.258, 20, 58.7, 1.82
QUINCY, Plumas, CA02, -120.947, 39.937, 3420, 49.3, 2.36
REDLANDS, San Bernardino, CA06, -117.195, 34.037, 1410, 67.4, 0.11
SANTA BARBARA, Santa Barbara, CA06, -119.684, 34.417, 16, 64.0, 0.28
SANTA CRUZ, Santa Cruz, CA04, -122.000, 36.988, 70, 59.2, 1.40
SANTA ROSA, Sonoma, CA01, -122.713, 38.456, 166, 59.4, 3.26
TAHOE CITY, Placer, CA03, -120.143, 39.168, 6230, 43.9, 2.02
UKIAH, Mendocino, CA01, -123.210, 39.147, 636, 57.9, 2.58
VACAVILLE, Solano, CA02, -121.961, 38.396, 110, 63.0, 1.68
WASCO, Kern, CA05, -119.352, 35.589, 291, 62.8, 0.14
WILLOWS 6 W, Glenn, CA02, -122.305, 39.523, 234, 61.9, 0.84
YOSEMITE PARK HEADQUARTERS, Mariposa, CA05, -119.590, 37.750, 4018, 52.2, 0.22
YREKA, Siskiyou, CA01, -122.641, 41.703, 2709, 49.0, 3.42
BERKELEY, Alameda, CA04, -122.260, 37.874, 310, 60.1, 2.43
BLYTHE, Riverside, CA07, -114.597, 33.613, 268, 73.5, 0.00
EUREKA WFO WOODLEY ISLAND, Humboldt, CA01, -124.160, 40.810, 20, 53.8, 4.92
INDEPENDENCE, Inyo, CA07, -118.204, 36.798, 3950, 62.6, M
SAN LUIS OBISPO POLY, San Luis Obispo, CA04, -120.662, 35.306, 308, 61.7, 0.57
BURNEY, Shasta, CA02, -121.655, 40.880, 3198, 46.2, 2.37
IMPERIAL BEACH REAM FIELD NAS, San Diego, CA06, -117.117, 32.568, 24, 62.6, T
CAMPO, San Diego, CA06, -116.470, 32.626, 2630, 60.6, 0.17
CALEXICO 2 NE, Imperial, CA07, -115.464, 32.688, 12, M, 0.03
EL CENTRO 2 SSW, Imperial, CA07, -115.562, 32.767, -30, 75.1, 0.00
IMPERIAL COUNTY AP, Imperial, CA07, -115.577, 32.835, -55, 75.2, T
EL CENTRO NAF, Imperial, CA07, -115.664, 32.832, -46, 74.3, T
ALPINE, San Diego, CA06, -116.777, 32.836, 1695, 65.2, 0.00
SAN GABRIEL DAM FC425B-E, Los Angeles, CA06, -117.861, 34.205, 1481, M, 0.27
MT WILSON CBS, Los Angeles, CA06, -118.071, 34.231, 5710, 59.7, 0.43
LA CRESCENTA FC251 C, Los Angeles, CA06, -118.238, 34.222, 1545, M, 0.51
VAN NUYS AP, Los Angeles, CA06, -118.491, 34.212, 785, 68.2, 0.49
CAMARILLO AP, Ventura, CA06, -119.088, 34.211, 71, 64.6, 0.11
OXNARD VENTURA COUNTY AP, Ventura, CA06, -119.204, 34.200, 39, 62.1, 0.08
PARKER RESRVOIR, San Bernardino, CA07, -114.171, 34.290, 738, 73.7, 0.00
TWENTYNINE PALMS MC, San Bernardino, CA07, -116.147, 34.294, 2003, 67.8, 0.00
BIG BEAR LAKE, San Bernardino, CA06, -116.917, 34.243, 6753, 49.6, 0.10
LAKE ARROWHEAD, San Bernardino, CA07, -117.188, 34.247, 5205, 52.5, 0.00
CHATSWORTH FC 24 F, Los Angeles, CA06, -118.600, 34.250, 950, M, 1.85
VENTURA, Ventura, CA06, -119.292, 34.283, 105, M, 0.25
BIG TUJUNGA DAM FC46, Los Angeles, CA06, -118.188, 34.295, 2326, M, 0.31
PACOIMA DAM FC33A-E, Los Angeles, CA06, -118.400, 34.329, 1550, M, 0.47
SANTA PAULA, Ventura, CA06, -119.133, 34.312, 237, 62.1, 0.00
PIRU 2 ESE, Ventura, CA06, -118.757, 34.406, 712, M, 0.38
SANTA BARBARA MUNI AP, Santa Barbara, CA06, -119.842, 34.424, 8, 60.8, 0.29
JUNCAL DAM, Santa Barbara, CA06, -119.507, 34.491, 2260, M, 0.29
ACTON ESCONDIDO FC261, Los Angeles, CA06, -118.271, 34.494, 2833, M, 0.47
GIBRALTAR DAM NO. 2, Santa Barbara, CA06, -119.682, 34.523, 1558, M, 0.38
PALMDALE, Los Angeles, CA07, -118.094, 34.588, 2612, 63.7, 0.01
SAUGUS POWER PLANT 1, Los Angeles, CA06, -118.454, 34.590, 2161, M, 0.31
CACHUMA LAKE, Santa Barbara, CA06, -119.982, 34.582, 789, 64.9, 0.34
SALSIPUEDES GAGING STATION, Santa Barbara, CA06, -120.408, 34.585, 254, M, 0.49
EL MIRAGE, San Bernardino, CA07, -117.630, 34.589, 2950, 60.4, 0.18
PALMDALE AP, Los Angeles, CA07, -118.083, 34.629, 2509, 61.9, T
LOMPOC, Santa Barbara, CA06, -120.451, 34.654, 75, 63.0, 0.58
LANCASTER, Los Angeles, CA06, -118.213, 34.741, 2338, 61.3, 0.18
SANDBERG, Los Angeles, CA06, -118.724, 34.744, 4510, 57.3, 0.18
LEBEC, Kern, CA05, -118.865, 34.833, 3575, 55.7, 0.54
CHUCHUPATE RANGER STN, Ventura, CA05, -119.011, 34.808, 5260, 52.1, 0.16
GAREY SISQUOC RIVER, Santa Barbara, CA06, -120.305, 34.894, 355, M, 1.42
MITCHELL CAVERNS, San Bernardino, CA07, -115.547, 34.944, 4350, 63.4, 0.00
NEW CUYAMA FIRE STATION, Santa Barbara, CA06, -119.683, 34.946, 2160, 59.4, 0.09
TWITCHELL DAM, Santa Barbara, CA06, -120.321, 34.988, 582, 63.8, 0.61
PISMO BEACH, San Luis Obispo, CA04, -120.683, 35.160, 39, 61.2, 0.16
TAFT, Kern, CA05, -119.430, 35.150, 773, 66.0, 0.13
BAKER, San Bernardino, CA07, -116.063, 35.276, 962, 69.8, 0.00
SALINAS DAM, San Luis Obispo, CA04, -120.504, 35.337, 1392, M, 0.67
RANDSBURG, Kern, CA07, -117.652, 35.369, 3570, 61.9, 0.00
SANTA MARGARITA BOOST, San Luis Obispo, CA04, -120.637, 35.374, 1148, M, 1.23
MORRO BAY FIRE DEPT, San Luis Obispo, CA04, -120.845, 35.367, 118, 63.0, 0.69
BAKERSFIELD AP, Kern, CA05, -119.055, 35.434, 490, 64.5, 0.28
BUTTONWILLOW, Kern, CA05, -119.470, 35.403, 225, 63.0, 0.32
GLENNVILLE, Kern, CA05, -118.701, 35.727, 3140, 54.1, 0.81
TRONA, San Bernardino, CA07, -117.391, 35.764, 1695, 67.5, 0.00
DELANO, Kern, CA05, -119.260, 35.768, 302, 62.9, 0.18
BRADLEY TELEMETERING, Monterey, CA04, -120.868, 35.930, 443, M, 0.48
SHOSHONE, Inyo, CA07, -116.271, 35.972, 1546, 70.9, 0.00
PORTERVILLE MUNICIPAL AIRPORT, Tulare, CA05, -119.062, 36.029, 442, 64.6, 0.15
KETTLEMAN CITY, Kings, CA05, -119.960, 36.007, 240, 63.6, 0.23
HAIWEE, Inyo, CA07, -117.953, 36.139, 3825, 63.9, M
CORCORAN IRRIGATION DIST., Kings, CA05, -119.582, 36.098, 200, 64.5, 0.77
COALINGA, Fresno, CA05, -120.361, 36.136, 670, 63.8, 0.31
PRIEST VALLEY, Monterey, CA04, -120.695, 36.188, 2300, 57.2, 0.96
KING CITY, Monterey, CA04, -121.138, 36.207, 320, 61.1, 0.53
LINDSAY, Tulare, CA05, -119.054, 36.203, 435, 62.5, 1.43
ARROYO SECO RIVER, Monterey, CA04, -121.481, 36.238, 805, M, 1.25
BIG SUR STATION, Monterey, CA04, -121.780, 36.247, 200, 59.1, 2.11
VISALIA, Tulare, CA05, -119.300, 36.328, 303, 62.3, 0.88
FIVE POINTS 5 SSW, Fresno, CA05, -120.156, 36.364, 285, 62.5, 0.35
SAN CLEMENTE DAM, Monterey, CA04, -121.709, 36.438, 600, M, 0.57
ASH MOUNTAIN, Tulare, CA05, -118.825, 36.491, 1708, 63.3, 1.13
THREE RIVERS EDISON PH 1, Tulare, CA05, -118.862, 36.465, 1140, 61.7, 0.00
PINNACLES NATIONAL PARK, San Benito, CA04, -121.182, 36.482, 1307, 57.2, 0.67
CARMEL VALLEY, Monterey, CA04, -121.724, 36.481, 480, 60.0, 0.55
LODGEPOLE, Tulare, CA05, -118.732, 36.604, 6735, 43.4, 0.69
PANOCHE 2 W, San Benito, CA05, -120.884, 36.607, 1400, M, 0.54
MONTEREY, Monterey, CA04, -121.855, 36.593, 122, 58.4, 1.00
SALINAS NO. 2, Monterey, CA04, -121.666, 36.659, 45, 59.8, 0.98
SALINAS AP, Monterey, CA04, -121.609, 36.664, 73, 59.7, 1.09
GRANT GROVE, Tulare, CA05, -118.962, 36.738, 6580, 48.4, 1.28
PAICINES 4 W, San Benito, CA04, -121.349, 36.715, 905, 56.4, 0.08
PINE FLAT DAM, Fresno, CA05, -119.337, 36.821, 615, M, 0.35
LOS BANOS ARBURUA RANCH, Merced, CA05, -120.939, 36.875, 843, M, 0.38
HOLLISTER 2, San Benito, CA04, -121.421, 36.848, 275, 60.2, 0.81
CHITTENDEN PASS, Santa Cruz, CA04, -121.597, 36.900, 82, M, 0.32
BALCH POWER HOUSE, Fresno, CA05, -119.088, 36.909, 1735, 64.0, 0.67
WATSONVILLE WATERWORKS, Santa Cruz, CA04, -121.769, 36.931, 95, 59.3, 1.23
FRIANT GOVERNMENT CAMP, Fresno, CA05, -119.707, 36.997, 410, 64.5, 0.57
MADERA, Madera, CA05, -120.038, 36.954, 270, 60.6, 0.32
WISHON DAM, Fresno, CA05, -118.984, 37.007, 6550, 50.0, 1.47
GILROY, Santa Clara, CA04, -121.561, 37.003, 194, 61.6, 0.78
AUBERRY 2 NW, Fresno, CA05, -119.513, 37.092, 2090, 60.3, 0.43
LOS BANOS, Merced, CA05, -120.867, 37.056, 120, 64.4, 0.48
BEN LOMOND NO. 4, Santa Cruz, CA04, -122.080, 37.086, 420, 59.9, 2.31
MORGAN HILL, Santa Clara, CA04, -121.602, 37.136, 375, 62.1, 0.53
ASPENDELL, Inyo, CA01, -118.599, 37.232, 8470, 45.6, 0.25
HUNTINGTON LAKE, Fresno, CA05, -119.221, 37.228, 7020, 46.2, 0.61
BIG CREEK PH 1, Fresno, CA05, -119.242, 37.206, 4878, 54.6, 0.45
NORTH FORK RS, Madera, CA05, -119.510, 37.233, 2645, 60.4, 0.96
LOS GATOS, Santa Clara, CA04, -121.959, 37.232, 365, 59.8, 1.03
NEWMAN, Stanislaus, CA05, -121.018, 37.281, 90, 65.7, 0.62
MOUNT HAMILTON, Santa Clara, CA04, -121.635, 37.343, 4220, 54.2, 1.87
SAN GREGORIO 2 SE, San Mateo, CA04, -122.362, 37.312, 275, 56.0, 2.42
BISHOP AIRPORT, Inyo, CA07, -118.359, 37.371, 4110, 55.6, 0.01
MOFFETT FEDERAL AIRFIELD, Santa Clara, CA04, -122.048, 37.406, 39, 61.2, 1.12
WOODSIDE FIRE STATION 1, San Mateo, CA04, -122.256, 37.429, 380, 59.8, 1.53
TURLOCK #2, Stanislaus, CA05, -120.846, 37.502, 103, 63.3, 0.73
PALO ALTO, Santa Clara, CA04, -122.140, 37.444, 25, 58.7, 0.13
REDWOOD CITY, San Mateo, CA04, -122.239, 37.477, 31, 60.4, 1.16
HALF MOON BAY, San Mateo, CA04, -122.443, 37.473, 27, 55.3, 2.17
IMPERIAL, Imperial, CA07, -115.567, 32.849, -64, 75.3, 0.00
EL CAPITAN DAM, San Diego, CA06, -116.815, 32.886, 600, 63.6, 0.11
LAKESIDE 2 E, San Diego, CA06, -116.895, 32.854, 690, M, 0.17
POWAY VALLEY, San Diego, CA06, -117.031, 33.020, 648, 67.2, 0.54
JULIAN CDF, San Diego, CA06, -116.592, 33.076, 4215, M, 0.18
RAMONA FIRE DEPT, San Diego, CA06, -116.908, 33.011, 1470, 66.6, 0.30
SAN PASQUAL ANIMAL PK, San Diego, CA06, -116.997, 33.096, 420, 68.4, 1.42
CARLSBAD MCCLELLAN PALOMAR AP, San Diego, CA06, -117.277, 33.130, 313, 66.1, 0.24
HENSHAW DAM, San Diego, CA06, -116.761, 33.237, 2700, 59.5, 0.20
VISTA, San Diego, CA06, -117.232, 33.235, 430, 66.7, 0.03
OCEANSIDE MARINA, San Diego, CA06, -117.395, 33.210, 10, 63.2, 0.00
NILAND, Imperial, CA07, -115.524, 33.278, -60, M, 0.00
BORREGO DESERT PARK, San Diego, CA07, -116.404, 33.256, 810, 74.7, 0.00
OAK GROVE RS, San Diego, CA06, -116.792, 33.386, 2750, M, 0.00
PALOMAR MTN OBSERVATORY, San Diego, CA06, -116.840, 33.378, 5550, 56.7, 0.00
TEMECULA, Riverside, CA06, -117.151, 33.497, 1020, 66.9, 0.15
MECCA FIRE STATION, Riverside, CA07, -116.073, 33.570, -183, 74.3, 0.00
LAGUNA BEACH, Orange, CA06, -117.781, 33.545, 44, 65.2, 0.21
BLYTHE ASOS, Riverside, CA07, -114.715, 33.619, 395, 74.4, 0.00
DESERT RESORTS REGIONAL AP, Riverside, CA07, -116.164, 33.632, -118, 73.0, 0.00
SO ENTRANCE YOSEMITE N.P., Mariposa, CA05, -119.633, 37.512, 5047, 51.5, 0.02
MARIPOSA R S, Mariposa, CA05, -119.986, 37.495, 2100, 60.6, 0.82
NEWARK, Alameda, CA04, -122.032, 37.515, 10, 61.4, 1.08
EXCHEQUER DAM, Mariposa, CA05, -120.267, 37.585, 442, M, 2.39
MODESTO AP, Stanislaus, CA05, -120.955, 37.625, 87, 64.3, 0.75
HAYWARD AIR TERMINAL, Alameda, CA04, -122.121, 37.659, 31, 60.2, 1.78
TRACY CARBONA, San Joaquin, CA05, -121.347, 37.682, 135, 62.1, 0.53
LIVERMORE MUNICIPAL AP, Alameda, CA04, -121.815, 37.693, 393, 60.6, 1.10
OAKLAND INTERNATIONAL AIRPORT, Alameda, CA04, -122.233, 37.718, 5, 59.3, 1.55
UPPER SAN LEANDRO FILTERS, Alameda, CA04, -122.167, 37.772, 394, M, 1.94
SAN FRANCISCO DOWNTOWN, San Francisco, CA04, -122.427, 37.771, 150, 60.4, 2.01
SAN FRANCISCO OCEANSIDE, San Francisco, CA04, -122.505, 37.728, 8, 57.8, 2.75
GROVELAND RS, Tuolumne, CA05, -120.098, 37.823, 3145, M, 1.62
GROVELAND 2, Tuolumne, CA05, -120.226, 37.844, 2800, 53.2, 0.73
TRACY PUMPING PLANT, Alameda, CA05, -121.583, 37.796, 61, 63.4, 1.01
OAKLAND MUSEUM, Alameda, CA04, -122.264, 37.798, 30, 61.1, 1.99
MATHER, Tuolumne, CA05, -119.856, 37.885, 4510, M, 1.03
MOUNT DIABLO JUNCTION, Contra Costa, CA04, -121.930, 37.879, 2170, 55.2, 1.81
STOCKTON AP, San Joaquin, CA05, -121.226, 37.890, 27, 63.3, 0.79
RICHMOND, Contra Costa, CA04, -122.377, 37.919, 20, 61.7, 1.31
MUIR WOODS, Marin, CA01, -122.569, 37.898, 220, M, 4.08
HETCH HETCHY, Tuolumne, CA05, -119.783, 37.961, 3870, 54.8, 0.95
CHERRY VALLEY DAM, Tuolumne, CA05, -119.916, 37.975, 4765, 54.0, 1.34
SONORA, Tuolumne, CA05, -120.387, 37.967, 1675, 56.3, 1.12
STOCKTON FIRE STA 4, San Joaquin, CA05, -121.318, 37.999, 12, 62.6, 0.69
ANTIOCH PUMPING PLANT #3, Contra Costa, CA05, -121.752, 37.983, 60, 62.2, 0.00
CONCORD BUCHANAN FIELD, Contra Costa, CA04, -122.053, 37.992, 23, 61.1, 1.57
CONCORD WASTEWATER PLANT, Contra Costa, CA04, -122.069, 37.983, 40, 61.8, 1.62
SAN RAFAEL-CIVIC CENTER, Marin, CA01, -122.537, 37.998, 120, 59.7, 2.35
KENTFIELD, Marin, CA01, -122.545, 37.957, 145, 60.3, 3.46
MARTINEZ WATER PLANT, Contra Costa, CA04, -122.114, 38.013, 40, 60.0, 1.98
BODIE CALIFORNIA STATE HISTORIC PARK, Mono, CA03, -119.014, 38.212, 8370, 40.6, 0.46
ACAMPO 5NE, San Joaquin, CA05, -121.201, 38.218, 87, M, 0.69
NAPA COUNTY AIRPORT, Napa, CA04, -122.280, 38.208, 16, 58.2, 2.00
BRIDGEPORT, Mono, CA03, -119.229, 38.258, 6470, 43.1, 0.27
CALAVERAS BIG TREES, Calaveras, CA05, -120.311, 38.277, 4695, 50.1, 1.97
CAMP PARDEE, Calaveras, CA05, -120.843, 38.249, 658, 62.6, 1.00
FAIRFIELD, Solano, CA02, -122.068, 38.274, 40, 62.0, 2.22
SONOMA, Sonoma, CA01, -122.462, 38.299, 97, 60.1, 2.03
SUTTER HILL CDF, Amador, CA05, -120.801, 38.377, 1586, 61.7, 1.63
WEST POINT, Calaveras, CA05, -120.545, 38.378, 2775, M, 1.49
ATLAS ROAD BROWN, Napa, CA01, -122.248, 38.427, 1680, M, 1.12
GRATON, Sonoma, CA01, -122.865, 38.431, 200, 57.9, 3.67
OCCIDENTAL, Sonoma, CA01, -122.966, 38.386, 865, 58.2, 4.83
FIDDLETOWN DEXTER RCH, Amador, CA05, -120.698, 38.525, 2170, M, 2.11
SACRAMENTO AP ASOS, Sacramento, CA02, -121.496, 38.507, 19, 61.1, 1.05
WINTERS, Yolo, CA02, -121.978, 38.525, 135, 63.5, 1.25
LAKE SOLANO, Solano, CA02, -122.004, 38.492, 187, 62.1, 1.30
SAINT HELENA, Napa, CA01, -122.471, 38.507, 225, 60.8, 2.15
SAINT HELENA 4 WSW, Napa, CA01, -122.538, 38.493, 1780, M, 4.28
CAZADERO 5NW, Sonoma, CA01, -123.162, 38.564, 1420, M, 6.59
FORT ROSS, Sonoma, CA01, -123.245, 38.515, 112, 55.4, 2.98
SACRAMENTO 5 ESE, Sacramento, CA02, -121.418, 38.555, 38, 63.0, 0.93
ANGWIN PACIFIC UNION COLLEGE, Napa, CA01, -122.440, 38.573, 1715, 58.1, 2.42
CALISTOGA, Napa, CA01, -122.578, 38.577, 350, 59.6, 3.75
VENADO, Sonoma, CA01, -123.018, 38.609, 1260, M, 3.72
WOODLAND 1 WNW, Yolo, CA02, -121.794, 38.683, 67, 63.4, 1.64
PLACERVILLE, El Dorado, CA02, -120.824, 38.696, 1850, 59.6, 2.05
REPRESA, Sacramento, CA02, -121.161, 38.694, 295, M, 0.78
SACRAMENTO METROPOLITAN AP, Sacramento, CA02, -121.595, 38.701, 24, 61.2, 1.06
DEEP CANYON LAB, Riverside, CA07, -116.376, 33.651, 1200, M, 0.00
ELSINORE, Riverside, CA06, -117.346, 33.686, 1268, 73.6, 0.00
SANTA ANA JOHN WAYNE AP, Orange, CA06, -117.867, 33.680, 43, 67.8, 0.22
HAYFIELD PUMPING PLANT, Riverside, CA07, -115.629, 33.704, 1370, 70.6, 0.00
IDYLLWILD FIRE DEPT, Riverside, CA06, -116.707, 33.757, 5380, 57.3, 0.00
SAN JACINTO, Riverside, CA06, -116.975, 33.797, 1525, 67.6, 0.00
HEMET, Riverside, CA06, -116.894, 33.738, 1811, 67.3, 0.00
SANTA ANA FIRE STATION, Orange, CA06, -117.867, 33.744, 135, 68.5, 0.40
EAGLE MOUNTAIN, Riverside, CA07, -115.451, 33.809, 973, 73.8, 0.00
PALM SPRINGS, Riverside, CA07, -116.510, 33.828, 425, 77.2, 0.00
LONG BEACH DAUGHERTY AP, Los Angeles, CA06, -118.147, 33.812, 34, 68.3, 0.56
PALOS VERDES ES FC43D, Los Angeles, CA06, -118.391, 33.800, 220, M, 0.38
FULLERTON MUNICIPAL AP, Orange, CA06, -117.986, 33.872, 86, 69.7, 0.47
BEAUMONT #2, Riverside, CA07, -116.990, 33.926, 2591, 66.7, 0.28
YORBA LINDA, Orange, CA06, -117.819, 33.890, 350, 68.4, 0.45
HAWTHORNE MUNICIPAL AP, Los Angeles, CA06, -118.333, 33.924, 55, 69.8, 0.50
LOS ANGELES INTL AP, Los Angeles, CA06, -118.387, 33.938, 97, 66.3, 0.64
RIVERSIDE FIRE STATION 3, Riverside, CA06, -117.388, 33.951, 840, 69.3, 0.00
CHINO AP, San Bernardino, CA06, -117.625, 33.976, 636, 66.4, 0.09
WHITTIER CITY YARD FC106C, Los Angeles, CA06, -118.022, 33.976, 446, M, 0.48
RIVERSIDE CITRUS EXP, Riverside, CA06, -117.361, 33.967, 986, 68.6, 0.00
MONTEBELLO, Los Angeles, CA06, -118.105, 34.019, 246, 72.4, 0.00
GOLD RUN 4 SW, Placer, CA02, -120.900, 39.150, 3220, M, 4.43
WILLIAMS, Colusa, CA02, -122.150, 39.150, 85, M, 5.48
GRASS VALLEY NO. 2, Nevada, CA02, -121.068, 39.204, 2400, 54.2, 4.13
COLUSA 2 SSW, Colusa, CA02, -122.027, 39.188, 50, 60.2, 1.65
BLUE CANYON NYACK AP, Placer, CA02, -120.709, 39.276, 5286, 50.6, 5.62
NEVADA CITY, Nevada, CA02, -121.001, 39.247, 2781, 53.6, 4.26
TRUCKEE AIRPORT, Nevada, CA03, -120.139, 39.320, 5900, 43.0, 0.82
TRUCKEE RS, Nevada, CA03, -120.173, 39.333, 5823, 43.8, 1.93
DONNER MEMORIAL ST PARK, Nevada, CA03, -120.233, 39.324, 5937, 43.6, 1.92
DEER CREEK FOREBAY, Nevada, CA02, -120.833, 39.300, 4455, M, 0.00
COLGATE POWERHOUSE, Yuba, CA02, -121.192, 39.331, 595, M, 3.34
MOULTON WEIR, Colusa, CA02, -122.017, 39.333, 76, M, 0.40
BOCA, Nevada, CA03, -120.094, 39.389, 5575, 44.3, 0.71
DOBBINS 1 S, Yuba, CA02, -121.201, 39.358, 1640, 57.8, 2.94
STONYFORD, Colusa, CA02, -122.546, 39.375, 1170, M, 0.61
POTTER VALLEY POWERHOUSE, Mendocino, CA01, -123.129, 39.362, 1018, 56.2, 2.70
WILLITS 1 NE, Mendocino, CA01, -123.342, 39.419, 1353, 52.1, 4.16
BOWMAN DAM, Nevada, CA02, -120.656, 39.454, 5385, 50.9, 3.27
OROVILLE, Butte, CA02, -121.553, 39.518, 171, 60.9, 0.22
OROVILLE MUNICIPAL AP, Butte, CA02, -121.622, 39.494, 187, 61.2, 1.35
SIERRAVILLE RS, Sierra, CA02, -120.370, 39.583, 4975, 47.3, 1.59
DOWNIEVILLE, Sierra, CA02, -120.824, 39.563, 2915, 52.2, 3.95
STRAWBERRY VALLEY, Yuba, CA02, -121.108, 39.563, 3808, 50.4, 5.73
STONY GORGE RESERVOIR, Glenn, CA02, -122.534, 39.586, 800, 58.1, 0.71
BRUSH CREEK RANGER STATION, Butte, CA02, -121.345, 39.695, 3560, M, 4.76
PARADISE, Butte, CA02, -121.624, 39.754, 1750, 66.9, 2.67
COVELO, Mendocino, CA01, -123.244, 39.816, 1413, 55.0, 3.75
VINTON, Plumas, CA02, -120.186, 39.806, 4950, 44.2, 2.26
PORTOLA, Plumas, CA02, -120.472, 39.805, 4850, 46.5, 1.39
DE SABLA, Butte, CA02, -121.611, 39.872, 2710, 56.9, 4.49
LEGGETT, Mendocino, CA01, -123.720, 39.874, 703, M, 1.09
BUCKS CREEK, Plumas, CA02, -121.315, 39.937, 1891, M, 4.27
DOYLE 4 SSE, Lassen, CA03, -120.083, 39.972, 4390, 48.7, 1.08
RICHARDSON GR ST PK, Humboldt, CA01, -123.793, 40.026, 503, 53.7, 4.30
GREENVILLE, Plumas, CA02, -120.950, 40.141, 3590, M, 1.92
CANYON DAM, Plumas, CA02, -121.089, 40.171, 4560, 46.5, 3.28
MIRANDA 4 SE, Humboldt, CA01, -123.776, 40.182, 266, M, 5.52
FORT SEWARD, Humboldt, CA01, -123.632, 40.218, 220, M, 5.68
HONEYDEW 1 SW, Humboldt, CA01, -124.132, 40.238, 373, M, 7.96
CHESTER, Plumas, CA02, -121.242, 40.303, 4530, 46.7, 2.92
MINERAL, Tehama, CA02, -121.609, 40.346, 4875, 46.2, 2.27
CULVER CITY, Los Angeles, CA06, -118.414, 34.005, 92, 65.8, 0.00
SANTA MONICA MUNICIPAL AP, Los Angeles, CA06, -118.447, 34.021, 175, 64.8, 0.16
SANTA MONICA PIER, Los Angeles, CA06, -118.500, 34.008, 14, 65.5, 0.00
ONTARIO INTL AP, San Bernardino, CA06, -117.577, 34.053, 924, 68.7, 0.34
POMONA/FAIRPLEX, Los Angeles, CA06, -117.766, 34.082, 999, 67.1, 0.00
COVINA CITY YARD FC387B, Los Angeles, CA06, -117.880, 34.092, 607, M, 0.53
U C L A, Los Angeles, CA06, -118.443, 34.070, 430, 68.7, 1.13
TOPANGA PATROL FC-6, Los Angeles, CA06, -118.599, 34.084, 745, M, 0.00
IRON MOUNTAIN, San Bernardino, CA07, -115.122, 34.147, 922, 75.3, 0.00
TWENTYNINE PALMS, San Bernardino, CA07, -116.037, 34.128, 1975, 69.6, 0.00
SAN DIMAS FIRE FC 95, Los Angeles, CA06, -117.802, 34.105, 958, M, 0.00
GLENDORA FC 287B, Los Angeles, CA06, -117.847, 34.147, 933, M, 0.48
SAN GABRIEL FIRE DEPT, Los Angeles, CA06, -118.100, 34.084, 363, 67.8, 0.52
POINT MUGU NF, Ventura, CA06, -119.123, 34.124, 12, 62.1, 0.02
ALTADENA, Los Angeles, CA06, -118.138, 34.182, 1127, M, 0.38
SAN GABRIEL CANYON PH, Los Angeles, CA06, -117.908, 34.155, 744, M, 0.42
WOODLAND HILLS PIERCE COLLEGE, Los Angeles, CA06, -118.574, 34.182, 790, 67.4, 0.42
LYTLE CREEK R S, San Bernardino, CA06, -117.471, 34.238, 2730, M, 0.00
HARRISON GULCH RS, Shasta, CA02, -122.965, 40.364, 2750, 50.0, 1.57
COLEMAN FISHERIES STATION, Shasta, CA02, -122.143, 40.400, 420, M, 4.54
VOLTA PH, Shasta, CA02, -121.866, 40.458, 2220, M, 3.33
GRIZZLY CREEK STATE PARK, Humboldt, CA01, -123.909, 40.486, 413, M, 5.43
SCOTIA, Humboldt, CA01, -124.104, 40.483, 136, 57.6, 3.62
MANZANITA LAKE, Shasta, CA02, -121.577, 40.541, 5750, 43.2, 3.26
WHISKEYTOWN RESERVOIR, Shasta, CA02, -122.528, 40.612, 1295, 58.9, 4.26
SHASTA DAM, Shasta, CA02, -122.416, 40.714, 1075, 60.2, 4.16
TRINITY RIVER HATCHERY, Trinity, CA01, -122.795, 40.726, 1861, 52.6, 3.84
BIG BAR 4 E, Trinity, CA01, -123.208, 40.741, 1253, 54.2, 4.54
ROUND MOUNTAIN, Shasta, CA02, -121.935, 40.796, 2100, M, 6.27
BUCKHORN, Shasta, CA02, -121.932, 40.880, 3700, M, 8.20
HAT CREEK, Shasta, CA02, -121.543, 40.932, 3015, 46.9, 1.62
PIT RIVER PH 5, Shasta, CA02, -121.977, 40.987, 1458, M, 9.15
WILLOW CREEK 1 NW, Humboldt, CA01, -123.636, 40.947, 464, 56.9, 6.71
FALL RIVER MILLS, Shasta, CA02, -121.435, 41.008, 3300, M, 2.00
PACIFIC HOUSE, El Dorado, CA02, -120.503, 38.758, 3450, M, 2.41
MIDDLETOWN, Lake, CA02, -122.626, 38.748, 1121, M, 2.30
CLOVERDALE, Sonoma, CA01, -123.026, 38.793, 400, 60.1, 2.76
KELSEY 1 N, El Dorado, CA02, -120.821, 38.809, 2000, M, 2.42
SOUTH LAKE TAHOE AP, El Dorado, CA03, -119.996, 38.898, 6257, 43.8, 0.86
GEORGETOWN RS, El Dorado, CA02, -120.801, 38.933, 3001, 54.6, 2.92
AUBURN, Placer, CA02, -121.084, 38.907, 1292, 60.6, 1.25
NICOLAUS #2, Sutter, CA02, -121.545, 38.926, 43, M, 1.55
YORKVILLE, Mendocino, CA01, -123.231, 38.905, 1100, M, 4.16
CLEARLAKE 4 SE, Lake, CA02, -122.567, 38.924, 1349, 54.4, 0.82
FORESTHILL RANGER STATION, Placer, CA02, -120.845, 39.010, 3015, M, 4.94
MARYSVILLE AIRPORT (ASOS), Yuba, CA02, -121.569, 39.102, 62, 60.7, 1.63
UKIAH MUNICIPAL AP, Mendocino, CA01, -123.200, 39.128, 603, 57.7, 2.18
UKIAH 4 WSW, Mendocino, CA01, -123.272, 39.127, 1328, M, 1.88
ADIN RANGER STATION, Modoc, CA02, -120.945, 41.193, 4202, 47.4, 1.43
DUNSMUIR TREATMENT PL, Siskiyou, CA02, -122.282, 41.183, 2169, 51.8, 5.91
JESS VALLEY, Modoc, CA02, -120.295, 41.268, 5400, 44.7, 2.52
MCCLOUD, Siskiyou, CA02, -122.138, 41.252, 3233, 46.9, 3.38
ORICK, Humboldt, CA01, -124.067, 41.283, 5, M, 8.00
CALLAHAN, Siskiyou, CA01, -122.825, 41.338, 3085, 49.6, 3.32
SAWYERS BAR RS, Siskiyou, CA01, -123.133, 41.301, 2255, 57.5, 1.23
ORLEANS RS, Humboldt, CA01, -123.534, 41.303, 433, M, 0.00
ORICK PRAIRIE CREEK PARK, Humboldt, CA01, -124.019, 41.362, 160, 53.2, 1.90
CANBY 3 SW, Modoc, CA02, -120.902, 41.422, 4310, 45.2, 1.85
ALTURAS, Modoc, CA02, -120.544, 41.490, 4378, 40.9, 2.13
FORT JONES RS, Siskiyou, CA01, -122.848, 41.601, 2729, 48.8, 2.86
LAVA BEDS NAT MON, Siskiyou, CA01, -121.501, 41.702, 4770, 45.1, 1.30
MOUNT HEBRON RS, Siskiyou, CA01, -122.045, 41.783, 4265, 47.6, 1.86
CRESCENT CITY 3 NNW, Del Norte, CA01, -124.215, 41.796, 43, 53.3, 8.93
CRESCENT CITY MCNAMARA AP, Del Norte, CA01, -124.238, 41.784, 56, 53.4, 5.91
GASQUET RS, Del Norte, CA01, -123.965, 41.845, 387, M, 13.60
FORT DICK RIVER, Del Norte, CA01, -124.135, 41.881, -, M, 10.68
TULELAKE, Siskiyou, CA01, -121.474, 41.960, 4038, 45.8, 2.72
COPCO NO 1 DAM, Siskiyou, CA01, -122.338, 41.980, 2665, M, 4.31
ELK VALLEY, Del Norte, CA01, -123.718, 41.988, 1708, M, 15.20
PACIFICA 4 SSE, San Mateo, CA04, -122.472, 37.592, 475, 60.1, 2.44
BARSTOW, San Bernardino, CA07, -117.022, 34.893, 2220, 64.8, 0.00
INYOKERN, Kern, CA07, -117.821, 35.651, 2430, 64.2, 0.00
PEARBLOSSOM, Los Angeles, CA07, -117.897, 34.503, 3101, 64.4, 0.00
EL CAJON, San Diego, CA06, -116.928, 32.801, 495, 69.3, T
MARKLEY COVE, Napa, CA02, -122.124, 38.492, 480, 60.1, 1.40
SUSANVILLE 2SW, Lassen, CA03, -120.663, 40.417, 4212, 48.2, 0.43
TEJON RANCHO, Kern, CA05, -118.750, 35.023, 1425, 57.0, 0.31
SAN NICOLAS IS, Ventura, CA06, -119.458, 33.240, 568, 65.8, 0.03
BURBANK GLENDALE PASADENA AP, Los Angeles, CA06, -118.365, 34.200, 731, 67.5, 0.49
MOUNT SHASTA, Siskiyou, CA02, -122.317, 41.322, 3613, 47.9, 3.59
WATSONVILLE MUNICIPAL AIRPORT, Santa Cruz, CA04, -121.790, 36.939, 162, 59.3, 0.87
SANTA ROSA SONOMA CO AP, Sonoma, CA04, -122.811, 38.504, 119, 57.8, 2.48
OAKHURST, Madera, CA05, -119.653, 37.331, 2230, 52.3, 0.20
HEARST CASTLE, San Luis Obispo, CA04, -121.168, 35.684, 1526, 62.4, 1.38
GETTY CENTER, Los Angeles, CA06, -118.479, 34.087, 1117, 68.5, 1.02
HESPERIA 2E, San Bernardino, CA07, -117.266, 34.421, 3055, 65.7, 0.07
RANCHO BERNARDO, San Diego, CA06, -117.081, 33.022, 690, 67.0, 0.27
FELTON, Santa Cruz, CA04, -122.075, 37.051, 400, 56.4, 2.54
PACIFICA 2S, San Mateo, CA04, -122.484, 37.610, 125, 55.6, 0.10
SAN JUAN CANYON, Orange, CA06, -117.552, 33.532, 375, 62.6, 0.03
YOUNTVILLE, Napa, CA01, -122.357, 38.395, 95, 59.4, 1.90
APPLE VALLEY #2, San Bernardino, CA07, -117.279, 34.536, 2780, 60.9, 0.00
OCOTILLO WELLS 2W, San Diego, CA07, -116.169, 33.155, 390, 78.8, 0.00
IRVINE RANCH, Orange, CA06, -117.723, 33.720, 540, 68.8, 0.18
MT. LAGUNA #3, San Diego, CA07, -116.419, 32.867, 5920, 54.5, 0.03
AVALON INLAND, Los Angeles, CA06, -118.330, 33.338, 90, 64.0, 0.20
DESERT CENTER 2 NNE, Riverside, CA07, -115.392, 33.738, 747, 71.9, 0.00
TORRANCE AP, Los Angeles, CA06, -118.342, 33.802, 90, 66.7, 0.35
MERCED 23 WSW, Merced, CA05, -120.882, 37.238, 78, 59.7, 0.39
REDDING 12 WNW, Shasta, CA02, -122.607, 40.651, 1418, 58.0, 3.21
STOVEPIPE WELLS 1 SW, Inyo, CA07, -117.145, 36.602, 84, 75.2, 0.00
LOS ANGELES DOWNTOWN/USC, Los Angeles, CA06, -118.291, 34.024, 179, 68.4, 0.95
FRESNO YOSEMITE INT'L, Fresno, CA05, -119.720, 36.780, 334, 64.4, 0.20
MONTEREY PENINSUL AP, Monterey, CA04, -121.849, 36.590, 160, 59.4, 0.82
PASO ROBLES MUNICIPAL AP, San Luis Obispo, CA04, -120.629, 35.669, 820, 60.3, 0.45
MONTAGUE SISKIYOU AIRPORT, Siskiyou, CA01, -122.468, 41.774, 2645, 48.9, 2.94
SAN JOSE, Santa Clara, CA04, -121.903, 37.350, 67, 61.9, 0.74
SAN JOSE, Santa Clara, CA04, -121.924, 37.359, 49, 61.7, 1.28
PALM SPRINGS ASOS, Riverside, CA07, -116.504, 33.822, 409, 75.4, 0.00
THOUSAND OAKS 1 SW, Ventura, CA06, -118.899, 34.182, 783, 65.7, 0.35
FILLMORE 2 W, Ventura, CA06, -118.945, 34.409, 495, 66.9, 0.02
SAN DIEGO BROWN FIELD, San Diego, CA06, -116.994, 32.576, 521, 66.1, 0.13
LAKE BERRYESSA, Napa, CA02, -122.250, 38.579, 455, 61.7, 0.50
PACIFIC HOUSE #2, El Dorado, CA02, -120.503, 38.758, 3440, M, 1.68
Bakersfield Area, -, -, -, -, -, 64.5, 0.28
Bishop Area, -, -, -, -, -, 55.6, 0.01
Los Angeles Downtown Area, -, -, -, -, -, 68.4, 0.95
Eureka Area, -, -, -, -, -, 53.8, 4.92
Fresno Area, -, -, -, -, -, 64.4, 0.20
Los Angeles Airport Area, -, -, -, -, -, 66.3, 0.64
Long Beach Area, -, -, -, -, -, 68.3, 0.56
Redding Area, -, -, -, -, -, 60.5, 2.96
Sacramento Area, -, -, -, -, -, 61.1, 1.05
San Diego Area, -, -, -, -, -, 66.7, 0.37
Stockton Area, -, -, -, -, -, 63.3, 0.79
San Francisco Airport Area, -, -, -, -, -, 59.9, 1.97
Santa Maria Area, -, -, -, -, -, 61.6, 0.57
CAMP PENDLETON MCAS, San Diego, CA06, -117.355, 33.304, 70, 62.8, 0.25
LEMOORE REEVES NAS, Fresno, CA05, -119.950, 36.333, 232, 62.1, 0.33
MOUNTAIN PASS 1SE, San Bernardino, CA07, -115.531, 35.459, 4777, 55.6, 0.00
ARVIN, Kern, CA05, -118.834, 35.211, 450, 65.1, 0.04
FRAZIER PARK, Kern, CA06, -118.965, 34.827, 4972, 53.9, 0.23
EDWARDS AFB NORTH AUXILIARY AIRFIELD, Kern, CA07, -117.865, 34.988, 2283, 61.1, 0.01
YOSEMITE VILLAGE 12 W, Mariposa, CA05, -119.821, 37.759, 6620, 49.5, 1.03
REDONDO BEACH, Los Angeles, CA06, -118.376, 33.834, 142, 63.5, 0.11
BURBANK VALLEY PUMP PLANT, Los Angeles, CA06, -118.348, 34.187, 655, 67.3, 0.51
GRASS VALLEY 5.7 S, Nevada, CA02, -121.055, 39.139, 2169, M, 0.19
ARBUCKLE BASIN CALIFORNIA, Shasta, CA02, -122.833, 40.398, 1900, 59.3, M
ACTON CALIFORNIA, Los Angeles, CA06, -118.200, 34.446, 2600, 62.3, M
ARROYO GRANDE CALIFORNIA, San Luis Obispo, CA04, -120.392, 35.179, 1048, 64.5, M
ALDER SPRINGS CALIFORNIA, Glenn, CA02, -122.724, 39.651, 4300, 53.1, M
ALPINE CALIFORNIA, San Diego, CA06, -116.739, 32.834, 2041, 67.2, M
LOS ALTOS CALIFORNIA, Santa Clara, CA04, -122.147, 37.358, 645, 62.2, M
AMMO DUMP CALIFORNIA, San Diego, CA06, -117.286, 33.381, 1068, 69.2, M
ANZA CALIFORNIA, Riverside, CA06, -116.673, 33.555, 3920, 58.5, M
ALDER POINT CALIFORNIA, Humboldt, CA01, -123.590, 40.187, 923, 55.9, M
ARROYO SECO (MT. DIABLO) CALIF, Monterey, CA04, -121.492, 36.230, 980, 61.6, M
ASH CREEK CALIFORNIA, Siskiyou, CA02, -121.979, 41.277, 3200, 46.0, M
ASH VALLEY CALIFORNIA, Lassen, CA02, -120.686, 41.052, 5100, 44.0, M
BACKBONE CALIFORNIA, Trinity, CA01, -123.142, 40.889, 4700, 49.9, M
BALD MTN LOC CALIFORNIA, El Dorado, CA02, -120.697, 38.906, 4680, 55.0, M
BARNABY CALIFORNIA, Marin, CA01, -122.702, 38.028, 1240, 58.2, M
BATTERSON CALIFORNIA, Madera, CA05, -119.508, 37.232, 3160, 61.3, M
BIG BAR CALIFORNIA, Trinity, CA01, -123.233, 40.733, 1500, 55.0, M
BELL CANYON CALIFORNIA, Orange, CA06, -117.592, 33.542, 700, 67.2, M
BRADLEY CALIFORNIA, Monterey, CA04, -120.803, 35.864, 537, 62.6, M
BEAR PEAK CALIFORNIA, Tulare, CA05, -118.052, 35.884, 8228, 47.3, M
BENTON CALIFORNIA, Mono, CA07, -118.478, 37.843, 5450, 51.7, M
BEAUMONT CALIFORNIA, Riverside, CA06, -116.950, 33.931, 2604, 65.9, M
BEVERLY HILLS CALIFORNIA, Los Angeles, CA06, -118.412, 34.125, 1260, 72.2, M
BEAR VALLEY CALIFORNIA, Kern, CA05, -118.625, 35.140, 4000, 55.2, M
BANGOR CALIFORNIA, Butte, CA02, -121.386, 39.398, 803, 60.5, M
BIG HILL CALIFORNIA, Humboldt, CA01, -123.636, 41.098, 3570, 50.0, M
BIG PINES CALIFORNIA, Los Angeles, CA07, -117.692, 34.379, 6917, 53.9, M
BIG ROCK CALIFORNIA, Marin, CA01, -122.570, 38.039, 1500, 59.5, M
BLACK DIAMOND CALIFORNIA, Contra Costa, CA04, -121.884, 37.950, 1600, 59.4, M
BLUE DOOR CALIFORNIA, Lassen, CA02, -120.337, 41.055, 5615, 44.0, M
BLUE RIDGE (KNF) CALIFORNIA, Siskiyou, CA01, -123.187, 41.269, 5956, 46.3, M
BEN BOLT CALIFORNIA, El Dorado, CA05, -120.934, 38.591, 905, 60.1, M
BEN LOMOND CALIFORNIA, Santa Cruz, CA04, -122.170, 37.132, 2630, 56.5, M
BOGARD R.S. CALIFORNIA, Lassen, CA02, -121.083, 40.598, 5650, 41.9, M
BOONVILLE CALIFORNIA, Mendocino, CA01, -123.349, 38.988, 644, 56.8, M
BIG PINE FLAT CALIFORNIA, San Bernardino, CA07, -117.013, 34.319, 6861, 51.9, M
BRIDGEPORT 4NW CALIFORNIA, Mono, CA03, -119.289, 38.272, 6650, 48.2, M
BRANCH MOUNTAIN CALIFORNIA, San Luis Obispo, CA04, -120.083, 35.189, 3770, 58.1, M
BEAR FLAT CALIFORNIA, Modoc, CA02, -120.313, 41.295, 6200, 42.5, M
BRIONES CALIFORNIA, Contra Costa, CA04, -122.118, 37.944, 1450, 60.6, M
BLACKROCK CALIFORNIA, Tulare, CA05, -118.260, 36.093, 8200, 46.7, M
BROOKS CALIFORNIA, Yolo, CA02, -122.145, 38.738, 354, 62.0, M
BIG SUR CALIFORNIA, Monterey, CA04, -121.785, 36.236, 450, 61.4, M
BUCK MEADOWS CALIFORNIA, Tuolumne, CA05, -120.097, 37.823, 3200, 55.7, M
BULL FLAT CALIFORNIA, Lassen, CA03, -120.114, 40.481, 4395, 46.6, M
BURNS CANYON CALIFORNIA, San Bernardino, CA07, -116.634, 34.210, 6000, 57.5, M
BUTTERCUP CALIFORNIA, Imperial, CA07, -114.884, 32.740, 217, 76.4, M
BEAVER CAMP LOC CALIFORNIA, Amador, CA05, -120.325, 38.488, 5000, 57.2, M
BRAZIE RANCH CALIFORNIA, Siskiyou, CA01, -122.594, 41.685, 3000, 50.6, M
CAHUILLA CALIFORNIA, Imperial, CA07, -115.174, 32.974, 278, 77.4, M
CALLAHAN CALIFORNIA, Siskiyou, CA01, -122.796, 41.308, 3136, 49.6, M
CAMERON FIRE STATION CALIFORNI, San Diego, CA06, -116.463, 32.721, 3443, 60.0, M
CANBY CALIFORNIA, Modoc, CA02, -120.868, 41.434, 4312, 46.6, M
CARRIZO CALIFORNIA, San Luis Obispo, CA05, -119.773, 35.096, 2490, 62.1, M
CASE SPRINGS CALIFORNIA, San Diego, CA06, -117.418, 33.445, 2320, 65.6, M
CATHEYS VALLEY CALIFORNIA, Mariposa, CA05, -120.111, 37.468, 1200, 63.6, M
CEDAR GROVE CALIFORNIA, Fresno, CA05, -118.656, 36.788, 4720, 52.6, M
CHEESEBORO CALIFORNIA, Ventura, CA06, -118.717, 34.185, 1650, 66.6, M
CHICO CALIFORNIA, Butte, CA02, -121.779, 39.712, 230, 61.2, M
CHILAO CALIFORNIA, Los Angeles, CA06, -118.030, 34.332, 5450, 58.8, M
CHUCHUPATE CALIFORNIA, Ventura, CA05, -119.012, 34.808, 4900, 50.8, M
CLAREMONT CALIFORNIA, Los Angeles, CA06, -117.707, 34.137, 1645, 66.6, M
CLEAR CREEK CALIFORNIA, Los Angeles, CA06, -118.152, 34.271, 3000, 63.5, M
CLARK CALIFORNIA, Riverside, CA06, -117.309, 33.877, 1720, 66.3, M
CALAVERAS ROAD CALIFORNIA, Alameda, CA04, -121.844, 37.553, 1230, 60.2, M
CASE MOUNTAIN CALIFORNIA, Tulare, CA05, -118.809, 36.411, 6450, 52.7, M
CORONA CALIFORNIA, Riverside, CA06, -117.549, 33.874, 640, 67.7, M
COHASSET CALIFORNIA, Butte, CA02, -121.769, 39.872, 1733, 61.1, M
COLLINS BALDY CALIFORNIA, Siskiyou, CA01, -122.950, 41.775, 5493, 44.6, M
LORAINE 5 NNE, Kern, CA05, -118.412, 35.384, 4235, 55.4, 0.10
CORONADO FIRE DEPT, San Diego, CA06, -117.177, 32.692, 18, 67.4, T
FALLBROOK FIRE DEPT, San Diego, CA06, -117.248, 33.384, 698, 68.3, 0.27
DEL MAR FIRE DEPT, San Diego, CA06, -117.262, 32.972, 12, 66.0, 0.15
IMPERIAL BEACH FIRE DEPT, San Diego, CA06, -117.114, 32.576, 22, 65.2, 0.08
LEMON GROVE FIRE DEPARTMENT, San Diego, CA06, -117.030, 32.738, 427, 68.1, T
SPRING VALLEY FIRE DEPT, San Diego, CA06, -117.006, 32.710, 270, 69.5, 0.00
SANTEE FIRE DEPT, San Diego, CA06, -116.973, 32.841, 340, 67.7, 0.00
LEE VINING, Mono, CA07, -119.119, 37.957, 6797, 49.0, 0.13
ANAHEIM, Orange, CA06, -117.842, 33.865, 235, 71.6, 0.40
RED BLUFF TREATMENT PLANT, Tehama, CA02, -122.220, 40.162, 265, M, 1.26
NEW MELONES DAM HQ, Tuolumne, CA05, -120.486, 38.005, 960, 62.8, 1.58
MAMMOTH LAKES RS, Mono, CA07, -118.962, 37.648, 7804, 42.1, 1.10
BIG SUR 3 SE, Monterey, CA04, -121.772, 36.246, 240, M, 0.79
FRAZIER PARK 9 SW, Ventura, CA05, -119.104, 34.733, 5169, M, 0.20
MONTEREY WFO, Monterey, CA04, -121.855, 36.593, 122, 57.3, 1.13
SKYLINE RIDGE PRESERVE, San Mateo, CA04, -122.185, 37.313, 2270, 55.8, 2.77
FREMONT, Alameda, CA04, -122.016, 37.542, 38, 60.2, 1.34
MAD RIVER 12 SE, Trinity, CA01, -123.374, 40.319, 2763, M, 1.10
NEWHALL 5NW, Los Angeles, CA06, -118.594, 34.393, 1765, 67.1, 0.38
TEHACHAPI 4 SE, Kern, CA05, -118.422, 35.101, 4220, 55.4, 0.23
WRIGHTWOOD, San Bernardino, CA07, -117.639, 34.362, 6000, 49.7, 0.30
REDDING CDF, Shasta, CA02, -122.299, 40.519, 502, M, 2.11
NORTHRIDGE CAL STATE, Los Angeles, CA06, -118.525, 34.245, 904, 69.0, 0.43
OXNARD WFO, Ventura, CA06, -119.137, 34.207, 52, 64.4, 0.29
HANFORD MUNICIPAL AP, Kings, CA05, -119.623, 36.311, 249, 62.0, 0.30
RAMONA AIRPORT, San Diego, CA06, -116.916, 33.038, 1385, 62.7, 0.19
VACAVILLE/NUT TREE AP ASOS, Solano, CA02, -121.959, 38.378, 104, 62.2, 1.69
ALTURAS MUNICIPAL AP, Modoc, CA02, -120.561, 41.484, 4383, 44.3, 1.96
MADERA MUNICIPAL AP, Madera, CA05, -120.111, 36.985, 251, 62.4, 0.43
BAKERSFIELD 5 NW, Kern, CA05, -119.051, 35.419, 470, 65.7, 0.26
FRESNO 5 NE, Fresno, CA05, -119.709, 36.767, 338, 66.0, 0.22
OCEANSIDE MUNICIPAL AP, San Diego, CA06, -117.350, 33.219, 30, 62.6, 0.36
SAN DIEGO SEAWORLD, San Diego, CA06, -117.231, 32.765, 14, 63.7, 0.44
RIALTO, San Bernardino, CA07, -117.393, 34.130, 1420, 70.6, 0.00
BOULEVARD 2, San Diego, CA07, -116.300, 32.667, 3600, M, 1.90
ARCATA EUREKA AP, Humboldt, CA01, -124.105, 40.978, 211, 52.5, 5.73
CHICO ARMY FLYING SCH, Butte, CA02, -121.850, 39.800, 272, 61.9, 1.14
NEWPORT BEACH HARBOR, Orange, CA06, -117.884, 33.603, 10, 65.7, 0.08
ESCONDIDO NO. 2, San Diego, CA06, -117.090, 33.121, 600, 68.6, 0.00
REDDING AP, Shasta, CA02, -122.298, 40.515, 501, 60.5, 2.96
AVALON CATALINA AP, Los Angeles, CA06, -118.415, 33.404, 1565, 64.2, 0.04
SANTA MARIA PUBLIC AP, Santa Barbara, CA06, -120.452, 34.894, 243, 61.6, 0.57
MOUNT SHASTA, Siskiyou, CA02, -122.333, 41.333, 3535, 48.0, 3.20
RED BLUFF MUNI AP, Tehama, CA02, -122.255, 40.152, 354, 61.3, 1.11
NEEDLES AIRPORT, San Bernardino, CA07, -114.618, 34.768, 888, 74.7, 0.00
CHINA LAKE NAF, Kern, CA07, -117.693, 35.688, 2230, 64.0, 0.13
SANTA ROSA ISLAND CALIFORNIA, Santa Barbara, CA06, -120.078, 33.978, 1298, 65.5, M
SANTA ROSA PLATEAU CALIFORNIA, Riverside, CA06, -117.231, 33.529, 1980, 66.4, M
SANTA ROSA CALIFORNIA, Sonoma, CA01, -122.712, 38.479, 576, 59.9, M
STAMPEDE CALIFORNIA, Sierra, CA03, -120.075, 39.483, 6867, 45.0, M
STONYFORD CALIFORNIA, Colusa, CA02, -122.575, 39.367, 1200, 59.8, M
SUGARLOAF (SHF) CALIFORNIA, Shasta, CA02, -122.438, 40.917, 4200, 53.9, M
SUGARLOAF CALIFORNIA, Tulare, CA05, -118.675, 36.727, 8120, 49.7, M
TALEGA CALIFORNIA, San Diego, CA06, -117.486, 33.478, 1203, 69.4, M
TANBARK CALIFORNIA, Los Angeles, CA06, -117.761, 34.207, 2600, 65.8, M
TARGET RANGE CALIFORNIA, San Diego, CA06, -117.359, 33.372, 918, 68.2, M
TEMESCAL (LPF) CALIFORNIA, Ventura, CA06, -118.756, 34.481, 1140, 67.2, M
THOMES CREEK CALIFORNIA, Tehama, CA02, -122.610, 39.864, 1040, 63.3, M
THOUSAND OAKS CALIFORNIA, Ventura, CA06, -118.870, 34.210, 795, 65.5, M
TIMBER MOUNTAIN CALIFORNIA, Modoc, CA01, -121.298, 41.629, 4960, 46.0, M
MOUNT TOM CALIFORNIA, Fresno, CA05, -119.178, 37.376, 9018, 43.4, M
LAS TRAMPAS CALIFORNIA, Contra Costa, CA04, -122.067, 37.834, 1760, 54.0, M
TRINITY CAMP CALIFORNIA, Trinity, CA01, -122.804, 40.786, 3308, 51.4, M
TRIMMER CALIFORNIA, Fresno, CA05, -119.305, 36.911, 1540, 62.9, M
GAYLOR MEADOW CALIFORNIA, Tuolumne, CA05, -119.318, 37.868, 9270, 39.7, M
UHL / HOT SPRINGS, Tulare, CA05, -118.633, 35.889, 3720, 56.9, M
UNDERWOOD CALIFORNIA, Trinity, CA01, -123.495, 40.722, 2600, 53.6, M
VALLEY CENTER CALIFORNIA, San Diego, CA06, -117.009, 33.237, 1483, 67.3, M
VAN BREMMER CALIFORNIA, Siskiyou, CA01, -121.794, 41.643, 4928, 45.7, M
VALYERMO CALIFORNIA, Los Angeles, CA07, -117.851, 34.446, 3780, 60.3, M
VANDENBERG CALIFORNIA, Santa Barbara, CA06, -120.486, 34.759, 1050, 62.3, M
WALKER CALIFORNIA, Mono, CA03, -119.459, 38.565, 5440, 52.8, M
WALKER PASS CALIFORNIA, Kern, CA05, -118.057, 35.665, 5572, 57.7, M
WARM SPRINGS CALIFORNIA, Los Angeles, CA06, -118.579, 34.596, 4930, 61.5, M
WEED AIRPORT CALIFORNIA, Siskiyou, CA01, -122.454, 41.479, 2930, 49.2, M
WESTWOOD CALIFORNIA, Lassen, CA02, -120.900, 40.307, 5800, 45.1, M
WHITE CLOUD CALIFORNIA, Nevada, CA02, -120.837, 39.317, 4320, 55.2, M
WHITTIER HILLS CALIFORNIA, Los Angeles, CA06, -118.010, 33.984, 950, 69.5, M
WHITMORE CALIFORNIA, Shasta, CA02, -121.899, 40.619, 2417, 57.0, M
WILEY RIDGE CALIFORNIA, Ventura, CA06, -118.841, 34.372, 1645, 67.8, M
WOFFORD HEIGHTS CALIFORNIA, Kern, CA05, -118.499, 35.722, 3150, 60.1, M
WOLVERTON CALIFORNIA, Tulare, CA05, -118.703, 36.445, 5240, 57.7, M
WHITAKER PEAK CALIFORNIA, Los Angeles, CA06, -118.740, 34.569, 4120, 61.3, M
WHITE WOLF CALIFORNIA, Tuolumne, CA05, -119.650, 37.851, 8025, 44.2, M
YOLLA BOLLA CALIFORNIA, Trinity, CA01, -123.066, 40.338, 4524, 50.6, M
YUCCA VALLEY CALIFORNIA, San Bernardino, CA07, -116.408, 34.123, 3260, 63.1, M
YUROK CALIFORNIA, Humboldt, CA01, -123.857, 41.290, 495, 55.9, M
HAGAN'S MEADOW, El Dorado, CA03, -119.940, 38.850, 7776, 42.1, 1.40
BLUE LAKES, Alpine, CA05, -119.920, 38.610, 8057, 41.2, 1.40
POISON FLAT, Alpine, CA03, -119.630, 38.510, 7736, 41.5, 1.10
SONORA PASS, Mono, CA03, -119.600, 38.310, 8827, 41.3, 0.90
LEAVITT MEADOWS, Mono, CA03, -119.550, 38.300, 7198, 45.1, 1.10
VIRGINIA LAKES RIDGE, Mono, CA03, -119.230, 38.070, 9445, 41.2, 0.80
LOBDELL LAKE, Mono, CA03, -119.370, 38.440, 9233, 40.6, 0.70
EBBETTS PASS, Alpine, CA03, -119.800, 38.550, 8765, 41.0, 1.90
HEAVENLY VALLEY, El Dorado, CA03, -119.920, 38.920, 8582, 41.3, 1.60
LEAVITT LAKE, Mono, CA03, -119.610, 38.280, 9617, 39.6, 1.60
SPRATT CREEK, Alpine, CA03, -119.820, 38.670, 6115, 46.7, 1.10
MONITOR PASS, Alpine, CA03, -119.610, 38.670, 8310, 42.5, 0.90
BURNSIDE LAKE, Alpine, CA03, -119.890, 38.720, 8129, 39.6, 1.70
SUMMIT MEADOW, Mono, CA03, -119.540, 38.400, 9313, 41.2, 0.90
FORESTDALE CREEK, Alpine, CA03, -119.960, 38.680, 8017, 43.1, 2.50
HORSE MEADOW, Alpine, CA03, -119.890, 38.840, 8557, 41.5, 1.20
CARSON PASS, Alpine, CA02, -119.990, 38.690, 8353, 41.6, 1.90
CROWDER FLAT, Modoc, CA01, -120.750, 41.890, 5170, 44.0, 2.30
CEDAR PASS, Modoc, CA02, -120.300, 41.580, 7030, 42.0, 3.70
DISMAL SWAMP, Modoc, CA03, -120.180, 41.990, 7360, 37.8, 7.00
ADIN MTN, Modoc, CA02, -120.790, 41.240, 6190, 41.3, 3.10
CAMPO ASOS, San Diego, CA07, -116.468, 32.626, 2641, 58.0, 0.18
Burbank Glendale Pasadena Area, -, -, -, -, -, 67.5, 0.49
Camarillo Area, -, -, -, -, -, 64.6, 0.11
Needles Area, -, -, -, -, -, 74.7, 0.00
Oxnard Area, -, -, -, -, -, 64.4, 0.29
Palm Springs Area, -, -, -, -, -, 75.4, 0.00
Riverside Area, -, -, -, -, -, 69.3, 0.00
Ramona Area, -, -, -, -, -, 62.7, 0.19
Northern CA 8 Station Index, -, -, -, -, -, M, 3.43
San Joaquin 5 Station Index, -, -, -, -, -, M, 1.18
INDEPENDENCE CREEK, Sierra, CA03, -120.280, 39.490, 6456, 42.8, 2.30
INDEPENDENCE CAMP, Sierra, CA03, -120.290, 39.450, 7003, 42.9, 2.40
INDEPENDENCE LAKE, Nevada, CA03, -120.310, 39.430, 8352, 40.5, 5.10
TRUCKEE #2, Placer, CA03, -120.180, 39.300, 6509, 45.5, 1.90
WARD CREEK #3, Placer, CA03, -120.220, 39.140, 6655, 43.7, 4.30
TAHOE CITY CROSS, Placer, CA03, -120.150, 39.170, 6797, 45.1, 2.30
SQUAW VALLEY G.C., Placer, CA03, -120.260, 39.190, 8029, 41.7, 5.40
CSS LAB, Nevada, CA02, -120.370, 39.330, 6855, 43.3, 6.20
RUBICON #2, El Dorado, CA03, -120.130, 39.000, 7689, 43.4, 2.30
ECHO PEAK, El Dorado, CA03, -120.080, 38.850, 7670, 44.1, 3.10
FALLEN LEAF, El Dorado, CA03, -120.050, 38.930, 6236, 44.0, 1.60
Crescent City Area, -, -, -, -, -, 53.4, 5.91
Escondido Area, -, -, -, -, -, 68.6, 0.00
Sacramento Downtown Area, -, -, -, -, -, 63.0, 0.93
Tahoe City Area, -, -, -, -, -, 43.9, 2.02
Ukiah Area, -, -, -, -, -, 57.7, 2.18
Alturas Area, -, -, -, -, -, 44.3, 1.96
Mount Shasta Area, -, -, -, -, -, 48.0, 3.20
Palmdale Area, -, -, -, -, -, 61.9, T
Lancaster Area, -, -, -, -, -, 61.3, 0.18
El Cajon Area, -, -, -, -, -, 69.3, T
Hanford Area, -, -, -, -, -, 62.0, 0.30
El Centro Area, -, -, -, -, -, 75.2, T
Madera Area, -, -, -, -, -, 62.4, 0.43
Merced Area, -, -, -, -, -, 61.6, 0.77
San Jose Area, -, -, -, -, -, 61.7, 1.28
CONVERSE CALIFORNIA, San Bernardino, CA06, -116.913, 34.194, 5618, 54.2, M
COOSKIE MOUNTAIN CALIFORNIA, Humboldt, CA01, -124.266, 40.257, 2950, 52.7, M
CORRALITOS CALIFORNIA, Santa Cruz, CA04, -121.798, 36.991, 450, 61.7, M
COUNTY LINE CALIFORNIA, Lake, CA02, -122.412, 39.019, 2085, 60.4, M
CAMP 9 CALIFORNIA, Los Angeles, CA06, -118.422, 34.362, 4000, 61.3, M
CRANE FLAT LOOKOUT CALIFORNIA, Mariposa, CA05, -119.825, 37.762, 6644, 50.6, M
CRESTVIEW CALIFORNIA, Mono, CA07, -118.983, 37.745, 7600, 43.5, M
CORNING CALIFORNIA, Tehama, CA02, -122.170, 39.939, 294, 61.7, M
CARPENTER RIDGE CALIFORNIA, Butte, CA02, -121.582, 40.069, 4812, 51.8, M
CRANSTON CALIFORNIA, Riverside, CA06, -116.841, 33.740, 1950, 68.4, M
CASHMAN CALIFORNIA, Plumas, CA02, -120.915, 40.002, 4520, 51.8, M
DESCANSO CALIFORNIA, San Diego, CA06, -116.622, 32.857, 3480, 62.1, M
DEVILS GARDEN CALIFORNIA, Modoc, CA02, -120.671, 41.530, 5022, 45.0, M
DIABLO GRANDE CALIFORNIA, Stanislaus, CA05, -121.294, 37.329, 1850, 60.9, M
DEMOCRAT CALIFORNIA, Kern, CA05, -118.630, 35.532, 2356, 61.8, M
DINKEY CALIFORNIA, Fresno, CA05, -119.039, 37.066, 5668, 46.9, M
DELNORTE CALIFORNIA, Santa Barbara, CA06, -119.654, 34.009, 800, 35.8, M
DOG VALLEY CALIFORNIA, Sierra, CA03, -120.048, 39.562, 5976, 46.5, M
DOYLE CALIFORNIA, Lassen, CA03, -120.106, 40.022, 4240, 50.5, M
DUNCAN CALIFORNIA, Placer, CA02, -120.509, 39.144, 7100, 46.5, M
DEL VALLE CALIFORNIA, Los Angeles, CA06, -118.683, 34.431, 1278, 68.4, M
DEVORE CALIFORNIA, San Bernardino, CA06, -117.404, 34.221, 2057, 66.8, M
EAGLE PEAK CALIFORNIA, Tehama, CA02, -122.657, 39.928, 3713, 55.1, M
EEL RIVER CAMP CALIFORNIA, Humboldt, CA01, -123.824, 40.138, 446, 57.0, M
EEL RIVER CALIFORNIA, Mendocino, CA01, -123.083, 39.833, 1500, 56.8, M
EL CARISO CALIFORNIA, Riverside, CA06, -117.411, 33.647, 3038, 67.2, M
MOUNT ELIZABETH CALIFORNIA, Tuolumne, CA05, -120.247, 38.063, 4933, 54.5, M
EL MIRAGE CALIFORNIA, San Bernardino, CA07, -117.550, 34.634, 2880, 61.5, M
ESPERANZA CALIFORNIA, Calaveras, CA05, -120.515, 38.243, 2559, 60.1, M
FANCHER CREEK CALIFORNIA, Fresno, CA05, -119.466, 36.884, 920, 66.4, M
FAWNSKIN CALIFORNIA, San Bernardino, CA06, -116.899, 34.266, 6900, 49.2, M
FENCE MEADOW CALIFORNIA, Fresno, CA05, -119.175, 36.961, 5048, 56.0, M
FORT HUNTER LIGGET CALIFORNIA, Monterey, CA04, -121.242, 36.012, 1100, 61.6, M
FIGUEROA CALIFORNIA, Santa Barbara, CA06, -120.007, 34.733, 3200, 62.6, M
FISH CREEK MTN CALIFORNIA, Imperial, CA07, -116.067, 32.990, 760, 79.2, M
FIVE MILE CALIFORNIA, Inyo, CA07, -117.918, 35.872, 4150, 64.9, M
FORT ORD #2 CALIFORNIA, Monterey, CA04, -121.786, 36.627, 490, 58.0, M
FORESTHILL CALIFORNIA, Placer, CA02, -120.732, 39.091, 4355, 54.7, M
FOUNTAIN SPRINGS CALIFORNIA, Tulare, CA05, -118.915, 35.892, 210, 62.4, M
FREMONT CANYON CALIFORNIA, Orange, CA06, -117.711, 33.808, 1781, 68.4, M
FRIEND MOUNTAIN CALIFORNIA, Trinity, CA01, -123.342, 40.505, 4000, 50.0, M
GASQUET CALIFORNIA, Del Norte, CA01, -123.979, 41.846, 500, 55.9, M
GRASSHOPPER CALIFORNIA, Lassen, CA03, -120.784, 40.782, 6158, 42.8, M
GOOSE VALLEY CALIFORNIA, San Diego, CA06, -116.846, 33.074, 1530, 65.4, M
GORDON CALIFORNIA, Lassen, CA03, -120.896, 40.759, 6200, 42.6, M
GREEN SPRING CALIFORNIA, Tuolumne, CA05, -120.500, 37.833, 1020, 62.0, M
GRIZZLY FLAT CALIFORNIA, El Dorado, CA05, -120.561, 38.620, 3740, 53.9, M
HASTINGS CALIFORNIA, Monterey, CA04, -121.552, 36.389, 1885, 59.0, M
HAWKEYE CALIFORNIA, Sonoma, CA01, -122.917, 38.782, 2000, 57.8, M
HAYFORK CALIFORNIA, Trinity, CA01, -123.165, 40.550, 2323, 51.8, M
HELL HOLE CALIFORNIA, Placer, CA02, -120.422, 39.072, 5240, 52.1, M
HERNANDEZ CALIFORNIA, San Benito, CA04, -120.856, 36.383, 3733, 57.4, M
HIGH GLADE LOOKOUT CALIFORNIA, Lake, CA02, -122.808, 39.208, 4840, 51.0, M
HIGH SIERRA CALIFORNIA, Fresno, CA05, -119.038, 37.315, 7403, 48.6, M
HOPLAND CALIFORNIA, Mendocino, CA01, -123.081, 39.031, 2682, 56.8, M
HOLLISTER CALIFORNIA, San Benito, CA04, -121.362, 36.842, 404, 61.2, M
HUNTER MOUNTAIN CALIFORNIA, Inyo, CA07, -117.474, 36.563, 6880, 51.0, M
HORSE LAKE CALIFORNIA, Lassen, CA03, -120.503, 40.631, 5100, 44.5, M
HOOPA CALIFORNIA, Humboldt, CA01, -123.671, 41.048, 375, 57.7, M
HORSE THIEF SPRINGS CALIFORNIA, San Bernardino, CA07, -115.909, 35.771, 5000, 59.9, M
HURLEY CALIFORNIA, Fresno, CA05, -119.568, 37.015, 1201, 58.7, M
LYONS VALLEY CALIFORNIA, Lake, CA01, -123.074, 39.126, 3200, 55.3, M
LYTLE CREEK CALIFORNIA, San Bernardino, CA06, -117.480, 34.234, 2792, 64.4, M
MAD RIVER CALIFORNIA, Trinity, CA01, -123.524, 40.463, 2775, 53.1, M
MALIBU HILLS CALIFORNIA, Los Angeles, CA06, -118.633, 34.058, 1575, 69.0, M
MANZANITA LAKE CALIFORNIA, Shasta, CA02, -121.580, 40.540, 5660, 45.1, M
MARIPOSA GROVE CALIFORNIA, Mariposa, CA05, -119.605, 37.513, 6400, 53.3, M
MILL CREEK (BDF) CALIFORNIA, San Bernardino, CA06, -117.035, 34.084, 2950, 65.8, M
MCGUIRES CALIFORNIA, Mendocino, CA01, -123.601, 39.353, 593, 55.2, M
MEANS LAKE CALIFORNIA, San Bernardino, CA07, -116.517, 34.391, 2900, 64.6, M
MENDOCINO PASS CALIFORNIA, Mendocino, CA01, -122.945, 39.808, 5420, 47.3, M
METCALF GAP CALIFORNIA, Madera, CA05, -119.768, 37.409, 3077, 61.2, M
MEYERS CALIFORNIA, El Dorado, CA03, -120.018, 38.849, 6310, 44.0, M
MID HILLS CALIFORNIA, San Bernardino, CA07, -115.411, 35.123, 5413, 57.1, M
MILL CREEK (ANF) CALIFORNIA, Los Angeles, CA06, -118.082, 34.390, 5021, 57.8, M
MILO CALIFORNIA, Tulare, CA05, -118.869, 36.231, 1923, 64.0, M
MALLORY RIDGE CALIFORNIA, Contra Costa, CA05, -121.779, 37.817, 2040, 59.0, M
MONTECITO CALIFORNIA, Santa Barbara, CA06, -119.648, 34.461, 1500, 67.8, M
MODOC NWR CALIFORNIA, Modoc, CA02, -120.354, 41.459, 4380, 45.0, M
MOJAVE RIVER SINK CALIFORNIA, San Bernardino, CA07, -116.079, 35.053, 950, 69.7, M
MORMON ROCK CALIFORNIA, San Bernardino, CA06, -117.502, 34.318, 3300, 62.8, M
MOUNTAIN REST CALIFORNIA, Fresno, CA05, -119.371, 37.054, 4100, 58.6, M
MARKLEEVILLE CALIFORNIA, Alpine, CA03, -119.767, 38.683, 5501, 48.4, M
MT. SHASTA CALIFORNIA, Siskiyou, CA02, -122.316, 41.316, -, 48.2, M
MARIPOSA CALIFORNIA, Mariposa, CA05, -119.987, 37.504, 2231, 59.5, M
MT. DIABLO CALIFORNIA, Contra Costa, CA05, -121.914, 37.882, 3849, 52.9, M
MOUNT ZION CALIFORNIA, Amador, CA05, -120.651, 38.389, 2960, 58.7, M
NORTH FORK CALIFORNIA, Madera, CA05, -119.505, 37.233, 2720, 60.1, M
OAK BOTTOM CALIFORNIA, Shasta, CA02, -122.606, 40.651, 1326, 59.8, M
OAK KNOLL CALIFORNIA, Siskiyou, CA01, -122.850, 41.839, 1940, 52.0, M
OAK MOUNTAIN CALIFORNIA, Shasta, CA02, -121.983, 41.006, 1700, 55.8, M
OAK CREEK CALIFORNIA, Inyo, CA07, -118.259, 36.843, 4855, 60.5, M
OJAI CALIFORNIA, Ventura, CA06, -119.230, 34.448, 765, 62.9, M
OAK GROVE CALIFORNIA, San Diego, CA06, -116.795, 33.393, 2752, 63.9, M
OAKLAND NORTH CALIFORNIA, Contra Costa, CA04, -122.221, 37.865, 1403, 58.3, M
OAK OPENING CALIFORNIA, Tulare, CA05, -118.702, 36.175, 3240, 60.2, M
OAKLAND SOUTH CALIFORNIA, Alameda, CA04, -122.145, 37.786, 1095, 58.5, M
OPAL MOUNTAIN CALIFORNIA, San Bernardino, CA07, -117.176, 35.154, 3240, 64.3, M
OWENS CAMP LOC CALIFORNIA, El Dorado, CA02, -120.245, 38.733, 5240, 51.2, M
OWENS VALLEY CALIFORNIA, Inyo, CA07, -118.551, 37.390, 4640, 59.3, M
OZENA CALIFORNIA, Ventura, CA06, -119.354, 34.682, 3670, 59.7, M
PANAMINT CALIFORNIA, Inyo, CA07, -117.088, 36.120, 6880, 54.6, M
PARKFIELD CALIFORNIA, Monterey, CA04, -120.432, 35.899, 1535, 60.1, M
PATTY MOCUS CALIFORNIA, Tehama, CA02, -122.867, 40.295, 3500, 53.8, M
PINE HILLS CALIFORNIA, San Diego, CA06, -116.634, 33.016, -, 61.4, M
PIERCE CALIFORNIA, Plumas, CA02, -120.642, 40.246, 5700, 46.7, M
PINEHURST CALIFORNIA, Fresno, CA05, -119.000, 36.685, 4060, 57.7, M
PIKE COUNTY LOOKOUT CALIFORNIA, Yuba, CA02, -121.202, 39.475, 3714, 55.5, M
PILOT HILL CALIFORNIA, El Dorado, CA02, -121.009, 38.833, 1200, 58.4, M
PIRU CALIFORNIA, Ventura, CA06, -118.810, 34.404, 614, 66.4, M
PARK RIDGE CALIFORNIA, Tulare, CA05, -118.942, 36.724, 7540, 50.5, M
PINNACLES CALIFORNIA, San Benito, CA04, -121.147, 36.471, 1322, 62.1, M
POPPY PARK CALIFORNIA, Los Angeles, CA07, -118.383, 34.733, 2760, 62.7, M
POTRERO CALIFORNIA, San Diego, CA06, -116.609, 32.606, 2345, 64.1, M
POVERTY CALIFORNIA, Santa Clara, CA04, -121.771, 37.443, 2066, 58.9, M
PANOCHE ROAD CALIFORNIA, Fresno, CA05, -120.766, 36.727, 2032, 61.8, M
PULGAS CALIFORNIA, San Mateo, CA04, -122.298, 37.475, 644, 61.2, M
QUARTZ HILL CALIFORNIA, Siskiyou, CA01, -122.934, 41.599, 4225, 50.1, M
QUINCY RD CALIFORNIA, Plumas, CA02, -120.942, 39.973, 3500, 51.1, M
RAVENDALE CALIFORNIA, Lassen, CA03, -120.316, 40.731, 5298, 45.1, M
RANCHITA CALIFORNIA, San Diego, CA07, -116.497, 33.222, 4415, 61.0, M
READER RANCH CALIFORNIA, Nevada, CA02, -121.117, 39.304, 1968, 59.3, M
INDIAN WELL CALIFORNIA, Siskiyou, CA01, -121.538, 41.742, 4770, 47.5, M
JARBO GAP CALIFORNIA, Butte, CA02, -121.489, 39.736, 2490, 59.1, M
JERSEYDALE CALIFORNIA, Mariposa, CA05, -119.839, 37.544, 3900, 58.7, M
JOHNSONDALE CALIFORNIA, Tulare, CA05, -118.545, 35.972, 4700, 51.0, M
JUANITA LAKE CALIFORNIA, Siskiyou, CA01, -122.006, 41.786, 5400, 45.4, M
JULIAN CALIFORNIA, San Diego, CA07, -116.591, 33.076, 4240, 60.1, M
JUNIPER CREEK CALIFORNIA, Modoc, CA02, -120.472, 41.332, 4372, 47.2, M
KEENWILD CALIFORNIA, Riverside, CA06, -116.767, 33.667, 4920, 59.9, M
KETTLEMAN HILLS CALIFORNIA, Kings, CA05, -120.057, 36.033, 810, 65.9, M
KNOXVILLE CREEK CALIFORNIA, Lake, CA02, -122.417, 38.862, 2200, 57.7, M
KONOCTI CALIFORNIA, Lake, CA02, -122.706, 38.912, 2163, 58.7, M
LOS BANOS CALIFORNIA, Merced, CA05, -121.053, 37.055, 350, 64.7, M
MT. LAGUNA CALIFORNIA, San Diego, CA07, -116.420, 32.880, 5760, 54.2, M
LA HONDA CALIFORNIA, San Mateo, CA04, -122.255, 37.305, 872, 57.1, M
LA PANZA CALIFORNIA, San Luis Obispo, CA04, -120.187, 35.381, 1630, 57.6, M
LAURAL MOUNTAIN CALIFORNIA, Kern, CA07, -117.699, 35.478, 4390, 61.4, M
LASSEN LODGE CALIFORNIA, Tehama, CA02, -121.714, 40.344, 4159, 54.3, M
LAUFMAN CALIFORNIA, Lassen, CA03, -120.353, 40.142, 5800, 48.5, M
LAYTONVILLE CALIFORNIA, Mendocino, CA01, -123.485, 39.702, 1820, 56.0, M
LADDER BUTTE CALIFORNIA, Lassen, CA02, -121.297, 40.807, 5750, 46.2, M
LEO CARRILLO CALIFORNIA, Los Angeles, CA06, -118.936, 34.046, 50, 66.2, M
LOS GATOS CALIFORNIA, Santa Clara, CA04, -121.943, 37.203, 2000, 61.4, M
LOST HORSE CALIFORNIA, Riverside, CA07, -116.188, 34.018, 4200, 60.4, M
LINCOLN CALIFORNIA, Placer, CA02, -121.268, 38.883, 200, 61.9, M
LOWER KLAMATH CALIFORNIA, Siskiyou, CA01, -121.700, 41.999, 4098, 44.1, M
LOS PRIETOS CALIFORNIA, Santa Barbara, CA06, -119.783, 34.536, 1020, 64.9, M
LAS FLORES CALIFORNIA, San Diego, CA06, -117.439, 33.289, 100, 66.2, M
LAS TABLAS CALIFORNIA, San Luis Obispo, CA04, -120.924, 35.656, 994, 57.8, M
LITTLE TUJUNGA CALIFORNIA, Los Angeles, CA06, -118.361, 34.294, 1390, 67.4, M
REDDING AIRPORT CALIFORNIA, Shasta, CA02, -122.291, 40.516, 500, 60.8, M
RICE VALLEY CALIFORNIA, Riverside, CA07, -114.732, 34.061, 820, 73.7, M
ROCK CREEK, Mono, CA07, -118.667, 37.551, 7040, 47.1, M
RODEO VALLEY, Mendocino, CA01, -123.321, 39.668, 2428, 55.0, M
ROSE VALLEY CALIFORNIA, Ventura, CA06, -119.184, 34.543, 3331, 55.5, M
ROUND MOUNTAIN, Siskiyou, CA02, -121.464, 41.427, 5258, 45.5, M
ROSE PEAK CALIFORNIA, Alameda, CA04, -121.735, 37.502, 3060, 55.9, M
RATTLESNAKE CALIFORNIA, Tulare, CA05, -118.422, 36.407, 8600, 48.2, M
RUSH CREEK CALIFORNIA, Modoc, CA02, -120.864, 41.294, 4800, 46.4, M
RUTH CALIFORNIA, Trinity, CA01, -123.316, 40.251, 2732, 52.1, M
SACRAMENTO NWR CALIFORNIA, Glenn, CA02, -122.182, 39.417, 120, 61.7, M
SADDLEBACK BUTTE CALIFORNIA, Los Angeles, CA07, -117.821, 34.685, 2590, 61.2, M
SAUGUS CALIFORNIA, Los Angeles, CA06, -118.525, 34.425, 1450, 67.5, M
SAWYERS BAR CALIFORNIA, Siskiyou, CA01, -123.132, 41.300, 2192, 53.7, M
SANTA CRUZ ISLAND CALIFORNIA, Santa Barbara, CA06, -119.722, 33.996, 250, 65.2, M
SCORPION CALIFORNIA, Trinity, CA01, -122.697, 41.112, 4400, 52.9, M
SODA CREEK CALIFORNIA, Lake, CA01, -122.977, 39.425, 1773, 54.2, M
SADDLEBACK CALIFORNIA, Sierra, CA02, -120.865, 39.638, 6670, 46.7, M
SECRET TOWN CALIFORNIA, Nevada, CA02, -120.885, 39.184, 2826, 57.8, M
SANTA FE DAM CALIFORNIA, Los Angeles, CA06, -117.946, 34.121, 500, 69.3, M
SHAVER CALIFORNIA, Fresno, CA05, -119.256, 37.135, 5746, 48.8, M
SCHOOL HOUSE CALIFORNIA, Humboldt, CA01, -123.906, 41.138, 2640, 52.0, M
SHIP MTN. CALIFORNIA, Del Norte, CA01, -123.792, 41.736, 5300, 44.3, M
SHADEQUARTER CALIFORNIA, Tulare, CA05, -118.956, 36.567, 4069, 58.0, M
SIMS CALIFORNIA, Shasta, CA02, -122.373, 41.075, 2400, 54.4, M
SIMI VALLEY CALIFORNIA, Ventura, CA06, -118.814, 34.291, 914, 66.5, M
SLATER BUTTE CALIFORNIA, Siskiyou, CA01, -123.352, 41.859, 4670, 46.2, M
SAN MIGUEL CALIFORNIA, San Diego, CA06, -116.974, 32.685, 425, 68.1, M
SAN LUIS NWR CALIFORNIA, Merced, CA05, -120.794, 37.182, 65, 62.0, M
SANTA RITA CALIFORNIA, San Benito, CA05, -120.598, 36.348, 5000, 53.7, M
SOLDIER MOUNTAIN CALIFORNIA, Shasta, CA02, -121.586, 40.926, 3710, 51.6, M
SOMES BAR CALIFORNIA, Siskiyou, CA01, -123.496, 41.390, 920, 56.7, M
SQUAW SPRINGS CALIFORNIA, San Bernardino, CA07, -117.568, 35.370, 3620, 64.3, M
SQUAW LAKE CALIFORNIA, Imperial, CA07, -114.494, 32.908, 300, 77.1, M