Name, County, ClimateDivision, Longitude, Latitude, Elevation, MeanAvgTemperature, TotalPrecipitation
DEEP CANYON LAB, Riverside, CA07, -116.376, 33.651, 1200, M, 0.00
ELSINORE, Riverside, CA06, -117.346, 33.686, 1268, 77.7, 0.00
SANTA ANA JOHN WAYNE AP, Orange, CA06, -117.867, 33.680, 43, 70.3, T
HAYFIELD PUMPING PLANT, Riverside, CA07, -115.629, 33.704, 1370, 86.1, 0.00
IDYLLWILD FIRE DEPT, Riverside, CA06, -116.707, 33.757, 5380, 67.2, 0.00
SAN JACINTO, Riverside, CA06, -116.975, 33.797, 1525, 78.0, 0.00
HEMET, Riverside, CA06, -116.894, 33.738, 1811, 76.8, 0.00
SANTA ANA FIRE STATION, Orange, CA06, -117.867, 33.744, 135, 72.1, 0.00
EAGLE MOUNTAIN, Riverside, CA07, -115.451, 33.809, 973, 91.1, 0.00
PALM SPRINGS, Riverside, CA07, -116.510, 33.828, 425, 90.8, 0.00
LONG BEACH DAUGHERTY AP, Los Angeles, CA06, -118.147, 33.812, 34, 70.1, 0.00
PALOS VERDES ES FC43D, Los Angeles, CA06, -118.391, 33.800, 220, M, 0.00
FULLERTON MUNICIPAL AP, Orange, CA06, -117.986, 33.872, 86, 73.0, T
BEAUMONT #2, Riverside, CA07, -116.990, 33.926, 2591, 76.1, 0.00
YORBA LINDA, Orange, CA06, -117.819, 33.890, 350, 72.8, 0.00
DOWNEY FIRE DEPT. FC107C, Los Angeles, CA06, -118.145, 33.930, 110, M, 0.00
HAWTHORNE MUNICIPAL AP, Los Angeles, CA06, -118.333, 33.924, 55, 70.1, 0.00
LOS ANGELES INTL AP, Los Angeles, CA06, -118.387, 33.938, 97, 68.4, 0.00
RIVERSIDE FIRE STATION 3, Riverside, CA06, -117.388, 33.951, 840, 78.1, 0.00
CHINO AP, San Bernardino, CA06, -117.625, 33.976, 636, 73.9, 0.00
WHITTIER CITY YARD FC106C, Los Angeles, CA06, -118.022, 33.976, 446, M, 0.00
RIVERSIDE CITRUS EXP, Riverside, CA06, -117.361, 33.967, 986, 75.1, 0.00
MT WILSON CBS, Los Angeles, CA06, -118.071, 34.231, 5710, 71.1, 0.00
LA CRESCENTA FC251 C, Los Angeles, CA06, -118.238, 34.222, 1545, M, 0.00
VAN NUYS AP, Los Angeles, CA06, -118.491, 34.212, 785, 75.2, T
CAMARILLO AP, Ventura, CA06, -119.088, 34.211, 71, 65.0, 0.00
OXNARD VENTURA COUNTY AP, Ventura, CA06, -119.204, 34.200, 39, 62.0, 0.00
PARKER RESRVOIR, San Bernardino, CA07, -114.171, 34.290, 738, 91.5, 0.00
TWENTYNINE PALMS MC, San Bernardino, CA07, -116.147, 34.294, 2003, 88.9, 0.00
BIG BEAR LAKE, San Bernardino, CA06, -116.917, 34.243, 6753, 62.1, 0.00
LAKE ARROWHEAD, San Bernardino, CA07, -117.188, 34.247, 5205, 66.5, 0.00
VENTURA, Ventura, CA06, -119.292, 34.283, 105, M, 0.01
CRYSTAL LAKE FC238C, Los Angeles, CA06, -117.842, 34.318, 5345, M, 0.00
BIG TUJUNGA DAM FC46, Los Angeles, CA06, -118.188, 34.295, 2326, M, 0.00
PACOIMA DAM FC33A-E, Los Angeles, CA06, -118.400, 34.329, 1550, M, 0.00
SANTA BARBARA MUNI AP, Santa Barbara, CA06, -119.842, 34.424, 8, 64.8, 0.00
JUNCAL DAM, Santa Barbara, CA06, -119.507, 34.491, 2260, M, 0.00
BARSTOW-DAGGETT AIRPORT, San Bernardino, CA07, -116.787, 34.854, 1919, 85.4, 0.00
MERCED, Merced, CA05, -120.516, 37.289, 154, 75.8, 0.00
SAN DIEGO MONTGOMERY FIELD, San Diego, CA06, -117.137, 32.815, 418, 68.9, 0.02
SAN DIEGO INTERNATIONAL AP, San Diego, CA06, -117.183, 32.734, 15, 66.9, 0.02
SAN DIEGO MIRAMAR NAS, San Diego, CA06, -117.133, 32.867, 477, 67.8, 0.02
NORTH ISLAND NAS, San Diego, CA06, -117.210, 32.692, 14, 68.9, 0.02
SAN FRANCISCO INTERNATIONAL AP, San Mateo, CA04, -122.366, 37.620, 10, 61.5, 0.00
SAN LUIS OBISPO MCCHESNEY FIELD, San Luis Obispo, CA04, -120.644, 35.238, 183, 62.6, 0.00
CEDARVILLE, Modoc, CA03, -120.179, 41.530, 4688, 61.4, 0.31
CHICO UNIVERSITY FARM, Butte, CA02, -121.821, 39.691, 185, 73.4, 0.00
CHULA VISTA, San Diego, CA06, -117.086, 32.640, 56, 67.2, 0.00
COLFAX, Placer, CA02, -120.947, 39.090, 2373, 69.3, T
CUYAMACA, San Diego, CA06, -116.587, 32.990, 4640, 66.0, 0.00
DAVIS 2 WSW EXP FARM, Yolo, CA02, -121.776, 38.535, 60, 73.1, 0.00
DEATH VALLEY NATIONAL PARK, Inyo, CA07, -116.867, 36.463, -194, 97.7, 0.00
FAIRMONT, Los Angeles, CA07, -118.430, 34.705, 3060, 76.2, 0.00
FORT BRAGG 5 N, Mendocino, CA01, -123.756, 39.510, 123, 52.1, 0.04
HANFORD 1 S, Kings, CA05, -119.637, 36.316, 237, 75.3, 0.00
HAPPY CAMP RANGER STATION, Siskiyou, CA01, -123.375, 41.796, 1142, 67.6, 0.02
HEALDSBURG, Sonoma, CA01, -122.866, 38.629, 177, 72.7, 0.00
INDIO FIRE STATION, Riverside, CA07, -116.215, 33.709, -21, 90.0, 0.00
LEMON COVE, Tulare, CA05, -119.026, 36.382, 513, 76.8, 0.00
LIVERMORE, Alameda, CA04, -121.751, 37.682, 529, 70.3, 0.00
LODI, San Joaquin, CA05, -121.288, 38.106, 40, 73.3, 0.00
MERCED MUNICIPAL AP, Merced, CA05, -120.518, 37.286, 152, 75.9, 0.00
NAPA STATE HOSPITAL, Napa, CA01, -122.265, 38.278, 35, 68.8, 0.00
OJAI, Ventura, CA06, -119.227, 34.448, 745, 70.1, 0.00
ORLAND, Glenn, CA02, -122.200, 39.746, 254, 75.7, 0.00
ORLEANS, Humboldt, CA01, -123.532, 41.309, 403, 66.4, 0.12
PASADENA, Los Angeles, CA06, -118.145, 34.148, 864, 74.8, 0.00
PASO ROBLES, San Luis Obispo, CA04, -120.685, 35.628, 730, 70.4, 0.00
PETALUMA AIRPORT, Sonoma, CA01, -122.608, 38.258, 20, 65.6, 0.00
QUINCY, Plumas, CA02, -120.947, 39.937, 3420, 63.3, T
REDLANDS, San Bernardino, CA06, -117.195, 34.037, 1410, 76.4, 0.00
SANTA BARBARA, Santa Barbara, CA06, -119.684, 34.417, 16, 64.1, 0.00
SANTA CRUZ, Santa Cruz, CA04, -122.000, 36.988, 70, 62.4, 0.00
SANTA ROSA, Sonoma, CA01, -122.713, 38.456, 166, 66.5, 0.00
TAHOE CITY, Placer, CA03, -120.143, 39.168, 6230, 55.3, 0.01
UKIAH, Mendocino, CA01, -123.210, 39.147, 636, 67.4, 0.01
VACAVILLE, Solano, CA02, -121.961, 38.396, 110, 75.7, 0.00
WASCO, Kern, CA05, -119.352, 35.589, 291, 79.4, 0.00
WEAVERVILLE, Trinity, CA01, -122.940, 40.737, 2058, 64.1, 0.04
WILLOWS 6 W, Glenn, CA02, -122.305, 39.523, 234, 73.9, 0.00
YOSEMITE PARK HEADQUARTERS, Mariposa, CA05, -119.590, 37.750, 4018, 62.2, 0.00
YREKA, Siskiyou, CA01, -122.641, 41.703, 2709, 63.8, 0.08
BERKELEY, Alameda, CA04, -122.260, 37.874, 310, 62.5, 0.00
BLYTHE, Riverside, CA07, -114.597, 33.613, 268, 94.3, 0.00
EUREKA WFO WOODLEY ISLAND, Humboldt, CA01, -124.160, 40.810, 20, 53.7, 0.24
INDEPENDENCE, Inyo, CA07, -118.204, 36.798, 3950, 78.0, 0.00
SAN LUIS OBISPO POLY, San Luis Obispo, CA04, -120.662, 35.306, 308, 62.7, 0.00
BURNEY, Shasta, CA02, -121.655, 40.880, 3198, 61.2, 0.04
IMPERIAL BEACH REAM FIELD NAS, San Diego, CA06, -117.117, 32.568, 24, 69.4, T
CAMPO, San Diego, CA06, -116.470, 32.626, 2630, 68.6, 0.00
CALEXICO 2 NE, Imperial, CA07, -115.464, 32.688, 12, M, 0.00
EL CENTRO 2 SSW, Imperial, CA07, -115.562, 32.767, -30, 88.4, 0.00
IMPERIAL COUNTY AP, Imperial, CA07, -115.577, 32.835, -55, 89.0, T
EL CENTRO NAF, Imperial, CA07, -115.664, 32.832, -46, 88.3, 0.00
ALPINE, San Diego, CA06, -116.777, 32.836, 1695, 71.4, 0.00
MOJAVE, Kern, CA07, -118.162, 35.049, 2735, 79.8, 0.00
PISMO BEACH, San Luis Obispo, CA04, -120.683, 35.160, 39, 58.2, 0.00
TAFT, Kern, CA05, -119.430, 35.150, 773, 78.4, 0.00
BAKER, San Bernardino, CA07, -116.063, 35.276, 962, 89.1, 0.00
SALINAS DAM, San Luis Obispo, CA04, -120.504, 35.337, 1392, M, 0.00
RANDSBURG, Kern, CA07, -117.652, 35.369, 3570, 78.2, 0.00
SANTA MARGARITA BOOST, San Luis Obispo, CA04, -120.637, 35.374, 1148, M, 0.00
MORRO BAY FIRE DEPT, San Luis Obispo, CA04, -120.845, 35.367, 118, 57.6, 0.00
BAKERSFIELD AP, Kern, CA05, -119.055, 35.434, 490, 79.7, 0.00
BUTTONWILLOW, Kern, CA05, -119.470, 35.403, 225, 78.6, 0.00
GLENNVILLE, Kern, CA05, -118.701, 35.727, 3140, 65.0, 0.00
TRONA, San Bernardino, CA07, -117.391, 35.764, 1695, 85.1, 0.00
DELANO, Kern, CA05, -119.260, 35.768, 302, 78.5, 0.00
BRADLEY TELEMETERING, Monterey, CA04, -120.868, 35.930, 443, M, 0.00
SHOSHONE, Inyo, CA07, -116.271, 35.972, 1546, 85.5, 0.00
PORTERVILLE MUNICIPAL AIRPORT, Tulare, CA05, -119.062, 36.029, 442, 76.0, 0.00
KETTLEMAN CITY, Kings, CA05, -119.960, 36.007, 240, 78.4, 0.00
HAIWEE, Inyo, CA07, -117.953, 36.139, 3825, 77.6, 0.00
CORCORAN IRRIGATION DIST., Kings, CA05, -119.582, 36.098, 200, 77.3, 0.00
COALINGA, Fresno, CA05, -120.361, 36.136, 670, 79.0, 0.00
PRIEST VALLEY, Monterey, CA04, -120.695, 36.188, 2300, 68.6, 0.00
KING CITY, Monterey, CA04, -121.138, 36.207, 320, 67.7, 0.00
LINDSAY, Tulare, CA05, -119.054, 36.203, 435, 77.4, 0.00
BIG SUR STATION, Monterey, CA04, -121.780, 36.247, 200, 64.0, 0.00
VISALIA, Tulare, CA05, -119.300, 36.328, 303, 76.4, 0.00
FIVE POINTS 5 SSW, Fresno, CA05, -120.156, 36.364, 285, 77.2, 0.00
SAN CLEMENTE DAM, Monterey, CA04, -121.709, 36.438, 600, M, 0.00
ASH MOUNTAIN, Tulare, CA05, -118.825, 36.491, 1708, 77.1, 0.00
THREE RIVERS EDISON PH 1, Tulare, CA05, -118.862, 36.465, 1140, 74.9, 0.00
PINNACLES NATIONAL PARK, San Benito, CA04, -121.182, 36.482, 1307, 64.8, 0.00
CARMEL VALLEY, Monterey, CA04, -121.724, 36.481, 480, 63.6, 0.00
LODGEPOLE, Tulare, CA05, -118.732, 36.604, 6735, 55.5, 0.00
PANOCHE 2 W, San Benito, CA05, -120.884, 36.607, 1400, M, T
MONTEREY, Monterey, CA04, -121.855, 36.593, 122, 57.2, 0.03
SALINAS NO. 2, Monterey, CA04, -121.666, 36.659, 45, 60.2, 0.04
SALINAS AP, Monterey, CA04, -121.609, 36.664, 73, 60.5, T
GRANT GROVE, Tulare, CA05, -118.962, 36.738, 6580, 60.0, 0.00
PAICINES 4 W, San Benito, CA04, -121.349, 36.715, 905, 64.6, 0.00
PINE FLAT DAM, Fresno, CA05, -119.337, 36.821, 615, 78.7, 0.00
HOLLISTER 2, San Benito, CA04, -121.421, 36.848, 275, 66.1, 0.00
CHITTENDEN PASS, Santa Cruz, CA04, -121.597, 36.900, 82, M, 0.00
BALCH POWER HOUSE, Fresno, CA05, -119.088, 36.909, 1735, 77.6, 0.00
WATSONVILLE WATERWORKS, Santa Cruz, CA04, -121.769, 36.931, 95, 61.8, 0.00
FRIANT GOVERNMENT CAMP, Fresno, CA05, -119.707, 36.997, 410, 76.4, 0.00
MADERA, Madera, CA05, -120.038, 36.954, 270, 75.6, 0.00
WISHON DAM, Fresno, CA05, -118.984, 37.007, 6550, 60.8, 0.00
GILROY, Santa Clara, CA04, -121.561, 37.003, 194, 69.2, T
AUBERRY 2 NW, Fresno, CA05, -119.513, 37.092, 2090, 77.2, 0.00
LOS BANOS, Merced, CA05, -120.867, 37.056, 120, 76.9, 0.00
BEN LOMOND NO. 4, Santa Cruz, CA04, -122.080, 37.086, 420, 66.2, 0.00
MORGAN HILL, Santa Clara, CA04, -121.602, 37.136, 375, 69.5, 0.00
ASPENDELL, Inyo, CA01, -118.599, 37.232, 8470, 58.4, 0.00
HUNTINGTON LAKE, Fresno, CA05, -119.221, 37.228, 7020, 55.6, 0.00
BIG CREEK PH 1, Fresno, CA05, -119.242, 37.206, 4878, 66.6, 0.00
NORTH FORK RS, Madera, CA05, -119.510, 37.233, 2645, 70.9, 0.00
LOS GATOS, Santa Clara, CA04, -121.959, 37.232, 365, 67.5, 0.00
NEWMAN, Stanislaus, CA05, -121.018, 37.281, 90, 76.0, 0.00
MOUNT HAMILTON, Santa Clara, CA04, -121.635, 37.343, 4220, 66.8, 0.00
BISHOP AIRPORT, Inyo, CA07, -118.359, 37.371, 4110, 70.9, 0.00
MOFFETT FEDERAL AIRFIELD, Santa Clara, CA04, -122.048, 37.406, 39, 66.6, 0.02
TURLOCK #2, Stanislaus, CA05, -120.846, 37.502, 103, 75.8, 0.00
PALO ALTO, Santa Clara, CA04, -122.140, 37.444, 25, 65.8, 0.00
REDWOOD CITY, San Mateo, CA04, -122.239, 37.477, 31, 64.2, 0.00
HALF MOON BAY, San Mateo, CA04, -122.443, 37.473, 27, 54.7, 0.08
SO ENTRANCE YOSEMITE N.P., Mariposa, CA05, -119.633, 37.512, 5047, 61.0, 0.02
MARIPOSA R S, Mariposa, CA05, -119.986, 37.495, 2100, 72.8, 0.00
NEWARK, Alameda, CA04, -122.032, 37.515, 10, 65.6, 0.00
EXCHEQUER DAM, Mariposa, CA05, -120.267, 37.585, 442, M, 0.00
MODESTO AP, Stanislaus, CA05, -120.955, 37.625, 87, 77.7, T
HAYWARD AIR TERMINAL, Alameda, CA04, -122.121, 37.659, 31, 63.3, 0.00
TRACY CARBONA, San Joaquin, CA05, -121.347, 37.682, 135, 72.2, 0.00
LIVERMORE MUNICIPAL AP, Alameda, CA04, -121.815, 37.693, 393, 69.4, 0.00
OAKLAND INTERNATIONAL AIRPORT, Alameda, CA04, -122.233, 37.718, 5, 62.0, 0.00
UPPER SAN LEANDRO FILTERS, Alameda, CA04, -122.167, 37.772, 394, M, 0.00
SAN FRANCISCO DOWNTOWN, San Francisco, CA04, -122.427, 37.771, 150, 59.5, 0.00
SAN FRANCISCO OCEANSIDE, San Francisco, CA04, -122.505, 37.728, 8, 54.2, 0.00
GROVELAND 2, Tuolumne, CA05, -120.226, 37.844, 2800, 66.3, 0.02
TRACY PUMPING PLANT, Alameda, CA05, -121.583, 37.796, 61, 74.0, 0.00
OAKLAND MUSEUM, Alameda, CA04, -122.264, 37.798, 30, 63.7, 0.00
MATHER, Tuolumne, CA05, -119.856, 37.885, 4510, M, T
MOUNT DIABLO JUNCTION, Contra Costa, CA04, -121.930, 37.879, 2170, 67.9, 0.00
STOCKTON AP, San Joaquin, CA05, -121.226, 37.890, 27, 74.0, 0.00
RICHMOND, Contra Costa, CA04, -122.377, 37.919, 20, 64.2, 0.00
MUIR WOODS, Marin, CA01, -122.569, 37.898, 220, M, 0.00
HETCH HETCHY, Tuolumne, CA05, -119.783, 37.961, 3870, 67.0, T
CHERRY VALLEY DAM, Tuolumne, CA05, -119.916, 37.975, 4765, 67.2, 0.03
SONORA, Tuolumne, CA05, -120.387, 37.967, 1675, 68.3, 0.00
STOCKTON FIRE STA 4, San Joaquin, CA05, -121.318, 37.999, 12, 71.9, 0.00
ANTIOCH PUMPING PLANT #3, Contra Costa, CA05, -121.752, 37.983, 60, 73.7, 0.00
CONCORD BUCHANAN FIELD, Contra Costa, CA04, -122.053, 37.992, 23, 71.0, 0.00
CONCORD WASTEWATER PLANT, Contra Costa, CA04, -122.069, 37.983, 40, 71.3, 0.00
SAN RAFAEL-CIVIC CENTER, Marin, CA01, -122.537, 37.998, 120, 65.6, 0.00
KENTFIELD, Marin, CA01, -122.545, 37.957, 145, 66.0, 0.00
MARTINEZ WATER PLANT, Contra Costa, CA04, -122.114, 38.013, 40, 69.9, 0.00
BODIE CALIFORNIA STATE HISTORIC PARK, Mono, CA03, -119.014, 38.212, 8370, 51.6, 0.02
ACAMPO 5NE, San Joaquin, CA05, -121.201, 38.218, 87, M, 0.00
NAPA COUNTY AIRPORT, Napa, CA04, -122.280, 38.208, 16, 64.7, 0.00
BRIDGEPORT, Mono, CA03, -119.229, 38.258, 6470, 56.6, 0.01
CALAVERAS BIG TREES, Calaveras, CA05, -120.311, 38.277, 4695, 65.4, 0.00
CAMP PARDEE, Calaveras, CA05, -120.843, 38.249, 658, 75.2, 0.00
TRAVIS FIELD AFB, Solano, CA02, -121.933, 38.267, 62, M, 0.03
FAIRFIELD, Solano, CA02, -122.068, 38.274, 40, 71.4, 0.00
PACIFIC HOUSE, El Dorado, CA02, -120.503, 38.758, 3450, M, 0.03
MIDDLETOWN, Lake, CA02, -122.626, 38.748, 1121, M, 0.00
CLOVERDALE, Sonoma, CA01, -123.026, 38.793, 400, 71.7, 0.00
KELSEY 1 N, El Dorado, CA02, -120.821, 38.809, 2000, M, 0.00
SOUTH LAKE TAHOE AP, El Dorado, CA03, -119.996, 38.898, 6257, 54.6, T
GEORGETOWN RS, El Dorado, CA02, -120.801, 38.933, 3001, 72.2, 0.00
AUBURN, Placer, CA02, -121.084, 38.907, 1292, 74.2, 0.00
NICOLAUS #2, Sutter, CA02, -121.545, 38.926, 43, M, 0.00
YORKVILLE, Mendocino, CA01, -123.231, 38.905, 1100, M, 0.00
FORESTHILL RANGER STATION, Placer, CA02, -120.845, 39.010, 3015, M, 0.00
MARYSVILLE AIRPORT (ASOS), Yuba, CA02, -121.569, 39.102, 62, 74.6, 0.00
UKIAH MUNICIPAL AP, Mendocino, CA01, -123.200, 39.128, 603, 68.4, T
SONOMA, Sonoma, CA01, -122.462, 38.299, 97, 68.1, 0.00
SUTTER HILL CDF, Amador, CA05, -120.801, 38.377, 1586, 73.5, 0.00
WEST POINT, Calaveras, CA05, -120.545, 38.378, 2775, M, 0.00
ATLAS ROAD BROWN, Napa, CA01, -122.248, 38.427, 1680, M, 0.00
GRATON, Sonoma, CA01, -122.865, 38.431, 200, 64.6, 0.00
OCCIDENTAL, Sonoma, CA01, -122.966, 38.386, 865, 57.5, 0.00
FIDDLETOWN DEXTER RCH, Amador, CA05, -120.698, 38.525, 2170, M, 0.00
SACRAMENTO AP ASOS, Sacramento, CA02, -121.496, 38.507, 19, 72.4, 0.00
WINTERS, Yolo, CA02, -121.978, 38.525, 135, 76.5, 0.00
LAKE SOLANO, Solano, CA02, -122.004, 38.492, 187, 75.7, 0.00
SAINT HELENA, Napa, CA01, -122.471, 38.507, 225, 70.5, 0.00
SAINT HELENA 4 WSW, Napa, CA01, -122.538, 38.493, 1780, M, 0.00
CAZADERO 5NW, Sonoma, CA01, -123.162, 38.564, 1420, M, 0.00
FORT ROSS, Sonoma, CA01, -123.245, 38.515, 112, 54.6, 0.02
SACRAMENTO 5 ESE, Sacramento, CA02, -121.418, 38.555, 38, 74.1, 0.00
ANGWIN PACIFIC UNION COLLEGE, Napa, CA01, -122.440, 38.573, 1715, 68.6, 0.00
CALISTOGA, Napa, CA01, -122.578, 38.577, 350, 68.9, 0.00
VENADO, Sonoma, CA01, -123.018, 38.609, 1260, M, 0.00
WOODLAND 1 WNW, Yolo, CA02, -121.794, 38.683, 67, 74.9, 0.00
PLACERVILLE, El Dorado, CA02, -120.824, 38.696, 1850, 73.5, 0.00
REPRESA, Sacramento, CA02, -121.161, 38.694, 295, M, 0.00
SACRAMENTO METROPOLITAN AP, Sacramento, CA02, -121.595, 38.701, 24, 73.2, 0.00
PARADISE, Butte, CA02, -121.624, 39.754, 1750, 72.4, 0.00
COVELO, Mendocino, CA01, -123.244, 39.816, 1413, 67.2, 0.07
VINTON, Plumas, CA02, -120.186, 39.806, 4950, 57.2, 0.00
PORTOLA, Plumas, CA02, -120.472, 39.805, 4850, 58.6, T
DE SABLA, Butte, CA02, -121.611, 39.872, 2710, 69.6, 0.06
LEGGETT, Mendocino, CA01, -123.720, 39.874, 703, M, 0.00
BUCKS CREEK, Plumas, CA02, -121.315, 39.937, 1891, M, 0.16
DOYLE 4 SSE, Lassen, CA03, -120.083, 39.972, 4390, 63.4, 0.00
DOYLE, Lassen, CA03, -120.105, 40.027, 4293, M, 0.00
RICHARDSON GR ST PK, Humboldt, CA01, -123.793, 40.026, 503, 62.7, 0.00
GREENVILLE, Plumas, CA02, -120.950, 40.141, 3590, M, 0.00
CANYON DAM, Plumas, CA02, -121.089, 40.171, 4560, 60.4, 0.01
MIRANDA 4 SE, Humboldt, CA01, -123.776, 40.182, 266, M, 0.00
FORT SEWARD, Humboldt, CA01, -123.632, 40.218, 220, M, 0.00
HONEYDEW 1 SW, Humboldt, CA01, -124.132, 40.238, 373, M, 0.04
CHESTER, Plumas, CA02, -121.242, 40.303, 4530, 59.4, 0.01
MINERAL, Tehama, CA02, -121.609, 40.346, 4875, 56.8, 0.00
GOLD RUN 4 SW, Placer, CA02, -120.900, 39.150, 3220, M, T
WILLIAMS, Colusa, CA02, -122.150, 39.150, 85, M, 0.04
GRASS VALLEY NO. 2, Nevada, CA02, -121.068, 39.204, 2400, 67.7, 0.00
HARRY L. ENGLEBRIGHT DAM, Nevada, CA02, -121.267, 39.237, 800, M, 0.00
COLUSA 2 SSW, Colusa, CA02, -122.027, 39.188, 50, 74.5, 0.00
BLUE CANYON NYACK AP, Placer, CA02, -120.709, 39.276, 5286, 64.6, T
NEVADA CITY, Nevada, CA02, -121.001, 39.247, 2781, 67.4, 0.00
TRUCKEE AIRPORT, Nevada, CA03, -120.139, 39.320, 5900, 54.8, 0.00
TRUCKEE RS, Nevada, CA03, -120.173, 39.333, 5823, 55.7, T
DONNER MEMORIAL ST PARK, Nevada, CA03, -120.233, 39.324, 5937, 54.7, 0.00
DEER CREEK FOREBAY, Nevada, CA02, -120.833, 39.300, 4455, M, 0.00
COLGATE POWERHOUSE, Yuba, CA02, -121.192, 39.331, 595, M, 0.00
MOULTON WEIR, Colusa, CA02, -122.017, 39.333, 76, M, 0.00
BOCA, Nevada, CA03, -120.094, 39.389, 5575, 54.5, T
DOBBINS 1 S, Yuba, CA02, -121.201, 39.358, 1640, 69.4, 0.00
POTTER VALLEY POWERHOUSE, Mendocino, CA01, -123.129, 39.362, 1018, 66.9, 0.00
FARAD, Nevada, CA03, -120.033, 39.428, 5153, M, 0.06
WILLITS 1 NE, Mendocino, CA01, -123.342, 39.419, 1353, 59.1, 0.00
BOWMAN DAM, Nevada, CA02, -120.656, 39.454, 5385, 62.6, 0.00
OROVILLE, Butte, CA02, -121.553, 39.518, 171, 76.3, T
OROVILLE MUNICIPAL AP, Butte, CA02, -121.622, 39.494, 187, 75.9, T
SIERRAVILLE RS, Sierra, CA02, -120.370, 39.583, 4975, 57.6, 0.00
DOWNIEVILLE, Sierra, CA02, -120.824, 39.563, 2915, 64.9, 0.00
STRAWBERRY VALLEY, Yuba, CA02, -121.108, 39.563, 3808, 63.1, 0.00
STONY GORGE RESERVOIR, Glenn, CA02, -122.534, 39.586, 800, 73.6, 0.03
BRUSH CREEK RANGER STATION, Butte, CA02, -121.345, 39.695, 3560, M, 0.11
IMPERIAL, Imperial, CA07, -115.567, 32.849, -64, 86.7, 0.00
EL CAPITAN DAM, San Diego, CA06, -116.815, 32.886, 600, 70.9, 0.00
LAKESIDE 2 E, San Diego, CA06, -116.895, 32.854, 690, M, 0.00
POWAY VALLEY, San Diego, CA06, -117.031, 33.020, 648, 71.1, 0.00
JULIAN CDF, San Diego, CA06, -116.592, 33.076, 4215, 69.1, 0.00
RAMONA FIRE DEPT, San Diego, CA06, -116.908, 33.011, 1470, 71.9, 0.00
SAN PASQUAL ANIMAL PK, San Diego, CA06, -116.997, 33.096, 420, 72.3, 0.00
CARLSBAD MCCLELLAN PALOMAR AP, San Diego, CA06, -117.277, 33.130, 313, 65.5, 0.01
HENSHAW DAM, San Diego, CA06, -116.761, 33.237, 2700, 67.4, 0.00
VISTA, San Diego, CA06, -117.232, 33.235, 430, 70.0, 0.00
OCEANSIDE MARINA, San Diego, CA06, -117.395, 33.210, 10, 64.6, 0.00
BORREGO DESERT PARK, San Diego, CA07, -116.404, 33.256, 810, 89.4, 0.00
PALOMAR MTN OBSERVATORY, San Diego, CA06, -116.840, 33.378, 5550, 70.7, 0.00
TEMECULA, Riverside, CA06, -117.151, 33.497, 1020, 73.1, 0.00
MECCA FIRE STATION, Riverside, CA07, -116.073, 33.570, -183, 90.4, 0.00
LAGUNA BEACH, Orange, CA06, -117.781, 33.545, 44, 69.1, 0.00
BLYTHE ASOS, Riverside, CA07, -114.715, 33.619, 395, 91.2, 0.00
DESERT RESORTS REGIONAL AP, Riverside, CA07, -116.164, 33.632, -118, 88.9, 0.00
CULVER CITY, Los Angeles, CA06, -118.414, 34.005, 92, 68.3, 0.00
SANTA MONICA MUNICIPAL AP, Los Angeles, CA06, -118.447, 34.021, 175, 66.9, T
SANTA MONICA PIER, Los Angeles, CA06, -118.500, 34.008, 14, 64.1, 0.00
ONTARIO INTL AP, San Bernardino, CA06, -117.577, 34.053, 924, 76.4, 0.00
POMONA/FAIRPLEX, Los Angeles, CA06, -117.766, 34.082, 999, 74.6, 0.00
COVINA CITY YARD FC387B, Los Angeles, CA06, -117.880, 34.092, 607, M, 0.00
U C L A, Los Angeles, CA06, -118.443, 34.070, 430, 67.8, 0.00
IRON MOUNTAIN, San Bernardino, CA07, -115.122, 34.147, 922, 92.6, 0.00
TWENTYNINE PALMS, San Bernardino, CA07, -116.037, 34.128, 1975, 87.0, 0.00
SAN DIMAS FIRE FC 95, Los Angeles, CA06, -117.802, 34.105, 958, M, 0.00
GLENDORA FC 287B, Los Angeles, CA06, -117.847, 34.147, 933, M, 0.01
SAN GABRIEL FIRE DEPT, Los Angeles, CA06, -118.100, 34.084, 363, 73.2, 0.00
POINT MUGU NF, Ventura, CA06, -119.123, 34.124, 12, 62.1, T
ALTADENA, Los Angeles, CA06, -118.138, 34.182, 1127, M, 0.00
SAN GABRIEL CANYON PH, Los Angeles, CA06, -117.908, 34.155, 744, M, 0.02
WOODLAND HILLS PIERCE COLLEGE, Los Angeles, CA06, -118.574, 34.182, 790, 74.3, 0.00
HARRISON GULCH RS, Shasta, CA02, -122.965, 40.364, 2750, 64.6, 0.00
COLEMAN FISHERIES STATION, Shasta, CA02, -122.143, 40.400, 420, M, 0.00
VOLTA PH, Shasta, CA02, -121.866, 40.458, 2220, M, 0.00
GRIZZLY CREEK STATE PARK, Humboldt, CA01, -123.909, 40.486, 413, M, 0.26
SCOTIA, Humboldt, CA01, -124.104, 40.483, 136, 58.2, 0.24
MANZANITA LAKE, Shasta, CA02, -121.577, 40.541, 5750, 57.1, 0.00
WHISKEYTOWN RESERVOIR, Shasta, CA02, -122.528, 40.612, 1295, 76.8, 0.10
SHASTA DAM, Shasta, CA02, -122.416, 40.714, 1075, 76.2, 0.08
TRINITY RIVER HATCHERY, Trinity, CA01, -122.795, 40.726, 1861, 65.1, 0.12
BIG BAR 4 E, Trinity, CA01, -123.208, 40.741, 1253, 64.9, 0.60
ROUND MOUNTAIN, Shasta, CA02, -121.935, 40.796, 2100, M, 0.13
BUCKHORN, Shasta, CA02, -121.932, 40.880, 3700, M, 0.10
HAT CREEK, Shasta, CA02, -121.543, 40.932, 3015, 61.6, 0.02
PIT RIVER PH 5, Shasta, CA02, -121.977, 40.987, 1458, M, 0.11
WILLOW CREEK 1 NW, Humboldt, CA01, -123.636, 40.947, 464, 65.2, 0.12
ADIN RANGER STATION, Modoc, CA02, -120.945, 41.193, 4202, 61.3, 0.17
DUNSMUIR TREATMENT PL, Siskiyou, CA02, -122.282, 41.183, 2169, 66.9, T
JESS VALLEY, Modoc, CA02, -120.295, 41.268, 5400, 56.5, 0.06
MCCLOUD, Siskiyou, CA02, -122.138, 41.252, 3233, 61.8, 0.00
ORICK, Humboldt, CA01, -124.067, 41.283, 5, M, 0.88
CALLAHAN, Siskiyou, CA01, -122.825, 41.338, 3085, 61.2, 0.27
SAWYERS BAR RS, Siskiyou, CA01, -123.133, 41.301, 2255, 65.6, 0.06
ORLEANS RS, Humboldt, CA01, -123.534, 41.303, 433, M, 0.12
CANBY 3 SW, Modoc, CA02, -120.902, 41.422, 4310, 61.8, 0.43
ALTURAS, Modoc, CA02, -120.544, 41.490, 4378, 59.2, 0.05
FORT JONES RS, Siskiyou, CA01, -122.848, 41.601, 2729, 61.4, 0.00
LAVA BEDS NAT MON, Siskiyou, CA01, -121.501, 41.702, 4770, 59.7, 0.10
MOUNT HEBRON RS, Siskiyou, CA01, -122.045, 41.783, 4265, 58.6, 0.01
CRESCENT CITY 3 NNW, Del Norte, CA01, -124.215, 41.796, 43, 53.3, 0.65
CRESCENT CITY MCNAMARA AP, Del Norte, CA01, -124.238, 41.784, 56, 52.8, 0.52
OAK KNOLL W. C., Siskiyou, CA01, -122.850, 41.839, 1980, M, 0.02
GASQUET RS, Del Norte, CA01, -123.965, 41.845, 387, M, 0.71
FORT DICK RIVER, Del Norte, CA01, -124.135, 41.881, -, M, 0.72
TULELAKE, Siskiyou, CA01, -121.474, 41.960, 4038, 58.3, 0.10
COPCO NO 1 DAM, Siskiyou, CA01, -122.338, 41.980, 2665, 63.8, 0.35
ELK VALLEY, Del Norte, CA01, -123.718, 41.988, 1708, M, 0.32
PACIFICA 4 SSE, San Mateo, CA04, -122.472, 37.592, 475, 62.3, 0.00
BARSTOW, San Bernardino, CA07, -117.022, 34.893, 2220, 82.5, 0.00
INYOKERN, Kern, CA07, -117.821, 35.651, 2430, 80.9, 0.00
PEARBLOSSOM, Los Angeles, CA07, -117.897, 34.503, 3101, 79.0, 0.00
EL CAJON, San Diego, CA06, -116.928, 32.801, 495, 75.2, 0.00
MARKLEY COVE, Napa, CA02, -122.124, 38.492, 480, 72.3, 0.00
SUSANVILLE 2SW, Lassen, CA03, -120.663, 40.417, 4212, 62.6, 0.00
TEJON RANCHO, Kern, CA05, -118.750, 35.023, 1425, 70.6, 0.00
SAN NICOLAS IS, Ventura, CA06, -119.458, 33.240, 568, 62.4, T
BURBANK GLENDALE PASADENA AP, Los Angeles, CA06, -118.365, 34.200, 731, 73.9, 0.00
MOUNT SHASTA, Siskiyou, CA02, -122.317, 41.322, 3613, 62.1, 0.02
WATSONVILLE MUNICIPAL AIRPORT, Santa Cruz, CA04, -121.790, 36.939, 162, 61.8, T
SANTA ROSA SONOMA CO AP, Sonoma, CA04, -122.811, 38.504, 119, 66.8, T
OAKHURST, Madera, CA05, -119.653, 37.331, 2230, 63.7, 0.00
VICTORVILLE, San Bernardino, CA07, -117.293, 34.529, 2880, 77.6, 0.00
ACTON ESCONDIDO FC261, Los Angeles, CA06, -118.271, 34.494, 2833, M, 0.00
GIBRALTAR DAM NO. 2, Santa Barbara, CA06, -119.682, 34.523, 1558, M, 0.00
PALMDALE, Los Angeles, CA07, -118.094, 34.588, 2612, 78.1, 0.00
SAUGUS POWER PLANT 1, Los Angeles, CA06, -118.454, 34.590, 2161, M, 0.00
CACHUMA LAKE, Santa Barbara, CA06, -119.982, 34.582, 789, 69.5, 0.00
SALSIPUEDES GAGING STATION, Santa Barbara, CA06, -120.408, 34.585, 254, M, 0.00
EL MIRAGE, San Bernardino, CA07, -117.630, 34.589, 2950, 76.3, 0.00
PALMDALE AP, Los Angeles, CA07, -118.083, 34.629, 2509, 78.1, 0.00
LOMPOC, Santa Barbara, CA06, -120.451, 34.654, 75, 61.6, 0.00
LANCASTER, Los Angeles, CA06, -118.213, 34.741, 2338, 80.4, 0.00
SANDBERG, Los Angeles, CA06, -118.724, 34.744, 4510, 69.3, 0.00
LEBEC, Kern, CA05, -118.865, 34.833, 3575, 70.4, 0.00
CHUCHUPATE RANGER STN, Ventura, CA05, -119.011, 34.808, 5260, 63.7, 0.00
GAREY SISQUOC RIVER, Santa Barbara, CA06, -120.305, 34.894, 355, M, 0.00
MITCHELL CAVERNS, San Bernardino, CA07, -115.547, 34.944, 4350, 79.7, 0.00
NEW CUYAMA FIRE STATION, Santa Barbara, CA06, -119.683, 34.946, 2160, 72.1, 0.00
TWITCHELL DAM, Santa Barbara, CA06, -120.321, 34.988, 582, 66.7, 0.00
REDONDO BEACH, Los Angeles, CA06, -118.376, 33.834, 142, 66.4, 0.00
BURBANK VALLEY PUMP PLANT, Los Angeles, CA06, -118.348, 34.187, 655, 71.9, 0.00
REDWOOD VALLEY 1.5 ENE, Mendocino, CA01, -123.178, 39.272, 912, M, 0.00
PACIFICA 0.3 W, San Mateo, CA04, -122.483, 37.612, 227, M, 0.00
DAVIS 0.8 NE, Yolo, CA02, -121.724, 38.562, 41, M, 0.00
HEARST CASTLE, San Luis Obispo, CA04, -121.168, 35.684, 1526, 69.8, 0.00
GETTY CENTER, Los Angeles, CA06, -118.479, 34.087, 1117, 68.9, 0.00
HESPERIA 2E, San Bernardino, CA07, -117.266, 34.421, 3055, 78.9, T
RANCHO BERNARDO, San Diego, CA06, -117.081, 33.022, 690, 68.1, 0.02
FELTON, Santa Cruz, CA04, -122.075, 37.051, 400, 65.2, 0.00
PACIFICA 2S, San Mateo, CA04, -122.484, 37.610, 125, 54.8, 0.02
SAN JUAN CANYON, Orange, CA06, -117.552, 33.532, 375, 70.1, 0.00
YOUNTVILLE, Napa, CA01, -122.357, 38.395, 95, 67.9, 0.00
APPLE VALLEY #2, San Bernardino, CA07, -117.279, 34.536, 2780, 74.2, 0.00
OCOTILLO WELLS 2W, San Diego, CA07, -116.169, 33.155, 390, 92.6, 0.00
MT. LAGUNA #3, San Diego, CA07, -116.419, 32.867, 5920, 69.0, 0.00
AVALON INLAND, Los Angeles, CA06, -118.330, 33.338, 90, 61.2, 0.00
DESERT CENTER 2 NNE, Riverside, CA07, -115.392, 33.738, 747, 90.9, 0.00
TORRANCE AP, Los Angeles, CA06, -118.342, 33.802, 90, 67.6, 0.00
MERCED 23 WSW, Merced, CA05, -120.882, 37.238, 78, 70.3, 0.00
REDDING 12 WNW, Shasta, CA02, -122.607, 40.651, 1418, 73.3, 0.05
STOVEPIPE WELLS 1 SW, Inyo, CA07, -117.145, 36.602, 84, 96.4, 0.00
LOS ANGELES DOWNTOWN/USC, Los Angeles, CA06, -118.291, 34.024, 179, 71.6, 0.00
FRESNO YOSEMITE INT'L, Fresno, CA05, -119.720, 36.780, 334, 79.1, 0.00
MONTEREY PENINSUL AP, Monterey, CA04, -121.849, 36.590, 160, 59.7, T
PASO ROBLES MUNICIPAL AP, San Luis Obispo, CA04, -120.629, 35.669, 820, 70.8, 0.00
MONTAGUE SISKIYOU AIRPORT, Siskiyou, CA01, -122.468, 41.774, 2645, 62.9, 0.02
SAN JOSE, Santa Clara, CA04, -121.924, 37.359, 49, 67.5, 0.00
PALM SPRINGS ASOS, Riverside, CA07, -116.504, 33.822, 409, 90.5, 0.00
THOUSAND OAKS 1 SW, Ventura, CA06, -118.899, 34.182, 783, 69.8, 0.00
FILLMORE 2 W, Ventura, CA06, -118.945, 34.409, 495, 68.0, 0.00
SAN DIEGO BROWN FIELD, San Diego, CA06, -116.994, 32.576, 521, 68.8, 0.02
LAKE BERRYESSA, Napa, CA02, -122.250, 38.579, 455, 72.9, 0.00
Bakersfield Area, -, -, -, -, -, 79.7, 0.00
Bishop Area, -, -, -, -, -, 70.9, 0.00
Los Angeles Downtown Area, -, -, -, -, -, 71.6, 0.00
Eureka Area, -, -, -, -, -, 53.7, 0.24
Fresno Area, -, -, -, -, -, 79.1, 0.00
Los Angeles Airport Area, -, -, -, -, -, 68.4, 0.00
Long Beach Area, -, -, -, -, -, 70.1, 0.00
Redding Area, -, -, -, -, -, 76.8, 0.02
Sacramento Area, -, -, -, -, -, 72.4, 0.00
San Diego Area, -, -, -, -, -, 66.9, 0.02
Stockton Area, -, -, -, -, -, 74.0, 0.00
San Francisco Airport Area, -, -, -, -, -, 61.5, 0.00
Santa Maria Area, -, -, -, -, -, 61.8, 0.00
CAMP PENDLETON MCAS, San Diego, CA06, -117.355, 33.304, 70, 66.5, 0.02
LEMOORE REEVES NAS, Fresno, CA05, -119.950, 36.333, 232, 75.8, T
MOUNTAIN PASS 1SE, San Bernardino, CA07, -115.531, 35.459, 4777, 73.9, 0.00
ARVIN, Kern, CA05, -118.834, 35.211, 450, 74.2, 0.00
FRAZIER PARK, Kern, CA06, -118.965, 34.827, 4972, 66.5, 0.00
CHIRIACO SUMMIT, Riverside, CA07, -115.721, 33.662, 1706, 84.9, T
EDWARDS AFB NORTH AUXILIARY AIRFIELD, Kern, CA07, -117.865, 34.988, 2283, 78.4, 0.00
FALLBROOK 5 NE, San Diego, CA06, -117.190, 33.439, 1140, 71.7, 0.04
BODEGA 6 WSW, Sonoma, CA01, -123.075, 38.321, 63, 53.1, 0.00
YOSEMITE VILLAGE 12 W, Mariposa, CA05, -119.821, 37.759, 6620, 62.3, 0.02
LORAINE 5 NNE, Kern, CA05, -118.412, 35.384, 4235, 67.9, 0.00
CORONADO FIRE DEPT, San Diego, CA06, -117.177, 32.692, 18, 66.3, 0.05
FALLBROOK FIRE DEPT, San Diego, CA06, -117.248, 33.384, 698, 70.7, T
DEL MAR FIRE DEPT, San Diego, CA06, -117.262, 32.972, 12, 66.9, 0.00
IMPERIAL BEACH FIRE DEPT, San Diego, CA06, -117.114, 32.576, 22, 65.8, 0.01
LEMON GROVE FIRE DEPARTMENT, San Diego, CA06, -117.030, 32.738, 427, 67.9, T
SPRING VALLEY FIRE DEPT, San Diego, CA06, -117.006, 32.710, 270, 69.7, 0.00
SANTEE FIRE DEPT, San Diego, CA06, -116.973, 32.841, 340, 71.5, 0.00
LEE VINING, Mono, CA07, -119.119, 37.957, 6797, 62.5, 0.00
ANAHEIM, Orange, CA06, -117.842, 33.865, 235, 72.2, 0.00
RED BLUFF TREATMENT PLANT, Tehama, CA02, -122.220, 40.162, 265, M, 0.00
NEW MELONES DAM HQ, Tuolumne, CA05, -120.486, 38.005, 960, 75.6, 0.00
MAMMOTH LAKES RS, Mono, CA07, -118.962, 37.648, 7804, 56.9, 0.00
BIG SUR 3 SE, Monterey, CA04, -121.772, 36.246, 240, M, 0.00
FRAZIER PARK 9 SW, Ventura, CA05, -119.104, 34.733, 5169, M, 0.00
MONTEREY WFO, Monterey, CA04, -121.855, 36.593, 122, 58.1, 0.01
SKYLINE RIDGE PRESERVE, San Mateo, CA04, -122.185, 37.313, 2270, 65.9, 0.00
FREMONT, Alameda, CA04, -122.016, 37.542, 38, 65.2, 0.00
MAD RIVER 12 SE, Trinity, CA01, -123.374, 40.319, 2763, M, 0.00
NEWHALL 5NW, Los Angeles, CA06, -118.594, 34.393, 1765, 78.4, 0.00
TEHACHAPI 4 SE, Kern, CA05, -118.422, 35.101, 4220, 67.7, 0.00
REDWOOD CITY #2, San Mateo, CA04, -122.214, 37.488, 10, M, 0.00
WRIGHTWOOD, San Bernardino, CA07, -117.639, 34.362, 6000, 61.7, 0.00
REDDING CDF, Shasta, CA02, -122.299, 40.519, 502, M, 0.00
NORTHRIDGE CAL STATE, Los Angeles, CA06, -118.525, 34.245, 904, 75.8, 0.00
OXNARD WFO, Ventura, CA06, -119.137, 34.207, 52, 64.8, T
HANFORD MUNICIPAL AP, Kings, CA05, -119.623, 36.311, 249, 76.1, 0.00
RAMONA AIRPORT, San Diego, CA06, -116.916, 33.038, 1385, 70.4, 0.02
VACAVILLE/NUT TREE AP ASOS, Solano, CA02, -121.959, 38.378, 104, 74.9, 0.00
ALTURAS MUNICIPAL AP, Modoc, CA02, -120.561, 41.484, 4383, 58.9, 0.22
MADERA MUNICIPAL AP, Madera, CA05, -120.111, 36.985, 251, 74.8, 0.00
BAKERSFIELD 5 NW, Kern, CA05, -119.051, 35.419, 470, 79.7, 0.00
FRESNO 5 NE, Fresno, CA05, -119.709, 36.767, 338, 77.8, 0.00
OCEANSIDE MUNICIPAL AP, San Diego, CA06, -117.350, 33.219, 30, 65.8, 0.01
SAN DIEGO SEAWORLD, San Diego, CA06, -117.231, 32.765, 14, 64.9, 0.01
BOULEVARD 2, San Diego, CA07, -116.300, 32.667, 3600, M, 0.00
ARCATA EUREKA AP, Humboldt, CA01, -124.105, 40.978, 211, 52.4, 0.40
CHICO ARMY FLYING SCH, Butte, CA02, -121.850, 39.800, 272, 74.4, 0.00
NEWPORT BEACH HARBOR, Orange, CA06, -117.884, 33.603, 10, 66.0, 0.00
ESCONDIDO NO. 2, San Diego, CA06, -117.090, 33.121, 600, 71.1, 0.00
REDDING AP, Shasta, CA02, -122.298, 40.515, 501, 76.8, 0.02
AVALON CATALINA AP, Los Angeles, CA06, -118.415, 33.404, 1565, 64.8, 0.07
SANTA MARIA PUBLIC AP, Santa Barbara, CA06, -120.452, 34.894, 243, 61.8, 0.00
MOUNT SHASTA, Siskiyou, CA02, -122.333, 41.333, 3535, 62.0, T
RED BLUFF MUNI AP, Tehama, CA02, -122.255, 40.152, 354, 77.5, T
NEEDLES AIRPORT, San Bernardino, CA07, -114.618, 34.768, 888, 92.8, 0.00
CHINA LAKE NAF, Kern, CA07, -117.693, 35.688, 2230, 81.5, 0.05
Crescent City Area, -, -, -, -, -, 52.8, 0.52
Escondido Area, -, -, -, -, -, 71.1, 0.00
Sacramento Downtown Area, -, -, -, -, -, 74.1, 0.00
Tahoe City Area, -, -, -, -, -, 55.3, 0.01
Ukiah Area, -, -, -, -, -, 68.4, T
CAMPO ASOS, San Diego, CA07, -116.468, 32.626, 2641, 68.3, 0.00
Burbank Glendale Pasadena Area, -, -, -, -, -, 73.9, 0.00
Camarillo Area, -, -, -, -, -, 65.0, 0.00
Needles Area, -, -, -, -, -, 92.8, 0.00
Oxnard Area, -, -, -, -, -, 64.8, T
Palm Springs Area, -, -, -, -, -, 90.5, 0.00
Riverside Area, -, -, -, -, -, 78.1, 0.00
Ramona Area, -, -, -, -, -, 70.4, 0.02
Northern CA 8 Station Index, -, -, -, -, -, M, 0.01
San Joaquin 5 Station Index, -, -, -, -, -, M, 0.22
El Cajon Area, -, -, -, -, -, 75.2, 0.00
Hanford Area, -, -, -, -, -, 76.1, 0.00
El Centro Area, -, -, -, -, -, 89.0, T
Madera Area, -, -, -, -, -, 74.8, 0.00
Merced Area, -, -, -, -, -, 75.9, 0.00
Alturas Area, -, -, -, -, -, 58.9, 0.22
Mount Shasta Area, -, -, -, -, -, 62.0, T
Palmdale Area, -, -, -, -, -, 78.1, 0.00
Lancaster Area, -, -, -, -, -, 80.4, 0.00
San Jose Area, -, -, -, -, -, 67.5, 0.00
ARBUCKLE BASIN CALIFORNIA, Shasta, CA02, -122.833, 40.398, 1900, 72.3, M
ACTON CALIFORNIA, Los Angeles, CA06, -118.200, 34.446, 2600, 74.2, M
ARROYO GRANDE CALIFORNIA, San Luis Obispo, CA04, -120.392, 35.179, 1048, 70.0, M
ALDER SPRINGS CALIFORNIA, Glenn, CA02, -122.724, 39.651, 4300, 67.6, M
ALPINE CALIFORNIA, San Diego, CA06, -116.739, 32.834, 2041, 74.3, M
AMMO DUMP CALIFORNIA, San Diego, CA06, -117.286, 33.381, 1068, 70.3, M
ANZA CALIFORNIA, Riverside, CA06, -116.673, 33.555, 3920, 69.0, M
ALDER POINT CALIFORNIA, Humboldt, CA01, -123.590, 40.187, 923, 64.0, M
ARROYO SECO (MT. DIABLO) CALIF, Monterey, CA04, -121.492, 36.230, 980, 70.0, M
ASH CREEK CALIFORNIA, Siskiyou, CA02, -121.979, 41.277, 3200, 58.4, M
ASH VALLEY CALIFORNIA, Lassen, CA02, -120.686, 41.052, 5100, 56.9, M
BALD MTN LOC CALIFORNIA, El Dorado, CA02, -120.697, 38.906, 4680, 70.8, M
BARNABY CALIFORNIA, Marin, CA01, -122.702, 38.028, 1240, 61.8, M
BATTERSON CALIFORNIA, Madera, CA05, -119.508, 37.232, 3160, 74.9, M
BIG BAR CALIFORNIA, Trinity, CA01, -123.233, 40.733, 1500, 67.2, M
BELL CANYON CALIFORNIA, Orange, CA06, -117.592, 33.542, 700, 70.9, M
BRADLEY CALIFORNIA, Monterey, CA04, -120.803, 35.864, 537, 71.9, M
BEAR PEAK CALIFORNIA, Tulare, CA05, -118.052, 35.884, 8228, 60.7, M
BENTON CALIFORNIA, Mono, CA07, -118.478, 37.843, 5450, 67.0, M
BEAUMONT CALIFORNIA, Riverside, CA06, -116.950, 33.931, 2604, 77.1, M
BEVERLY HILLS CALIFORNIA, Los Angeles, CA06, -118.412, 34.125, 1260, 72.8, M
BEAR VALLEY CALIFORNIA, Kern, CA05, -118.625, 35.140, 4000, 67.8, M
BANGOR CALIFORNIA, Butte, CA02, -121.386, 39.398, 803, 74.0, M
BIG HILL CALIFORNIA, Humboldt, CA01, -123.636, 41.098, 3570, 60.3, M
BIG PINES CALIFORNIA, Los Angeles, CA07, -117.692, 34.379, 6917, 67.0, M
BIG ROCK CALIFORNIA, Marin, CA01, -122.570, 38.039, 1500, 66.2, M
BLACK DIAMOND CALIFORNIA, Contra Costa, CA04, -121.884, 37.950, 1600, 70.2, M
BLUE DOOR CALIFORNIA, Lassen, CA02, -120.337, 41.055, 5615, 56.5, M
BEN BOLT CALIFORNIA, El Dorado, CA05, -120.934, 38.591, 905, 72.3, M
BEN LOMOND CALIFORNIA, Santa Cruz, CA04, -122.170, 37.132, 2630, 68.0, M
BOGARD R.S. CALIFORNIA, Lassen, CA02, -121.083, 40.598, 5650, 53.6, M
BOONVILLE CALIFORNIA, Mendocino, CA01, -123.349, 38.988, 644, 63.3, M
BIG PINE FLAT CALIFORNIA, San Bernardino, CA07, -117.013, 34.319, 6861, 64.1, M
BRIDGEPORT 4NW CALIFORNIA, Mono, CA03, -119.289, 38.272, 6650, 60.3, M
BRANCH MOUNTAIN CALIFORNIA, San Luis Obispo, CA04, -120.083, 35.189, 3770, 73.6, M
BEAR FLAT CALIFORNIA, Modoc, CA02, -120.313, 41.295, 6200, 54.7, M
BRIONES CALIFORNIA, Contra Costa, CA04, -122.118, 37.944, 1450, 68.0, M
BLACKROCK CALIFORNIA, Tulare, CA05, -118.260, 36.093, 8200, 57.7, M
BROOKS CALIFORNIA, Yolo, CA02, -122.145, 38.738, 354, 75.9, M
BIG SUR CALIFORNIA, Monterey, CA04, -121.785, 36.236, 450, 63.6, M
BUCK MEADOWS CALIFORNIA, Tuolumne, CA05, -120.097, 37.823, 3200, 67.6, M
BULL FLAT CALIFORNIA, Lassen, CA03, -120.114, 40.481, 4395, 61.2, M
BURNS CANYON CALIFORNIA, San Bernardino, CA07, -116.634, 34.210, 6000, 72.8, M
BUTTERCUP CALIFORNIA, Imperial, CA07, -114.884, 32.740, 217, 91.0, M
BEAVER CAMP LOC CALIFORNIA, Amador, CA05, -120.325, 38.488, 5000, 69.1, M
BRAZIE RANCH CALIFORNIA, Siskiyou, CA01, -122.594, 41.685, 3000, 66.2, M
CAHUILLA CALIFORNIA, Imperial, CA07, -115.174, 32.974, 278, 92.3, M
CALLAHAN CALIFORNIA, Siskiyou, CA01, -122.796, 41.308, 3136, 65.0, M
CAMERON FIRE STATION CALIFORNI, San Diego, CA06, -116.463, 32.721, 3443, 68.5, M
CANBY CALIFORNIA, Modoc, CA02, -120.868, 41.434, 4312, 60.6, M
CARRIZO CALIFORNIA, San Luis Obispo, CA05, -119.773, 35.096, 2490, 76.0, M
CASE SPRINGS CALIFORNIA, San Diego, CA06, -117.418, 33.445, 2320, 71.8, M
CATHEYS VALLEY CALIFORNIA, Mariposa, CA05, -120.111, 37.468, 1200, 77.5, M
CEDAR GROVE CALIFORNIA, Fresno, CA05, -118.656, 36.788, 4720, 64.3, M
CHEESEBORO CALIFORNIA, Ventura, CA06, -118.717, 34.185, 1650, 75.5, M
CHICO CALIFORNIA, Butte, CA02, -121.779, 39.712, 230, 74.5, M
CHILAO CALIFORNIA, Los Angeles, CA06, -118.030, 34.332, 5450, 71.8, M
CHUCHUPATE CALIFORNIA, Ventura, CA05, -119.012, 34.808, 4900, 61.3, M
CLAREMONT CALIFORNIA, Los Angeles, CA06, -117.707, 34.137, 1645, 72.9, M
CLEAR CREEK CALIFORNIA, Los Angeles, CA06, -118.152, 34.271, 3000, 74.2, M
CLARK CALIFORNIA, Riverside, CA06, -117.309, 33.877, 1720, 73.7, M
CALAVERAS ROAD CALIFORNIA, Alameda, CA04, -121.844, 37.553, 1230, 66.6, M
CASE MOUNTAIN CALIFORNIA, Tulare, CA05, -118.809, 36.411, 6450, 64.3, M
CORONA CALIFORNIA, Riverside, CA06, -117.549, 33.874, 640, 76.0, M
COHASSET CALIFORNIA, Butte, CA02, -121.769, 39.872, 1733, 75.9, M
COLLINS BALDY CALIFORNIA, Siskiyou, CA01, -122.950, 41.775, 5493, 57.6, M
LYONS VALLEY CALIFORNIA, Lake, CA01, -123.074, 39.126, 3200, 65.1, M
LYTLE CREEK CALIFORNIA, San Bernardino, CA06, -117.480, 34.234, 2792, 73.8, M
MAD RIVER CALIFORNIA, Trinity, CA01, -123.524, 40.463, 2775, 61.2, M
MALIBU HILLS CALIFORNIA, Los Angeles, CA06, -118.633, 34.058, 1575, 70.8, M
MANZANITA LAKE CALIFORNIA, Shasta, CA02, -121.580, 40.540, 5660, 56.1, M
MILL CREEK (BDF) CALIFORNIA, San Bernardino, CA06, -117.035, 34.084, 2950, 75.5, M
MCGUIRES CALIFORNIA, Mendocino, CA01, -123.601, 39.353, 593, 60.9, M
MEANS LAKE CALIFORNIA, San Bernardino, CA07, -116.517, 34.391, 2900, 81.9, M
METCALF GAP CALIFORNIA, Madera, CA05, -119.768, 37.409, 3077, 76.6, M
MEYERS CALIFORNIA, El Dorado, CA03, -120.018, 38.849, 6310, 55.8, M
MID HILLS CALIFORNIA, San Bernardino, CA07, -115.411, 35.123, 5413, 73.1, M
MILL CREEK (ANF) CALIFORNIA, Los Angeles, CA06, -118.082, 34.390, 5021, 70.5, M
MILO CALIFORNIA, Tulare, CA05, -118.869, 36.231, 1923, 71.2, M
MALLORY RIDGE CALIFORNIA, Contra Costa, CA05, -121.779, 37.817, 2040, 72.0, M
MONTECITO CALIFORNIA, Santa Barbara, CA06, -119.648, 34.461, 1500, 72.1, M
MODOC NWR CALIFORNIA, Modoc, CA02, -120.354, 41.459, 4380, 59.3, M
MOJAVE RIVER SINK CALIFORNIA, San Bernardino, CA07, -116.079, 35.053, 950, 88.1, M
MORMON ROCK CALIFORNIA, San Bernardino, CA06, -117.502, 34.318, 3300, 69.0, M
MOUNTAIN REST CALIFORNIA, Fresno, CA05, -119.371, 37.054, 4100, 72.1, M
MARKLEEVILLE CALIFORNIA, Alpine, CA03, -119.767, 38.683, 5501, 60.6, M
MT. SHASTA CALIFORNIA, Siskiyou, CA02, -122.316, 41.316, -, 63.5, M
MARIPOSA CALIFORNIA, Mariposa, CA05, -119.987, 37.504, 2231, 72.8, M
MT. DIABLO CALIFORNIA, Contra Costa, CA05, -121.914, 37.882, 3849, 67.5, M
MOUNT ZION CALIFORNIA, Amador, CA05, -120.651, 38.389, 2960, 73.8, M
NORTH FORK CALIFORNIA, Madera, CA05, -119.505, 37.233, 2720, 73.3, M
OAK BOTTOM CALIFORNIA, Shasta, CA02, -122.606, 40.651, 1326, 75.6, M
OAK KNOLL CALIFORNIA, Siskiyou, CA01, -122.850, 41.839, 1940, 64.6, M
OAK MOUNTAIN CALIFORNIA, Shasta, CA02, -121.983, 41.006, 1700, 71.3, M
OAK CREEK CALIFORNIA, Inyo, CA07, -118.259, 36.843, 4855, 76.8, M
OJAI CALIFORNIA, Ventura, CA06, -119.230, 34.448, 765, 68.6, M
OAK GROVE CALIFORNIA, San Diego, CA06, -116.795, 33.393, 2752, 73.7, M
OAKLAND NORTH CALIFORNIA, Contra Costa, CA04, -122.221, 37.865, 1403, 62.7, M
OAK OPENING CALIFORNIA, Tulare, CA05, -118.702, 36.175, 3240, 74.8, M
OPAL MOUNTAIN CALIFORNIA, San Bernardino, CA07, -117.176, 35.154, 3240, 79.6, M
OWENS CAMP LOC CALIFORNIA, El Dorado, CA02, -120.245, 38.733, 5240, 62.6, M
OWENS VALLEY CALIFORNIA, Inyo, CA07, -118.551, 37.390, 4640, 73.9, M
OZENA CALIFORNIA, Ventura, CA06, -119.354, 34.682, 3670, 71.0, M
PANAMINT CALIFORNIA, Inyo, CA07, -117.088, 36.120, 6880, 70.0, M
PARKFIELD CALIFORNIA, Monterey, CA04, -120.432, 35.899, 1535, 71.1, M
PATTY MOCUS CALIFORNIA, Tehama, CA02, -122.867, 40.295, 3500, 67.3, M
PINE HILLS CALIFORNIA, San Diego, CA06, -116.634, 33.016, -, 71.0, M
PIERCE CALIFORNIA, Plumas, CA02, -120.642, 40.246, 5700, 61.0, M
PINEHURST CALIFORNIA, Fresno, CA05, -119.000, 36.685, 4060, 70.8, M
PIKE COUNTY LOOKOUT CALIFORNIA, Yuba, CA02, -121.202, 39.475, 3714, 69.8, M
PILOT HILL CALIFORNIA, El Dorado, CA02, -121.009, 38.833, 1200, 72.0, M
PIRU CALIFORNIA, Ventura, CA06, -118.810, 34.404, 614, 70.1, M
PARK RIDGE CALIFORNIA, Tulare, CA05, -118.942, 36.724, 7540, 60.7, M
PINNACLES CALIFORNIA, San Benito, CA04, -121.147, 36.471, 1322, 72.1, M
POPPY PARK CALIFORNIA, Los Angeles, CA07, -118.383, 34.733, 2760, 79.2, M
POTRERO CALIFORNIA, San Diego, CA06, -116.609, 32.606, 2345, 71.6, M
POVERTY CALIFORNIA, Santa Clara, CA04, -121.771, 37.443, 2066, 68.0, M
PANOCHE ROAD CALIFORNIA, Fresno, CA05, -120.766, 36.727, 2032, 77.4, M
PULGAS CALIFORNIA, San Mateo, CA04, -122.298, 37.475, 644, 65.7, M
QUARTZ HILL CALIFORNIA, Siskiyou, CA01, -122.934, 41.599, 4225, 65.1, M
QUINCY RD CALIFORNIA, Plumas, CA02, -120.942, 39.973, 3500, 64.3, M
RAVENDALE CALIFORNIA, Lassen, CA03, -120.316, 40.731, 5298, 60.2, M
RANCHITA CALIFORNIA, San Diego, CA07, -116.497, 33.222, 4415, 74.9, M
READER RANCH CALIFORNIA, Nevada, CA02, -121.117, 39.304, 1968, 73.7, M
REDDING AIRPORT CALIFORNIA, Shasta, CA02, -122.291, 40.516, 500, 76.6, M
RICE VALLEY CALIFORNIA, Riverside, CA07, -114.732, 34.061, 820, 92.0, M
ROCK CREEK, Mono, CA07, -118.667, 37.551, 7040, 61.9, M
SANTA ROSA ISLAND CALIFORNIA, Santa Barbara, CA06, -120.078, 33.978, 1298, 54.0, M
SANTA ROSA PLATEAU CALIFORNIA, Riverside, CA06, -117.231, 33.529, 1980, 71.5, M
SANTA ROSA CALIFORNIA, Sonoma, CA01, -122.712, 38.479, 576, 67.5, M
STAMPEDE CALIFORNIA, Sierra, CA03, -120.075, 39.483, 6867, 57.2, M
STONYFORD CALIFORNIA, Colusa, CA02, -122.575, 39.367, 1200, 73.4, M
SUGARLOAF (SHF) CALIFORNIA, Shasta, CA02, -122.438, 40.917, 4200, 70.5, M
SUGARLOAF CALIFORNIA, Tulare, CA05, -118.675, 36.727, 8120, 63.7, M
TALEGA CALIFORNIA, San Diego, CA06, -117.486, 33.478, 1203, 70.4, M
TANBARK CALIFORNIA, Los Angeles, CA06, -117.761, 34.207, 2600, 73.3, M
TARGET RANGE CALIFORNIA, San Diego, CA06, -117.359, 33.372, 918, 69.0, M
TEMESCAL (LPF) CALIFORNIA, Ventura, CA06, -118.756, 34.481, 1140, 74.5, M
THOMES CREEK CALIFORNIA, Tehama, CA02, -122.610, 39.864, 1040, 79.3, M
THOUSAND OAKS CALIFORNIA, Ventura, CA06, -118.870, 34.210, 795, 66.2, M
TIMBER MOUNTAIN CALIFORNIA, Modoc, CA01, -121.298, 41.629, 4960, 60.4, M
TEMESCAL (CNF) CALIFORNIA, Riverside, CA06, -117.483, 33.763, 1125, 76.3, M
MOUNT TOM CALIFORNIA, Fresno, CA05, -119.178, 37.376, 9018, 54.1, M
TRINITY CAMP CALIFORNIA, Trinity, CA01, -122.804, 40.786, 3308, 65.4, M
TRIMMER CALIFORNIA, Fresno, CA05, -119.305, 36.911, 1540, 77.1, M
GAYLOR MEADOW CALIFORNIA, Tuolumne, CA05, -119.318, 37.868, 9270, 47.9, M
UHL / HOT SPRINGS, Tulare, CA05, -118.633, 35.889, 3720, 70.5, M
VALLEY CENTER CALIFORNIA, San Diego, CA06, -117.009, 33.237, 1483, 72.5, M
VAN BREMMER CALIFORNIA, Siskiyou, CA01, -121.794, 41.643, 4928, 61.5, M
VALYERMO CALIFORNIA, Los Angeles, CA07, -117.851, 34.446, 3780, 72.8, M
VANDENBERG CALIFORNIA, Santa Barbara, CA06, -120.486, 34.759, 1050, M, M
WALKER CALIFORNIA, Mono, CA03, -119.459, 38.565, 5440, 68.1, M
WALKER PASS CALIFORNIA, Kern, CA05, -118.057, 35.665, 5572, 72.2, M
WARM SPRINGS CALIFORNIA, Los Angeles, CA06, -118.579, 34.596, 4930, 75.4, M
WEED AIRPORT CALIFORNIA, Siskiyou, CA01, -122.454, 41.479, 2930, 64.3, M
WESTWOOD CALIFORNIA, Lassen, CA02, -120.900, 40.307, 5800, 60.4, M
WHITE CLOUD CALIFORNIA, Nevada, CA02, -120.837, 39.317, 4320, 70.1, M
WHITTIER HILLS CALIFORNIA, Los Angeles, CA06, -118.010, 33.984, 950, 72.6, M
WHITMORE CALIFORNIA, Shasta, CA02, -121.899, 40.619, 2417, 72.4, M
WILEY RIDGE CALIFORNIA, Ventura, CA06, -118.841, 34.372, 1645, 74.6, M
WOFFORD HEIGHTS CALIFORNIA, Kern, CA05, -118.499, 35.722, 3150, 72.7, M
WOLVERTON CALIFORNIA, Tulare, CA05, -118.703, 36.445, 5240, 70.5, M
WOODACRE CALIFORNIA, Marin, CA01, -122.645, 37.991, 1400, 66.3, M
WHITAKER PEAK CALIFORNIA, Los Angeles, CA06, -118.740, 34.569, 4120, 73.4, M
WHITE WOLF CALIFORNIA, Tuolumne, CA05, -119.650, 37.851, 8025, 54.3, M
YOLLA BOLLA CALIFORNIA, Trinity, CA01, -123.066, 40.338, 4524, 63.3, M
YUCCA VALLEY CALIFORNIA, San Bernardino, CA07, -116.408, 34.123, 3260, 78.3, M
YUROK CALIFORNIA, Humboldt, CA01, -123.857, 41.290, 495, 63.9, M
HAGAN'S MEADOW, El Dorado, CA03, -119.940, 38.850, 7776, 50.7, 0.00
BLUE LAKES, Alpine, CA05, -119.920, 38.610, 8057, 51.6, 0.00
POISON FLAT, Alpine, CA03, -119.630, 38.510, 7736, 51.7, 0.00
SONORA PASS, Mono, CA03, -119.600, 38.310, 8827, 52.1, 0.00
LEAVITT MEADOWS, Mono, CA03, -119.550, 38.300, 7198, 54.2, 0.00
VIRGINIA LAKES RIDGE, Mono, CA03, -119.230, 38.070, 9445, 52.7, 0.00
LOBDELL LAKE, Mono, CA03, -119.370, 38.440, 9233, 51.0, 0.00
EBBETTS PASS, Alpine, CA03, -119.800, 38.550, 8765, 52.4, 0.00
HEAVENLY VALLEY, El Dorado, CA03, -119.920, 38.920, 8582, 50.0, 0.00
LEAVITT LAKE, Mono, CA03, -119.610, 38.280, 9617, 50.2, 0.00
SPRATT CREEK, Alpine, CA03, -119.820, 38.670, 6115, 58.2, 0.00
MONITOR PASS, Alpine, CA03, -119.610, 38.670, 8310, 54.2, 0.00
BURNSIDE LAKE, Alpine, CA03, -119.890, 38.720, 8129, 48.4, 0.00
SUMMIT MEADOW, Mono, CA03, -119.540, 38.400, 9313, 51.1, 0.00
FORESTDALE CREEK, Alpine, CA03, -119.960, 38.680, 8017, 54.1, 0.00
HORSE MEADOW, Alpine, CA03, -119.890, 38.840, 8557, 52.8, 0.00
CARSON PASS, Alpine, CA02, -119.990, 38.690, 8353, 51.3, 0.00
CROWDER FLAT, Modoc, CA01, -120.750, 41.890, 5170, 54.9, 0.20
CEDAR PASS, Modoc, CA02, -120.300, 41.580, 7030, 53.7, 0.40
DISMAL SWAMP, Modoc, CA03, -120.180, 41.990, 7360, 48.3, 0.50
ADIN MTN, Modoc, CA02, -120.790, 41.240, 6190, 52.1, 0.40
INDEPENDENCE CREEK, Sierra, CA03, -120.280, 39.490, 6456, 53.5, 0.00
INDEPENDENCE CAMP, Sierra, CA03, -120.290, 39.450, 7003, 52.6, 0.00
INDEPENDENCE LAKE, Nevada, CA03, -120.310, 39.430, 8352, 54.0, 0.00
TRUCKEE #2, Placer, CA03, -120.180, 39.300, 6509, 58.3, 0.00
WARD CREEK #3, Placer, CA03, -120.220, 39.140, 6655, 52.3, 0.00
TAHOE CITY CROSS, Placer, CA03, -120.150, 39.170, 6797, 55.5, 0.00
SQUAW VALLEY G.C., Placer, CA03, -120.260, 39.190, 8029, 53.5, 0.00
CSS LAB, Nevada, CA02, -120.370, 39.330, 6855, 54.1, 0.00
RUBICON #2, El Dorado, CA03, -120.130, 39.000, 7689, 56.1, 0.00
ECHO PEAK, El Dorado, CA03, -120.080, 38.850, 7670, 55.2, 0.10
FALLEN LEAF, El Dorado, CA03, -120.050, 38.930, 6236, 53.6, 0.00
RODEO VALLEY, Mendocino, CA01, -123.321, 39.668, 2428, 65.0, M
ROSE VALLEY CALIFORNIA, Ventura, CA06, -119.184, 34.543, 3331, 65.5, M
ROUND MOUNTAIN, Siskiyou, CA02, -121.464, 41.427, 5258, 60.4, M
ROSE PEAK CALIFORNIA, Alameda, CA04, -121.735, 37.502, 3060, 68.1, M
RATTLESNAKE CALIFORNIA, Tulare, CA05, -118.422, 36.407, 8600, 63.8, M
RUSH CREEK CALIFORNIA, Modoc, CA02, -120.864, 41.294, 4800, 60.7, M
RUTH CALIFORNIA, Trinity, CA01, -123.316, 40.251, 2732, 61.7, M
SACRAMENTO NWR CALIFORNIA, Glenn, CA02, -122.182, 39.417, 120, 74.6, M
SADDLEBACK BUTTE CALIFORNIA, Los Angeles, CA07, -117.821, 34.685, 2590, 78.0, M
SAUGUS CALIFORNIA, Los Angeles, CA06, -118.525, 34.425, 1450, 77.3, M
SAWYERS BAR CALIFORNIA, Siskiyou, CA01, -123.132, 41.300, 2192, 66.6, M
SANTA BARBARA ISLAND CALIFORNI, Santa Barbara, CA06, -119.033, 33.483, 176, 61.7, M
SANTA CRUZ ISLAND CALIFORNIA, Santa Barbara, CA06, -119.722, 33.996, 250, 67.8, M
SCORPION CALIFORNIA, Trinity, CA01, -122.697, 41.112, 4400, 67.5, M
SODA CREEK CALIFORNIA, Lake, CA01, -122.977, 39.425, 1773, 66.2, M
SADDLEBACK CALIFORNIA, Sierra, CA02, -120.865, 39.638, 6670, 65.0, M
SECRET TOWN CALIFORNIA, Nevada, CA02, -120.885, 39.184, 2826, 71.8, M
SANTA FE DAM CALIFORNIA, Los Angeles, CA06, -117.946, 34.121, 500, 74.5, M
SHAVER CALIFORNIA, Fresno, CA05, -119.256, 37.135, 5746, 58.0, M
SCHOOL HOUSE CALIFORNIA, Humboldt, CA01, -123.906, 41.138, 2640, 57.1, M
SHADEQUARTER CALIFORNIA, Tulare, CA05, -118.956, 36.567, 4069, 72.8, M
SIMS CALIFORNIA, Shasta, CA02, -122.373, 41.075, 2400, 71.6, M
SIMI VALLEY CALIFORNIA, Ventura, CA06, -118.814, 34.291, 914, 67.8, M
SLATER BUTTE CALIFORNIA, Siskiyou, CA01, -123.352, 41.859, 4670, 61.8, M
SAN MIGUEL CALIFORNIA, San Diego, CA06, -116.974, 32.685, 425, 68.7, M
SAN LUIS NWR CALIFORNIA, Merced, CA05, -120.794, 37.182, 65, 74.0, M
SANTA RITA CALIFORNIA, San Benito, CA05, -120.598, 36.348, 5000, 68.3, M
SOLDIER MOUNTAIN CALIFORNIA, Shasta, CA02, -121.586, 40.926, 3710, 67.0, M
SOMES BAR CALIFORNIA, Siskiyou, CA01, -123.496, 41.390, 920, 68.2, M
SQUAW SPRINGS CALIFORNIA, San Bernardino, CA07, -117.568, 35.370, 3620, 82.4, M
SQUAW LAKE CALIFORNIA, Imperial, CA07, -114.494, 32.908, 300, 92.8, M
CONVERSE CALIFORNIA, San Bernardino, CA06, -116.913, 34.194, 5618, 65.6, M
COOSKIE MOUNTAIN CALIFORNIA, Humboldt, CA01, -124.266, 40.257, 2950, 57.4, M
CORRALITOS CALIFORNIA, Santa Cruz, CA04, -121.798, 36.991, 450, 65.9, M
COUNTY LINE CALIFORNIA, Lake, CA02, -122.412, 39.019, 2085, 75.5, M
CAMP 9 CALIFORNIA, Los Angeles, CA06, -118.422, 34.362, 4000, 73.9, M
CRANE FLAT LOOKOUT CALIFORNIA, Mariposa, CA05, -119.825, 37.762, 6644, 62.8, M
CRESTVIEW CALIFORNIA, Mono, CA07, -118.983, 37.745, 7600, 54.3, M
CORNING CALIFORNIA, Tehama, CA02, -122.170, 39.939, 294, 77.0, M
CARPENTER RIDGE CALIFORNIA, Butte, CA02, -121.582, 40.069, 4812, 65.7, M
CRANSTON CALIFORNIA, Riverside, CA06, -116.841, 33.740, 1950, 78.9, M
CASHMAN CALIFORNIA, Plumas, CA02, -120.915, 40.002, 4520, 67.3, M
DESCANSO CALIFORNIA, San Diego, CA06, -116.622, 32.857, 3480, 70.9, M
DEVILS GARDEN CALIFORNIA, Modoc, CA02, -120.671, 41.530, 5022, 60.4, M
DIABLO GRANDE CALIFORNIA, Stanislaus, CA05, -121.294, 37.329, 1850, 75.2, M
DEMOCRAT CALIFORNIA, Kern, CA05, -118.630, 35.532, 2356, 78.2, M
DINKEY CALIFORNIA, Fresno, CA05, -119.039, 37.066, 5668, 56.8, M
DOG VALLEY CALIFORNIA, Sierra, CA03, -120.048, 39.562, 5976, 58.4, M
DOYLE CALIFORNIA, Lassen, CA03, -120.106, 40.022, 4240, 66.3, M
DUNCAN CALIFORNIA, Placer, CA02, -120.509, 39.144, 7100, 67.9, M
DEL VALLE CALIFORNIA, Los Angeles, CA06, -118.683, 34.431, 1278, 76.0, M
DEVORE CALIFORNIA, San Bernardino, CA06, -117.404, 34.221, 2057, 75.4, M
EAGLE PEAK CALIFORNIA, Tehama, CA02, -122.657, 39.928, 3713, 71.1, M
EEL RIVER CAMP CALIFORNIA, Humboldt, CA01, -123.824, 40.138, 446, 62.7, M
EEL RIVER CALIFORNIA, Mendocino, CA01, -123.083, 39.833, 1500, 68.7, M
EL CARISO CALIFORNIA, Riverside, CA06, -117.411, 33.647, 3038, 76.8, M
MOUNT ELIZABETH CALIFORNIA, Tuolumne, CA05, -120.247, 38.063, 4933, 69.6, M
EL MIRAGE CALIFORNIA, San Bernardino, CA07, -117.550, 34.634, 2880, 77.7, M
ESPERANZA CALIFORNIA, Calaveras, CA05, -120.515, 38.243, 2559, 71.8, M
FANCHER CREEK CALIFORNIA, Fresno, CA05, -119.466, 36.884, 920, 80.9, M
FAWNSKIN CALIFORNIA, San Bernardino, CA06, -116.899, 34.266, 6900, 59.5, M
FENCE MEADOW CALIFORNIA, Fresno, CA05, -119.175, 36.961, 5048, 69.8, M
FORT HUNTER LIGGET CALIFORNIA, Monterey, CA04, -121.242, 36.012, 1100, 71.7, M
FIGUEROA CALIFORNIA, Santa Barbara, CA06, -120.007, 34.733, 3200, 74.5, M
FISH CREEK MTN CALIFORNIA, Imperial, CA07, -116.067, 32.990, 760, 94.8, M
FIVE MILE CALIFORNIA, Inyo, CA07, -117.918, 35.872, 4150, 82.0, M
FORT ORD #2 CALIFORNIA, Monterey, CA04, -121.786, 36.627, 490, 57.1, M
FORESTHILL CALIFORNIA, Placer, CA02, -120.732, 39.091, 4355, 67.7, M
FOUNTAIN SPRINGS CALIFORNIA, Tulare, CA05, -118.915, 35.892, 210, 75.6, M
FREMONT CANYON CALIFORNIA, Orange, CA06, -117.711, 33.808, 1781, 73.1, M
FRIEND MOUNTAIN CALIFORNIA, Trinity, CA01, -123.342, 40.505, 4000, 61.6, M
GASQUET CALIFORNIA, Del Norte, CA01, -123.979, 41.846, 500, 63.0, M
GRASSHOPPER CALIFORNIA, Lassen, CA03, -120.784, 40.782, 6158, 56.0, M
GOOSE VALLEY CALIFORNIA, San Diego, CA06, -116.846, 33.074, 1530, 71.8, M
GORDON CALIFORNIA, Lassen, CA03, -120.896, 40.759, 6200, 56.7, M
GREEN SPRING CALIFORNIA, Tuolumne, CA05, -120.500, 37.833, 1020, 75.8, M
GRIZZLY FLAT CALIFORNIA, El Dorado, CA05, -120.561, 38.620, 3740, 58.2, M
HASTINGS CALIFORNIA, Monterey, CA04, -121.552, 36.389, 1885, 66.2, M
HAWKEYE CALIFORNIA, Sonoma, CA01, -122.917, 38.782, 2000, 69.8, M
HAYFORK CALIFORNIA, Trinity, CA01, -123.165, 40.550, 2323, 63.3, M
HELL HOLE CALIFORNIA, Placer, CA02, -120.422, 39.072, 5240, 64.8, M
HERNANDEZ CALIFORNIA, San Benito, CA04, -120.856, 36.383, 3733, 72.0, M
HIGH GLADE LOOKOUT CALIFORNIA, Lake, CA02, -122.808, 39.208, 4840, 65.0, M
HIGH SIERRA CALIFORNIA, Fresno, CA05, -119.038, 37.315, 7403, 59.5, M
HOPLAND CALIFORNIA, Mendocino, CA01, -123.081, 39.031, 2682, 69.0, M
HOLLISTER CALIFORNIA, San Benito, CA04, -121.362, 36.842, 404, 66.5, M
HUNTER MOUNTAIN CALIFORNIA, Inyo, CA07, -117.474, 36.563, 6880, 65.7, M
HORSE LAKE CALIFORNIA, Lassen, CA03, -120.503, 40.631, 5100, 59.9, M
HOOPA CALIFORNIA, Humboldt, CA01, -123.671, 41.048, 375, 64.8, M
HORSE THIEF SPRINGS CALIFORNIA, San Bernardino, CA07, -115.909, 35.771, 5000, 77.5, M
HURLEY CALIFORNIA, Fresno, CA05, -119.568, 37.015, 1201, 73.9, M
INDIAN WELL CALIFORNIA, Siskiyou, CA01, -121.538, 41.742, 4770, 60.3, M
JARBO GAP CALIFORNIA, Butte, CA02, -121.489, 39.736, 2490, 74.5, M
JERSEYDALE CALIFORNIA, Mariposa, CA05, -119.839, 37.544, 3900, 72.2, M
JOHNSONDALE CALIFORNIA, Tulare, CA05, -118.545, 35.972, 4700, 62.4, M
JUANITA LAKE CALIFORNIA, Siskiyou, CA01, -122.006, 41.786, 5400, 58.5, M
JULIAN CALIFORNIA, San Diego, CA07, -116.591, 33.076, 4240, 71.3, M
JUNIPER CREEK CALIFORNIA, Modoc, CA02, -120.472, 41.332, 4372, 59.1, M
KEENWILD CALIFORNIA, Riverside, CA06, -116.767, 33.667, 4920, 70.9, M
KETTLEMAN HILLS CALIFORNIA, Kings, CA05, -120.057, 36.033, 810, 80.2, M
KNOXVILLE CREEK CALIFORNIA, Lake, CA02, -122.417, 38.862, 2200, 72.1, M
KONOCTI CALIFORNIA, Lake, CA02, -122.706, 38.912, 2163, 72.2, M
LOS BANOS CALIFORNIA, Merced, CA05, -121.053, 37.055, 350, 76.4, M
MT. LAGUNA CALIFORNIA, San Diego, CA07, -116.420, 32.880, 5760, 65.0, M
LA HONDA CALIFORNIA, San Mateo, CA04, -122.255, 37.305, 872, 60.8, M
LA PANZA CALIFORNIA, San Luis Obispo, CA04, -120.187, 35.381, 1630, 68.7, M
LAURAL MOUNTAIN CALIFORNIA, Kern, CA07, -117.699, 35.478, 4390, 77.9, M
LASSEN LODGE CALIFORNIA, Tehama, CA02, -121.714, 40.344, 4159, 69.0, M
LAUFMAN CALIFORNIA, Lassen, CA03, -120.353, 40.142, 5800, 64.5, M
LAYTONVILLE CALIFORNIA, Mendocino, CA01, -123.485, 39.702, 1820, 66.5, M
LADDER BUTTE CALIFORNIA, Lassen, CA02, -121.297, 40.807, 5750, 60.3, M
LEO CARRILLO CALIFORNIA, Los Angeles, CA06, -118.936, 34.046, 50, 64.6, M
LOS GATOS CALIFORNIA, Santa Clara, CA04, -121.943, 37.203, 2000, 70.3, M
LOST HORSE CALIFORNIA, Riverside, CA07, -116.188, 34.018, 4200, 75.6, M
LINCOLN CALIFORNIA, Placer, CA02, -121.268, 38.883, 200, 74.9, M
LOWER KLAMATH CALIFORNIA, Siskiyou, CA01, -121.700, 41.999, 4098, 57.6, M
LOS PRIETOS CALIFORNIA, Santa Barbara, CA06, -119.783, 34.536, 1020, 71.5, M
LAS FLORES CALIFORNIA, San Diego, CA06, -117.439, 33.289, 100, 66.3, M
LAS TABLAS CALIFORNIA, San Luis Obispo, CA04, -120.924, 35.656, 994, 68.8, M
LITTLE TUJUNGA CALIFORNIA, Los Angeles, CA06, -118.361, 34.294, 1390, 73.0, M