Name, County, ClimateDivision, Longitude, Latitude, Elevation, MeanAvgTemperature, TotalPrecipitation
DEEP CANYON LAB, Riverside, CA07, -116.376, 33.651, 1200, M, 1.29
ELSINORE, Riverside, CA06, -117.346, 33.686, 1268, 81.2, 0.00
SANTA ANA JOHN WAYNE AP, Orange, CA06, -117.867, 33.680, 43, 71.8, T
IDYLLWILD FIRE DEPT, Riverside, CA06, -116.707, 33.757, 5380, 71.4, 0.26
SAN JACINTO, Riverside, CA06, -116.975, 33.797, 1525, 81.4, 0.00
HEMET, Riverside, CA06, -116.894, 33.738, 1811, 80.1, 0.00
SANTA ANA FIRE STATION, Orange, CA06, -117.867, 33.744, 135, 73.7, 0.00
EAGLE MOUNTAIN, Riverside, CA07, -115.451, 33.809, 973, 93.8, 0.45
PALM SPRINGS, Riverside, CA07, -116.510, 33.828, 425, 93.8, 0.90
LONG BEACH DAUGHERTY AP, Los Angeles, CA06, -118.147, 33.812, 34, 72.1, 0.00
FULLERTON MUNICIPAL AP, Orange, CA06, -117.986, 33.872, 86, 74.9, T
BEAUMONT #2, Riverside, CA07, -116.990, 33.926, 2591, 81.1, 0.00
YORBA LINDA, Orange, CA06, -117.819, 33.890, 350, 75.0, 0.00
DOWNEY FIRE DEPT. FC107C, Los Angeles, CA06, -118.145, 33.930, 110, M, 0.00
HAWTHORNE MUNICIPAL AP, Los Angeles, CA06, -118.333, 33.924, 55, 71.1, 0.00
LOS ANGELES INTL AP, Los Angeles, CA06, -118.387, 33.938, 97, 69.8, 0.00
RIVERSIDE FIRE STATION 3, Riverside, CA06, -117.388, 33.951, 840, 80.1, 0.00
RIVERSIDE MUNICIPAL AP, Riverside, CA06, -117.435, 33.953, 845, 78.6, T
CHINO AP, San Bernardino, CA06, -117.625, 33.976, 636, 77.1, 0.00
WHITTIER CITY YARD FC106C, Los Angeles, CA06, -118.022, 33.976, 446, M, 0.00
RIVERSIDE CITRUS EXP, Riverside, CA06, -117.361, 33.967, 986, 77.3, 0.00
MONTEBELLO, Los Angeles, CA06, -118.105, 34.019, 246, 76.3, 0.00
BARSTOW-DAGGETT AIRPORT, San Bernardino, CA07, -116.787, 34.854, 1919, 90.3, 0.15
MERCED, Merced, CA05, -120.516, 37.289, 154, 79.4, 0.00
SAN DIEGO MONTGOMERY FIELD, San Diego, CA06, -117.137, 32.815, 418, 70.8, T
SAN DIEGO INTERNATIONAL AP, San Diego, CA06, -117.183, 32.734, 15, 69.6, 0.00
SAN DIEGO MIRAMAR NAS, San Diego, CA06, -117.133, 32.867, 477, 69.6, 0.00
NORTH ISLAND NAS, San Diego, CA06, -117.210, 32.692, 14, 72.2, T
SAN FRANCISCO INTERNATIONAL AP, San Mateo, CA04, -122.366, 37.620, 10, 62.8, T
SAN LUIS OBISPO MCCHESNEY FIELD, San Luis Obispo, CA04, -120.644, 35.238, 183, 66.5, 0.00
CEDARVILLE, Modoc, CA03, -120.179, 41.530, 4688, 71.8, T
CHICO UNIVERSITY FARM, Butte, CA02, -121.821, 39.691, 185, 77.6, 0.00
CHULA VISTA, San Diego, CA06, -117.086, 32.640, 56, 69.1, 0.00
COLFAX, Placer, CA02, -120.947, 39.090, 2373, 75.8, 0.00
CUYAMACA, San Diego, CA06, -116.587, 32.990, 4640, 71.6, 0.00
DAVIS 2 WSW EXP FARM, Yolo, CA02, -121.776, 38.535, 60, 75.4, 0.00
DEATH VALLEY NATIONAL PARK, Inyo, CA07, -116.867, 36.463, -194, 105.2, 0.04
FAIRMONT, Los Angeles, CA07, -118.430, 34.705, 3060, 81.3, 0.00
FORT BRAGG 5 N, Mendocino, CA01, -123.756, 39.510, 123, 57.2, 0.00
HANFORD 1 S, Kings, CA05, -119.637, 36.316, 237, 79.9, 0.00
HAPPY CAMP RANGER STATION, Siskiyou, CA01, -123.375, 41.796, 1142, 75.7, 0.00
HEALDSBURG, Sonoma, CA01, -122.866, 38.629, 177, 71.9, 0.00
INDIO FIRE STATION, Riverside, CA07, -116.215, 33.709, -21, 95.8, 0.00
LEMON COVE, Tulare, CA05, -119.026, 36.382, 513, 82.6, 0.00
LIVERMORE, Alameda, CA04, -121.751, 37.682, 529, 73.3, 0.00
LODI, San Joaquin, CA05, -121.288, 38.106, 40, 75.9, 0.00
MERCED MUNICIPAL AP, Merced, CA05, -120.518, 37.286, 152, 79.5, 0.00
NAPA STATE HOSPITAL, Napa, CA01, -122.265, 38.278, 35, 69.7, 0.00
OJAI, Ventura, CA06, -119.227, 34.448, 745, 74.4, 0.00
ORLAND, Glenn, CA02, -122.200, 39.746, 254, 79.2, 0.00
ORLEANS, Humboldt, CA01, -123.532, 41.309, 403, 71.9, 0.08
PASADENA, Los Angeles, CA06, -118.145, 34.148, 864, 75.9, 0.00
PASO ROBLES, San Luis Obispo, CA04, -120.685, 35.628, 730, 74.3, 0.00
PETALUMA AIRPORT, Sonoma, CA01, -122.608, 38.258, 20, 67.1, 0.00
QUINCY, Plumas, CA02, -120.947, 39.937, 3420, 70.2, 0.00
REDLANDS, San Bernardino, CA06, -117.195, 34.037, 1410, 79.6, 0.00
SANTA BARBARA, Santa Barbara, CA06, -119.684, 34.417, 16, 67.0, 0.00
SANTA CRUZ, Santa Cruz, CA04, -122.000, 36.988, 70, 63.6, 0.01
SANTA ROSA, Sonoma, CA01, -122.713, 38.456, 166, 68.0, 0.00
TAHOE CITY, Placer, CA03, -120.143, 39.168, 6230, 63.2, T
UKIAH, Mendocino, CA01, -123.210, 39.147, 636, 73.2, 0.00
VACAVILLE, Solano, CA02, -121.961, 38.396, 110, 79.1, 0.00
WASCO, Kern, CA05, -119.352, 35.589, 291, 86.0, 0.00
WEAVERVILLE, Trinity, CA01, -122.940, 40.737, 2058, 71.3, 0.00
WILLOWS 6 W, Glenn, CA02, -122.305, 39.523, 234, 77.8, 0.00
YREKA, Siskiyou, CA01, -122.641, 41.703, 2709, 73.0, 0.00
BERKELEY, Alameda, CA04, -122.260, 37.874, 310, 62.3, 0.00
BLYTHE, Riverside, CA07, -114.597, 33.613, 268, 95.0, 0.00
EUREKA WFO WOODLEY ISLAND, Humboldt, CA01, -124.160, 40.810, 20, 56.8, 0.02
INDEPENDENCE, Inyo, CA07, -118.204, 36.798, 3950, 85.1, 0.08
SAN LUIS OBISPO POLY, San Luis Obispo, CA04, -120.662, 35.306, 308, 65.4, 0.00
BURNEY, Shasta, CA02, -121.655, 40.880, 3198, 69.1, 0.00
IMPERIAL BEACH REAM FIELD NAS, San Diego, CA06, -117.117, 32.568, 24, 71.6, 1.57
CAMPO, San Diego, CA06, -116.470, 32.626, 2630, 74.7, T
CALEXICO 2 NE, Imperial, CA07, -115.464, 32.688, 12, M, 0.30
EL CENTRO 2 SSW, Imperial, CA07, -115.562, 32.767, -30, 92.8, 0.12
IMPERIAL COUNTY AP, Imperial, CA07, -115.577, 32.835, -55, 93.5, 0.01
EL CENTRO NAF, Imperial, CA07, -115.664, 32.832, -46, 92.7, T
ALPINE, San Diego, CA06, -116.777, 32.836, 1695, 72.8, 0.00
SAN GABRIEL DAM FC425B-E, Los Angeles, CA06, -117.861, 34.205, 1481, M, 0.38
MT WILSON CBS, Los Angeles, CA06, -118.071, 34.231, 5710, 75.2, 0.00
LA CRESCENTA FC251 C, Los Angeles, CA06, -118.238, 34.222, 1545, M, 0.00
VAN NUYS AP, Los Angeles, CA06, -118.491, 34.212, 785, 77.2, 0.00
CAMARILLO AP, Ventura, CA06, -119.088, 34.211, 71, 67.7, 0.00
OXNARD VENTURA COUNTY AP, Ventura, CA06, -119.204, 34.200, 39, 65.5, 0.00
PARKER RESRVOIR, San Bernardino, CA07, -114.171, 34.290, 738, 91.7, 0.65
TWENTYNINE PALMS MC, San Bernardino, CA07, -116.147, 34.294, 2003, 91.1, 0.69
BIG BEAR LAKE, San Bernardino, CA06, -116.917, 34.243, 6753, 66.0, 0.70
LAKE ARROWHEAD, San Bernardino, CA07, -117.188, 34.247, 5205, 72.0, 0.00
CHATSWORTH FC 24 F, Los Angeles, CA06, -118.600, 34.250, 950, M, 0.00
VENTURA, Ventura, CA06, -119.292, 34.283, 105, M, 0.02
CRYSTAL LAKE FC238C, Los Angeles, CA06, -117.842, 34.318, 5345, M, 0.35
BIG TUJUNGA DAM FC46, Los Angeles, CA06, -118.188, 34.295, 2326, M, 0.04
PACOIMA DAM FC33A-E, Los Angeles, CA06, -118.400, 34.329, 1550, M, 0.00
PIRU 2 ESE, Ventura, CA06, -118.757, 34.406, 712, M, 0.00
SANTA BARBARA MUNI AP, Santa Barbara, CA06, -119.842, 34.424, 8, 66.5, 0.00
JUNCAL DAM, Santa Barbara, CA06, -119.507, 34.491, 2260, M, 0.00
VICTORVILLE, San Bernardino, CA07, -117.293, 34.529, 2880, 81.6, 0.00
ACTON ESCONDIDO FC261, Los Angeles, CA06, -118.271, 34.494, 2833, M, 0.00
GIBRALTAR DAM NO. 2, Santa Barbara, CA06, -119.682, 34.523, 1558, M, 0.00
PALMDALE, Los Angeles, CA07, -118.094, 34.588, 2612, 84.9, 0.00
SAUGUS POWER PLANT 1, Los Angeles, CA06, -118.454, 34.590, 2161, M, 0.00
CACHUMA LAKE, Santa Barbara, CA06, -119.982, 34.582, 789, 72.8, 0.00
SALSIPUEDES GAGING STATION, Santa Barbara, CA06, -120.408, 34.585, 254, M, 0.00
EL MIRAGE, San Bernardino, CA07, -117.630, 34.589, 2950, 81.7, 0.74
PALMDALE AP, Los Angeles, CA07, -118.083, 34.629, 2509, 84.0, 0.01
LOMPOC, Santa Barbara, CA06, -120.451, 34.654, 75, 63.5, T
LANCASTER, Los Angeles, CA06, -118.213, 34.741, 2338, 84.6, T
SANDBERG, Los Angeles, CA06, -118.724, 34.744, 4510, 74.7, T
LEBEC, Kern, CA05, -118.865, 34.833, 3575, 75.1, 0.00
CHUCHUPATE RANGER STN, Ventura, CA05, -119.011, 34.808, 5260, 68.8, 0.00
GAREY SISQUOC RIVER, Santa Barbara, CA06, -120.305, 34.894, 355, M, 0.00
MITCHELL CAVERNS, San Bernardino, CA07, -115.547, 34.944, 4350, 82.7, 0.53
NEW CUYAMA FIRE STATION, Santa Barbara, CA06, -119.683, 34.946, 2160, 78.2, 0.00
TWITCHELL DAM, Santa Barbara, CA06, -120.321, 34.988, 582, 66.6, 0.00
MOJAVE, Kern, CA07, -118.162, 35.049, 2735, 84.0, 0.00
PISMO BEACH, San Luis Obispo, CA04, -120.683, 35.160, 39, 60.3, 0.00
TAFT, Kern, CA05, -119.430, 35.150, 773, 84.3, 0.00
BAKER, San Bernardino, CA07, -116.063, 35.276, 962, 95.5, 0.05
SALINAS DAM, San Luis Obispo, CA04, -120.504, 35.337, 1392, M, 0.00
RANDSBURG, Kern, CA07, -117.652, 35.369, 3570, 83.1, 1.77
SANTA MARGARITA BOOST, San Luis Obispo, CA04, -120.637, 35.374, 1148, M, 0.00
MORRO BAY FIRE DEPT, San Luis Obispo, CA04, -120.845, 35.367, 118, 64.7, 0.00
BAKERSFIELD AP, Kern, CA05, -119.055, 35.434, 490, 84.8, 0.00
BUTTONWILLOW, Kern, CA05, -119.470, 35.403, 225, 83.9, 0.00
GLENNVILLE, Kern, CA05, -118.701, 35.727, 3140, 72.6, 0.02
TRONA, San Bernardino, CA07, -117.391, 35.764, 1695, 91.0, 0.46
DELANO, Kern, CA05, -119.260, 35.768, 302, 83.0, 0.00
BRADLEY TELEMETERING, Monterey, CA04, -120.868, 35.930, 443, M, 0.00
SHOSHONE, Inyo, CA07, -116.271, 35.972, 1546, 93.0, T
PORTERVILLE MUNICIPAL AIRPORT, Tulare, CA05, -119.062, 36.029, 442, 81.9, 0.00
KETTLEMAN CITY, Kings, CA05, -119.960, 36.007, 240, 84.2, 0.00
HAIWEE, Inyo, CA07, -117.953, 36.139, 3825, 84.6, 0.27
CORCORAN IRRIGATION DIST., Kings, CA05, -119.582, 36.098, 200, 82.3, 0.00
COALINGA, Fresno, CA05, -120.361, 36.136, 670, 86.6, 0.00
PRIEST VALLEY, Monterey, CA04, -120.695, 36.188, 2300, 75.1, 0.00
KING CITY, Monterey, CA04, -121.138, 36.207, 320, 69.9, 0.00
LINDSAY, Tulare, CA05, -119.054, 36.203, 435, 82.1, 0.00
BIG SUR STATION, Monterey, CA04, -121.780, 36.247, 200, 62.1, 0.00
VISALIA, Tulare, CA05, -119.300, 36.328, 303, 81.3, 0.00
FIVE POINTS 5 SSW, Fresno, CA05, -120.156, 36.364, 285, 81.8, 0.00
SAN CLEMENTE DAM, Monterey, CA04, -121.709, 36.438, 600, M, 0.00
ASH MOUNTAIN, Tulare, CA05, -118.825, 36.491, 1708, 83.0, 0.13
THREE RIVERS EDISON PH 1, Tulare, CA05, -118.862, 36.465, 1140, 81.2, 0.00
PINNACLES NATIONAL PARK, San Benito, CA04, -121.182, 36.482, 1307, 71.2, 0.00
CARMEL VALLEY, Monterey, CA04, -121.724, 36.481, 480, 64.7, 0.00
LODGEPOLE, Tulare, CA05, -118.732, 36.604, 6735, 61.9, 1.50
PANOCHE 2 W, San Benito, CA05, -120.884, 36.607, 1400, M, 0.00
MONTEREY, Monterey, CA04, -121.855, 36.593, 122, 58.8, 0.04
SALINAS NO. 2, Monterey, CA04, -121.666, 36.659, 45, 62.2, 0.02
SALINAS AP, Monterey, CA04, -121.609, 36.664, 73, 62.6, T
GRANT GROVE, Tulare, CA05, -118.962, 36.738, 6580, 67.3, 0.24
PAICINES 4 W, San Benito, CA04, -121.349, 36.715, 905, 67.9, 0.00
PINE FLAT DAM, Fresno, CA05, -119.337, 36.821, 615, 81.8, 0.00
LOS BANOS ARBURUA RANCH, Merced, CA05, -120.939, 36.875, 843, M, 0.00
HOLLISTER 2, San Benito, CA04, -121.421, 36.848, 275, 66.0, 0.00
CHITTENDEN PASS, Santa Cruz, CA04, -121.597, 36.900, 82, M, 0.00
BALCH POWER HOUSE, Fresno, CA05, -119.088, 36.909, 1735, 84.0, 0.00
WATSONVILLE WATERWORKS, Santa Cruz, CA04, -121.769, 36.931, 95, 62.2, 0.00
FRIANT GOVERNMENT CAMP, Fresno, CA05, -119.707, 36.997, 410, 81.6, 0.00
MADERA, Madera, CA05, -120.038, 36.954, 270, 80.0, 0.00
WISHON DAM, Fresno, CA05, -118.984, 37.007, 6550, 67.4, 1.00
GILROY, Santa Clara, CA04, -121.561, 37.003, 194, 72.2, 0.00
AUBERRY 2 NW, Fresno, CA05, -119.513, 37.092, 2090, 82.3, 0.01
LOS BANOS, Merced, CA05, -120.867, 37.056, 120, 79.7, 0.00
BEN LOMOND NO. 4, Santa Cruz, CA04, -122.080, 37.086, 420, 68.1, 0.00
MORGAN HILL, Santa Clara, CA04, -121.602, 37.136, 375, 71.6, 0.00
ASPENDELL, Inyo, CA01, -118.599, 37.232, 8470, 65.9, 0.98
HUNTINGTON LAKE, Fresno, CA05, -119.221, 37.228, 7020, 62.4, 1.60
BIG CREEK PH 1, Fresno, CA05, -119.242, 37.206, 4878, 73.4, 0.95
NORTH FORK RS, Madera, CA05, -119.510, 37.233, 2645, 76.9, 0.00
LOS GATOS, Santa Clara, CA04, -121.959, 37.232, 365, 70.2, 0.00
NEWMAN, Stanislaus, CA05, -121.018, 37.281, 90, 80.1, 0.00
MOUNT HAMILTON, Santa Clara, CA04, -121.635, 37.343, 4220, 72.8, 0.00
BISHOP AIRPORT, Inyo, CA07, -118.359, 37.371, 4110, 78.1, 0.15
MOFFETT FEDERAL AIRFIELD, Santa Clara, CA04, -122.048, 37.406, 39, 67.3, 0.00
WOODSIDE FIRE STATION 1, San Mateo, CA04, -122.256, 37.429, 380, 72.4, 0.00
TURLOCK #2, Stanislaus, CA05, -120.846, 37.502, 103, 78.5, 0.00
PALO ALTO, Santa Clara, CA04, -122.140, 37.444, 25, 68.3, 0.00
REDWOOD CITY, San Mateo, CA04, -122.239, 37.477, 31, 66.5, 0.00
HALF MOON BAY, San Mateo, CA04, -122.443, 37.473, 27, 58.7, 0.17
SO ENTRANCE YOSEMITE N.P., Mariposa, CA05, -119.633, 37.512, 5047, 68.7, 0.00
MARIPOSA R S, Mariposa, CA05, -119.986, 37.495, 2100, 78.3, 0.00
NEWARK, Alameda, CA04, -122.032, 37.515, 10, 66.9, 0.00
EXCHEQUER DAM, Mariposa, CA05, -120.267, 37.585, 442, M, 0.00
MODESTO AP, Stanislaus, CA05, -120.955, 37.625, 87, 80.7, 0.00
HAYWARD AIR TERMINAL, Alameda, CA04, -122.121, 37.659, 31, 65.1, 0.00
TRACY CARBONA, San Joaquin, CA05, -121.347, 37.682, 135, 75.9, 0.00
LIVERMORE MUNICIPAL AP, Alameda, CA04, -121.815, 37.693, 393, 72.5, 0.00
OAKLAND INTERNATIONAL AIRPORT, Alameda, CA04, -122.233, 37.718, 5, 63.0, T
UPPER SAN LEANDRO FILTERS, Alameda, CA04, -122.167, 37.772, 394, M, 0.00
SAN FRANCISCO DOWNTOWN, San Francisco, CA04, -122.427, 37.771, 150, 60.5, 0.00
SAN FRANCISCO OCEANSIDE, San Francisco, CA04, -122.505, 37.728, 8, 56.9, 0.01
GROVELAND 2, Tuolumne, CA05, -120.226, 37.844, 2800, 72.6, 0.00
TRACY PUMPING PLANT, Alameda, CA05, -121.583, 37.796, 61, 77.2, 0.00
OAKLAND MUSEUM, Alameda, CA04, -122.264, 37.798, 30, 63.7, 0.00
MATHER, Tuolumne, CA05, -119.856, 37.885, 4510, M, 0.03
MOUNT DIABLO JUNCTION, Contra Costa, CA04, -121.930, 37.879, 2170, 71.1, 0.00
STOCKTON AP, San Joaquin, CA05, -121.226, 37.890, 27, 77.0, 0.00
RICHMOND, Contra Costa, CA04, -122.377, 37.919, 20, 65.3, 0.00
MUIR WOODS, Marin, CA01, -122.569, 37.898, 220, M, 0.00
HETCH HETCHY, Tuolumne, CA05, -119.783, 37.961, 3870, 74.1, 0.00
CHERRY VALLEY DAM, Tuolumne, CA05, -119.916, 37.975, 4765, 74.6, 0.04
SONORA, Tuolumne, CA05, -120.387, 37.967, 1675, 75.5, 0.00
STOCKTON FIRE STA 4, San Joaquin, CA05, -121.318, 37.999, 12, 75.3, 0.00
ANTIOCH PUMPING PLANT #3, Contra Costa, CA05, -121.752, 37.983, 60, 76.3, 0.00
CONCORD BUCHANAN FIELD, Contra Costa, CA04, -122.053, 37.992, 23, 73.3, 0.00
CONCORD WASTEWATER PLANT, Contra Costa, CA04, -122.069, 37.983, 40, 72.2, 0.00
SAN RAFAEL-CIVIC CENTER, Marin, CA01, -122.537, 37.998, 120, 67.8, 0.00
KENTFIELD, Marin, CA01, -122.545, 37.957, 145, 67.7, 0.00
MARTINEZ WATER PLANT, Contra Costa, CA04, -122.114, 38.013, 40, 71.0, 0.00
BODIE CALIFORNIA STATE HISTORIC PARK, Mono, CA03, -119.014, 38.212, 8370, 59.0, 0.00
ACAMPO 5NE, San Joaquin, CA05, -121.201, 38.218, 87, M, 0.00
NAPA COUNTY AIRPORT, Napa, CA04, -122.280, 38.208, 16, 66.3, 0.00
BRIDGEPORT, Mono, CA03, -119.229, 38.258, 6470, 63.7, 0.00
CALAVERAS BIG TREES, Calaveras, CA05, -120.311, 38.277, 4695, 69.7, 0.00
CAMP PARDEE, Calaveras, CA05, -120.843, 38.249, 658, 78.9, 0.00
TRAVIS FIELD AFB, Solano, CA02, -121.933, 38.267, 62, M, 0.65
FAIRFIELD, Solano, CA02, -122.068, 38.274, 40, 73.5, 0.00
SONOMA, Sonoma, CA01, -122.462, 38.299, 97, 70.1, 0.00
SUTTER HILL CDF, Amador, CA05, -120.801, 38.377, 1586, 78.6, 0.00
WEST POINT, Calaveras, CA05, -120.545, 38.378, 2775, M, 0.00
ATLAS ROAD BROWN, Napa, CA01, -122.248, 38.427, 1680, M, 0.00
GRATON, Sonoma, CA01, -122.865, 38.431, 200, 66.5, 0.00
OCCIDENTAL, Sonoma, CA01, -122.966, 38.386, 865, M, 0.00
FIDDLETOWN DEXTER RCH, Amador, CA05, -120.698, 38.525, 2170, M, 0.00
SACRAMENTO AP ASOS, Sacramento, CA02, -121.496, 38.507, 19, 75.1, 0.00
WINTERS, Yolo, CA02, -121.978, 38.525, 135, 78.7, 0.00
LAKE SOLANO, Solano, CA02, -122.004, 38.492, 187, 78.4, 0.00
SAINT HELENA, Napa, CA01, -122.471, 38.507, 225, 71.6, 0.00
SAINT HELENA 4 WSW, Napa, CA01, -122.538, 38.493, 1780, M, 0.00
CAZADERO 5NW, Sonoma, CA01, -123.162, 38.564, 1420, M, 0.00
FORT ROSS, Sonoma, CA01, -123.245, 38.515, 112, 57.8, 0.00
SACRAMENTO 5 ESE, Sacramento, CA02, -121.418, 38.555, 38, 77.3, 0.00
ANGWIN PACIFIC UNION COLLEGE, Napa, CA01, -122.440, 38.573, 1715, 70.8, 0.00
CALISTOGA, Napa, CA01, -122.578, 38.577, 350, 71.8, 0.00
VENADO, Sonoma, CA01, -123.018, 38.609, 1260, M, 0.00
WOODLAND 1 WNW, Yolo, CA02, -121.794, 38.683, 67, 77.7, 0.00
PLACERVILLE, El Dorado, CA02, -120.824, 38.696, 1850, 79.2, 0.00
REPRESA, Sacramento, CA02, -121.161, 38.694, 295, M, 0.00
SACRAMENTO METROPOLITAN AP, Sacramento, CA02, -121.595, 38.701, 24, 76.2, T
PACIFIC HOUSE, El Dorado, CA02, -120.503, 38.758, 3450, M, 0.00
MIDDLETOWN, Lake, CA02, -122.626, 38.748, 1121, M, 0.00
CLOVERDALE, Sonoma, CA01, -123.026, 38.793, 400, 74.6, 0.00
KELSEY 1 N, El Dorado, CA02, -120.821, 38.809, 2000, M, T
SOUTH LAKE TAHOE AP, El Dorado, CA03, -119.996, 38.898, 6257, 62.0, T
GEORGETOWN RS, El Dorado, CA02, -120.801, 38.933, 3001, 80.2, 0.00
AUBURN, Placer, CA02, -121.084, 38.907, 1292, 79.1, 0.00
NICOLAUS #2, Sutter, CA02, -121.545, 38.926, 43, M, 0.00
YORKVILLE, Mendocino, CA01, -123.231, 38.905, 1100, M, 0.00
FORESTHILL RANGER STATION, Placer, CA02, -120.845, 39.010, 3015, M, 0.00
MARYSVILLE AIRPORT (ASOS), Yuba, CA02, -121.569, 39.102, 62, 77.8, 0.00
UKIAH MUNICIPAL AP, Mendocino, CA01, -123.200, 39.128, 603, 74.2, 0.00
IMPERIAL, Imperial, CA07, -115.567, 32.849, -64, 90.1, 0.16
EL CAPITAN DAM, San Diego, CA06, -116.815, 32.886, 600, 73.0, 0.00
LAKESIDE 2 E, San Diego, CA06, -116.895, 32.854, 690, M, 0.00
POWAY VALLEY, San Diego, CA06, -117.031, 33.020, 648, 73.4, 0.00
JULIAN CDF, San Diego, CA06, -116.592, 33.076, 4215, 74.2, 0.00
RAMONA FIRE DEPT, San Diego, CA06, -116.908, 33.011, 1470, 75.2, 0.00
SAN PASQUAL ANIMAL PK, San Diego, CA06, -116.997, 33.096, 420, 74.4, 0.00
CARLSBAD MCCLELLAN PALOMAR AP, San Diego, CA06, -117.277, 33.130, 313, 68.1, 0.01
HENSHAW DAM, San Diego, CA06, -116.761, 33.237, 2700, 74.6, 0.00
VISTA, San Diego, CA06, -117.232, 33.235, 430, 71.7, 0.00
OCEANSIDE MARINA, San Diego, CA06, -117.395, 33.210, 10, 66.6, 0.00
NILAND, Imperial, CA07, -115.524, 33.278, -60, M, 0.01
BORREGO DESERT PARK, San Diego, CA07, -116.404, 33.256, 810, 92.5, T
PALOMAR MTN OBSERVATORY, San Diego, CA06, -116.840, 33.378, 5550, 74.9, 0.00
TEMECULA, Riverside, CA06, -117.151, 33.497, 1020, 75.9, 0.00
MECCA FIRE STATION, Riverside, CA07, -116.073, 33.570, -183, 93.6, 0.00
LAGUNA BEACH, Orange, CA06, -117.781, 33.545, 44, 69.5, 0.00
BLYTHE ASOS, Riverside, CA07, -114.715, 33.619, 395, 95.3, 0.27
DESERT RESORTS REGIONAL AP, Riverside, CA07, -116.164, 33.632, -118, 93.1, 0.02
CULVER CITY, Los Angeles, CA06, -118.414, 34.005, 92, 70.0, 0.00
SANTA MONICA MUNICIPAL AP, Los Angeles, CA06, -118.447, 34.021, 175, 69.8, 0.01
SANTA MONICA PIER, Los Angeles, CA06, -118.500, 34.008, 14, 66.9, 0.00
ONTARIO INTL AP, San Bernardino, CA06, -117.577, 34.053, 924, 78.9, 0.00
POMONA/FAIRPLEX, Los Angeles, CA06, -117.766, 34.082, 999, 77.1, 0.00
COVINA CITY YARD FC387B, Los Angeles, CA06, -117.880, 34.092, 607, M, 0.07
U C L A, Los Angeles, CA06, -118.443, 34.070, 430, 69.7, 0.00
TOPANGA PATROL FC-6, Los Angeles, CA06, -118.599, 34.084, 745, M, 0.00
IRON MOUNTAIN, San Bernardino, CA07, -115.122, 34.147, 922, 95.0, 0.00
TWENTYNINE PALMS, San Bernardino, CA07, -116.037, 34.128, 1975, 90.0, 0.72
SAN DIMAS FIRE FC 95, Los Angeles, CA06, -117.802, 34.105, 958, M, 0.16
GLENDORA FC 287B, Los Angeles, CA06, -117.847, 34.147, 933, M, 0.09
SAN GABRIEL FIRE DEPT, Los Angeles, CA06, -118.100, 34.084, 363, 75.5, 0.00
POINT MUGU NF, Ventura, CA06, -119.123, 34.124, 12, 65.2, T
ALTADENA, Los Angeles, CA06, -118.138, 34.182, 1127, M, 0.00
SAN GABRIEL CANYON PH, Los Angeles, CA06, -117.908, 34.155, 744, M, 0.33
WOODLAND HILLS PIERCE COLLEGE, Los Angeles, CA06, -118.574, 34.182, 790, 76.9, 0.00
GOLD RUN 4 SW, Placer, CA02, -120.900, 39.150, 3220, M, 0.00
WILLIAMS, Colusa, CA02, -122.150, 39.150, 85, M, 0.00
GRASS VALLEY NO. 2, Nevada, CA02, -121.068, 39.204, 2400, 74.0, 0.00
HARRY L. ENGLEBRIGHT DAM, Nevada, CA02, -121.267, 39.237, 800, M, 0.00
COLUSA 2 SSW, Colusa, CA02, -122.027, 39.188, 50, 76.9, 0.00
BLUE CANYON NYACK AP, Placer, CA02, -120.709, 39.276, 5286, 71.9, T
NEVADA CITY, Nevada, CA02, -121.001, 39.247, 2781, 75.1, 0.00
TRUCKEE AIRPORT, Nevada, CA03, -120.139, 39.320, 5900, 61.7, T
TRUCKEE RS, Nevada, CA03, -120.173, 39.333, 5823, 61.2, T
DONNER MEMORIAL ST PARK, Nevada, CA03, -120.233, 39.324, 5937, 61.6, 0.00
COLGATE POWERHOUSE, Yuba, CA02, -121.192, 39.331, 595, M, 0.00
MOULTON WEIR, Colusa, CA02, -122.017, 39.333, 76, M, 0.00
BOCA, Nevada, CA03, -120.094, 39.389, 5575, 62.7, 0.05
DOBBINS 1 S, Yuba, CA02, -121.201, 39.358, 1640, 75.5, 0.00
POTTER VALLEY POWERHOUSE, Mendocino, CA01, -123.129, 39.362, 1018, 73.2, 0.00
FARAD, Nevada, CA03, -120.033, 39.428, 5153, M, 0.02
WILLITS 1 NE, Mendocino, CA01, -123.342, 39.419, 1353, 65.0, 0.00
BOWMAN DAM, Nevada, CA02, -120.656, 39.454, 5385, 70.5, 0.00
OROVILLE, Butte, CA02, -121.553, 39.518, 171, 78.7, 0.00
OROVILLE MUNICIPAL AP, Butte, CA02, -121.622, 39.494, 187, 80.1, 0.00
SIERRAVILLE RS, Sierra, CA02, -120.370, 39.583, 4975, 65.0, T
DOWNIEVILLE, Sierra, CA02, -120.824, 39.563, 2915, 71.5, 0.00
STRAWBERRY VALLEY, Yuba, CA02, -121.108, 39.563, 3808, 68.8, 0.00
STONY GORGE RESERVOIR, Glenn, CA02, -122.534, 39.586, 800, 78.8, 0.00
BRUSH CREEK RANGER STATION, Butte, CA02, -121.345, 39.695, 3560, M, 0.00
PARADISE, Butte, CA02, -121.624, 39.754, 1750, 77.9, 0.00
COVELO, Mendocino, CA01, -123.244, 39.816, 1413, 74.8, 0.00
VINTON, Plumas, CA02, -120.186, 39.806, 4950, 63.6, 0.03
PORTOLA, Plumas, CA02, -120.472, 39.805, 4850, 65.2, T
DE SABLA, Butte, CA02, -121.611, 39.872, 2710, 75.9, 0.00
LEGGETT, Mendocino, CA01, -123.720, 39.874, 703, M, 0.00
BUCKS CREEK, Plumas, CA02, -121.315, 39.937, 1891, M, 0.00
DOYLE 4 SSE, Lassen, CA03, -120.083, 39.972, 4390, 69.2, 0.12
DOYLE, Lassen, CA03, -120.105, 40.027, 4293, M, 0.11
RICHARDSON GR ST PK, Humboldt, CA01, -123.793, 40.026, 503, 68.3, 0.00
CANYON DAM, Plumas, CA02, -121.089, 40.171, 4560, 67.1, 0.00
MIRANDA 4 SE, Humboldt, CA01, -123.776, 40.182, 266, M, 0.00
FORT SEWARD, Humboldt, CA01, -123.632, 40.218, 220, M, 0.00
HONEYDEW 1 SW, Humboldt, CA01, -124.132, 40.238, 373, M, 0.00
CHESTER, Plumas, CA02, -121.242, 40.303, 4530, 67.0, 0.00
MINERAL, Tehama, CA02, -121.609, 40.346, 4875, 63.9, 0.00
ADIN RANGER STATION, Modoc, CA02, -120.945, 41.193, 4202, 70.8, 0.04
DUNSMUIR TREATMENT PL, Siskiyou, CA02, -122.282, 41.183, 2169, 72.5, 0.00
JESS VALLEY, Modoc, CA02, -120.295, 41.268, 5400, 66.2, T
MCCLOUD, Siskiyou, CA02, -122.138, 41.252, 3233, 69.9, 0.00
ORICK, Humboldt, CA01, -124.067, 41.283, 5, M, 0.00
CALLAHAN, Siskiyou, CA01, -122.825, 41.338, 3085, 67.9, 0.00
SAWYERS BAR RS, Siskiyou, CA01, -123.133, 41.301, 2255, 73.3, 0.00
ORLEANS RS, Humboldt, CA01, -123.534, 41.303, 433, M, 0.12
CANBY 3 SW, Modoc, CA02, -120.902, 41.422, 4310, 68.6, 0.00
ALTURAS, Modoc, CA02, -120.544, 41.490, 4378, 67.8, 0.05
FORT JONES RS, Siskiyou, CA01, -122.848, 41.601, 2729, 70.9, 0.00
LAVA BEDS NAT MON, Siskiyou, CA01, -121.501, 41.702, 4770, 69.7, 0.00
MOUNT HEBRON RS, Siskiyou, CA01, -122.045, 41.783, 4265, 66.9, 0.00
CRESCENT CITY 3 NNW, Del Norte, CA01, -124.215, 41.796, 43, 56.8, 0.02
CRESCENT CITY MCNAMARA AP, Del Norte, CA01, -124.238, 41.784, 56, 54.8, 0.06
OAK KNOLL W. C., Siskiyou, CA01, -122.850, 41.839, 1980, M, 0.00
GASQUET RS, Del Norte, CA01, -123.965, 41.845, 387, M, 0.00
FORT DICK RIVER, Del Norte, CA01, -124.135, 41.881, -, M, 0.00
TULELAKE, Siskiyou, CA01, -121.474, 41.960, 4038, 66.7, 0.00
COPCO NO 1 DAM, Siskiyou, CA01, -122.338, 41.980, 2665, 74.2, 0.00
ELK VALLEY, Del Norte, CA01, -123.718, 41.988, 1708, M, 0.04
PACIFICA 4 SSE, San Mateo, CA04, -122.472, 37.592, 475, 62.5, 0.00
BARSTOW, San Bernardino, CA07, -117.022, 34.893, 2220, 87.9, 0.85
INYOKERN, Kern, CA07, -117.821, 35.651, 2430, 86.3, 1.10
PEARBLOSSOM, Los Angeles, CA07, -117.897, 34.503, 3101, 83.0, 0.42
EL CAJON, San Diego, CA06, -116.928, 32.801, 495, 73.3, 0.00
MARKLEY COVE, Napa, CA02, -122.124, 38.492, 480, 76.1, 0.00
SUSANVILLE 2SW, Lassen, CA03, -120.663, 40.417, 4212, 70.3, T
TEJON RANCHO, Kern, CA05, -118.750, 35.023, 1425, 75.8, 0.00
SAN NICOLAS IS, Ventura, CA06, -119.458, 33.240, 568, 66.1, 0.01
BURBANK GLENDALE PASADENA AP, Los Angeles, CA06, -118.365, 34.200, 731, 75.8, 0.00
MOUNT SHASTA, Siskiyou, CA02, -122.317, 41.322, 3613, 69.9, 0.00
WATSONVILLE MUNICIPAL AIRPORT, Santa Cruz, CA04, -121.790, 36.939, 162, 62.6, 0.00
SANTA ROSA SONOMA CO AP, Sonoma, CA04, -122.811, 38.504, 119, 67.7, 0.00
LORAINE 5 NNE, Kern, CA05, -118.412, 35.384, 4235, 72.8, 0.90
CORONADO FIRE DEPT, San Diego, CA06, -117.177, 32.692, 18, 68.6, 0.00
FALLBROOK FIRE DEPT, San Diego, CA06, -117.248, 33.384, 698, 72.6, 0.00
DEL MAR FIRE DEPT, San Diego, CA06, -117.262, 32.972, 12, 69.6, 0.00
IMPERIAL BEACH FIRE DEPT, San Diego, CA06, -117.114, 32.576, 22, 68.8, 0.00
LEMON GROVE FIRE DEPARTMENT, San Diego, CA06, -117.030, 32.738, 427, 70.5, 0.00
SPRING VALLEY FIRE DEPT, San Diego, CA06, -117.006, 32.710, 270, 71.9, 0.00
SANTEE FIRE DEPT, San Diego, CA06, -116.973, 32.841, 340, 74.9, 0.00
LEE VINING, Mono, CA07, -119.119, 37.957, 6797, 70.8, 0.02
ANAHEIM, Orange, CA06, -117.842, 33.865, 235, 75.9, 0.00
RED BLUFF TREATMENT PLANT, Tehama, CA02, -122.220, 40.162, 265, M, 0.00
NEW MELONES DAM HQ, Tuolumne, CA05, -120.486, 38.005, 960, 81.2, 0.00
MAMMOTH LAKES RS, Mono, CA07, -118.962, 37.648, 7804, 64.9, 0.00
BIG SUR 3 SE, Monterey, CA04, -121.772, 36.246, 240, M, 0.00
FRAZIER PARK 9 SW, Ventura, CA05, -119.104, 34.733, 5169, M, 3.03
MONTEREY WFO, Monterey, CA04, -121.855, 36.593, 122, 60.0, 0.01
SKYLINE RIDGE PRESERVE, San Mateo, CA04, -122.185, 37.313, 2270, 71.2, 0.01
FREMONT, Alameda, CA04, -122.016, 37.542, 38, 67.7, 0.00
MAD RIVER 12 SE, Trinity, CA01, -123.374, 40.319, 2763, M, 0.00
NEWHALL 5NW, Los Angeles, CA06, -118.594, 34.393, 1765, 79.7, 0.00
TEHACHAPI 4 SE, Kern, CA05, -118.422, 35.101, 4220, 72.8, 0.84
REDWOOD CITY #2, San Mateo, CA04, -122.214, 37.488, 10, M, 1.28
WRIGHTWOOD, San Bernardino, CA07, -117.639, 34.362, 6000, 68.2, 1.88
REDDING CDF, Shasta, CA02, -122.299, 40.519, 502, M, 0.00
NORTHRIDGE CAL STATE, Los Angeles, CA06, -118.525, 34.245, 904, 77.7, 0.00
OXNARD WFO, Ventura, CA06, -119.137, 34.207, 52, 67.8, 0.00
HANFORD MUNICIPAL AP, Kings, CA05, -119.623, 36.311, 249, 81.5, 0.00
RAMONA AIRPORT, San Diego, CA06, -116.916, 33.038, 1385, 73.4, 0.01
VACAVILLE/NUT TREE AP ASOS, Solano, CA02, -121.959, 38.378, 104, 77.7, 0.00
ALTURAS MUNICIPAL AP, Modoc, CA02, -120.561, 41.484, 4383, 67.8, 0.02
MADERA MUNICIPAL AP, Madera, CA05, -120.111, 36.985, 251, 79.3, 0.00
BAKERSFIELD 5 NW, Kern, CA05, -119.051, 35.419, 470, 84.1, 0.00
FRESNO 5 NE, Fresno, CA05, -119.709, 36.767, 338, 82.3, 0.00
OCEANSIDE MUNICIPAL AP, San Diego, CA06, -117.350, 33.219, 30, 69.9, 0.00
SAN DIEGO SEAWORLD, San Diego, CA06, -117.231, 32.765, 14, 67.7, 0.00
BOULEVARD 2, San Diego, CA07, -116.300, 32.667, 3600, M, 0.00
ARCATA EUREKA AP, Humboldt, CA01, -124.105, 40.978, 211, 55.2, 0.09
CHICO ARMY FLYING SCH, Butte, CA02, -121.850, 39.800, 272, 78.7, 0.00
NEWPORT BEACH HARBOR, Orange, CA06, -117.884, 33.603, 10, 67.8, 0.00
ESCONDIDO NO. 2, San Diego, CA06, -117.090, 33.121, 600, 72.6, 0.00
REDDING AP, Shasta, CA02, -122.298, 40.515, 501, 82.5, 0.00
AVALON CATALINA AP, Los Angeles, CA06, -118.415, 33.404, 1565, 67.8, 0.03
SANTA MARIA PUBLIC AP, Santa Barbara, CA06, -120.452, 34.894, 243, 63.7, 0.00
MOUNT SHASTA, Siskiyou, CA02, -122.333, 41.333, 3535, 68.4, 0.00
RED BLUFF MUNI AP, Tehama, CA02, -122.255, 40.152, 354, 82.1, 0.00
NEEDLES AIRPORT, San Bernardino, CA07, -114.618, 34.768, 888, 98.0, 0.49
CHINA LAKE NAF, Kern, CA07, -117.693, 35.688, 2230, 87.7, 0.02
HEARST CASTLE, San Luis Obispo, CA04, -121.168, 35.684, 1526, 67.3, 0.00
GETTY CENTER, Los Angeles, CA06, -118.479, 34.087, 1117, 70.4, 0.00
HESPERIA 2E, San Bernardino, CA07, -117.266, 34.421, 3055, 85.6, T
RANCHO BERNARDO, San Diego, CA06, -117.081, 33.022, 690, 71.9, 0.00
FELTON, Santa Cruz, CA04, -122.075, 37.051, 400, 66.9, 0.00
PACIFICA 2S, San Mateo, CA04, -122.484, 37.610, 125, 57.5, 0.18
SAN JUAN CANYON, Orange, CA06, -117.552, 33.532, 375, 70.1, 0.00
YOUNTVILLE, Napa, CA01, -122.357, 38.395, 95, 69.9, 0.00
APPLE VALLEY #2, San Bernardino, CA07, -117.279, 34.536, 2780, 81.6, 0.00
OCOTILLO WELLS 2W, San Diego, CA07, -116.169, 33.155, 390, 96.7, 0.00
IRVINE RANCH, Orange, CA06, -117.723, 33.720, 540, 73.9, 0.00
MT. LAGUNA #3, San Diego, CA07, -116.419, 32.867, 5920, 71.4, T
AVALON INLAND, Los Angeles, CA06, -118.330, 33.338, 90, 64.0, 0.00
DESERT CENTER 2 NNE, Riverside, CA07, -115.392, 33.738, 747, 94.7, 0.35
TORRANCE AP, Los Angeles, CA06, -118.342, 33.802, 90, 69.7, 0.00
MERCED 23 WSW, Merced, CA05, -120.882, 37.238, 78, 73.5, 0.00
REDDING 12 WNW, Shasta, CA02, -122.607, 40.651, 1418, 79.2, 0.00
STOVEPIPE WELLS 1 SW, Inyo, CA07, -117.145, 36.602, 84, 103.0, 0.05
LOS ANGELES DOWNTOWN/USC, Los Angeles, CA06, -118.291, 34.024, 179, 73.6, 0.00
FRESNO YOSEMITE INT'L, Fresno, CA05, -119.720, 36.780, 334, 83.8, 0.01
MONTEREY PENINSUL AP, Monterey, CA04, -121.849, 36.590, 160, 60.7, 0.00
PASO ROBLES MUNICIPAL AP, San Luis Obispo, CA04, -120.629, 35.669, 820, 74.9, 0.00
MONTAGUE SISKIYOU AIRPORT, Siskiyou, CA01, -122.468, 41.774, 2645, 72.8, T
SAN JOSE, Santa Clara, CA04, -121.924, 37.359, 49, 69.3, 0.00
PALM SPRINGS ASOS, Riverside, CA07, -116.504, 33.822, 409, 93.4, 0.86
THOUSAND OAKS 1 SW, Ventura, CA06, -118.899, 34.182, 783, 71.4, 0.00
FILLMORE 2 W, Ventura, CA06, -118.945, 34.409, 495, 73.2, 0.00
SAN DIEGO BROWN FIELD, San Diego, CA06, -116.994, 32.576, 521, 70.6, 0.01
LAKE BERRYESSA, Napa, CA02, -122.250, 38.579, 455, 78.9, 0.00
Bakersfield Area, -, -, -, -, -, 84.8, 0.00
Bishop Area, -, -, -, -, -, 78.1, 0.15
Los Angeles Downtown Area, -, -, -, -, -, 73.6, 0.00
Eureka Area, -, -, -, -, -, 56.8, 0.02
Fresno Area, -, -, -, -, -, 83.8, 0.01
Los Angeles Airport Area, -, -, -, -, -, 69.8, 0.00
Long Beach Area, -, -, -, -, -, 72.1, 0.00
Redding Area, -, -, -, -, -, 82.5, 0.00
Sacramento Area, -, -, -, -, -, 75.1, 0.00
San Diego Area, -, -, -, -, -, 69.6, 0.00
Stockton Area, -, -, -, -, -, 77.0, 0.00
San Francisco Airport Area, -, -, -, -, -, 62.8, T
Santa Maria Area, -, -, -, -, -, 63.7, 0.00
CAMP PENDLETON MCAS, San Diego, CA06, -117.355, 33.304, 70, 69.1, 0.01
LEMOORE REEVES NAS, Fresno, CA05, -119.950, 36.333, 232, 80.7, 0.02
MOUNTAIN PASS 1SE, San Bernardino, CA07, -115.531, 35.459, 4777, 79.4, 1.33
ARVIN, Kern, CA05, -118.834, 35.211, 450, 84.8, 0.00
FRAZIER PARK, Kern, CA06, -118.965, 34.827, 4972, 72.3, 0.00
CHIRIACO SUMMIT, Riverside, CA07, -115.721, 33.662, 1706, 88.8, 0.47
EDWARDS AFB NORTH AUXILIARY AIRFIELD, Kern, CA07, -117.865, 34.988, 2283, 85.4, 0.53
FALLBROOK 5 NE, San Diego, CA06, -117.190, 33.439, 1140, 73.1, 0.03
BODEGA 6 WSW, Sonoma, CA01, -123.075, 38.321, 63, 56.1, 0.01
YOSEMITE VILLAGE 12 W, Mariposa, CA05, -119.821, 37.759, 6620, 68.9, 0.02
REDONDO BEACH, Los Angeles, CA06, -118.376, 33.834, 142, 68.8, 0.00
BURBANK VALLEY PUMP PLANT, Los Angeles, CA06, -118.348, 34.187, 655, 74.1, 0.00
PLEASANTON 1.8 SSE, Alameda, CA04, -121.875, 37.648, 351, M, 0.00
HARRISON GULCH RS, Shasta, CA02, -122.965, 40.364, 2750, 69.5, 0.00
COLEMAN FISHERIES STATION, Shasta, CA02, -122.143, 40.400, 420, M, 0.00
VOLTA PH, Shasta, CA02, -121.866, 40.458, 2220, M, 0.00
GRIZZLY CREEK STATE PARK, Humboldt, CA01, -123.909, 40.486, 413, M, 0.06
SCOTIA, Humboldt, CA01, -124.104, 40.483, 136, 61.6, 0.02
MANZANITA LAKE, Shasta, CA02, -121.577, 40.541, 5750, 64.6, 0.00
WHISKEYTOWN RESERVOIR, Shasta, CA02, -122.528, 40.612, 1295, 82.5, 0.00
SHASTA DAM, Shasta, CA02, -122.416, 40.714, 1075, 81.7, 0.00
TRINITY RIVER HATCHERY, Trinity, CA01, -122.795, 40.726, 1861, 72.3, 0.00
BIG BAR 4 E, Trinity, CA01, -123.208, 40.741, 1253, 71.0, 0.00
ROUND MOUNTAIN, Shasta, CA02, -121.935, 40.796, 2100, M, 0.00
BUCKHORN, Shasta, CA02, -121.932, 40.880, 3700, M, 0.00
HAT CREEK, Shasta, CA02, -121.543, 40.932, 3015, 69.4, 0.00
PIT RIVER PH 5, Shasta, CA02, -121.977, 40.987, 1458, M, 0.00
WILLOW CREEK 1 NW, Humboldt, CA01, -123.636, 40.947, 464, 71.1, 0.00
FALL RIVER MILLS, Shasta, CA02, -121.435, 41.008, 3300, M, 0.00
PLACERVILLE 2.9 WNW, El Dorado, CA02, -120.840, 38.753, 1800, M, 0.00
PLACERVILLE 3.7 SW, El Dorado, CA02, -120.849, 38.695, 1755, M, 0.00
TOLLHOUSE 2.0 SSE, Fresno, CA05, -119.397, 36.990, 1673, M, 0.02
SUSANVILLE 3.2 SSW, Lassen, CA03, -120.674, 40.368, 4353, M, 0.09
YORBA LINDA 1.9 SSW, Orange, CA06, -117.781, 33.865, 361, M, 0.00
CORONA 12.8 SE, Riverside, CA06, -117.428, 33.731, 1404, M, 0.00
PACIFICA 0.3 W, San Mateo, CA04, -122.483, 37.612, 227, M, 0.03
DAVIS 0.8 NE, Yolo, CA02, -121.724, 38.562, 41, M, 0.00
ARBUCKLE BASIN CALIFORNIA, Shasta, CA02, -122.833, 40.398, 1900, 79.0, M
ACTON CALIFORNIA, Los Angeles, CA06, -118.200, 34.446, 2600, 77.8, M
ARROYO GRANDE CALIFORNIA, San Luis Obispo, CA04, -120.392, 35.179, 1048, 70.1, M
ALDER SPRINGS CALIFORNIA, Glenn, CA02, -122.724, 39.651, 4300, 74.2, M
ALPINE CALIFORNIA, San Diego, CA06, -116.739, 32.834, 2041, 77.7, M
LOS ALTOS CALIFORNIA, Santa Clara, CA04, -122.147, 37.358, 645, M, M
AMMO DUMP CALIFORNIA, San Diego, CA06, -117.286, 33.381, 1068, 71.7, M
ANZA CALIFORNIA, Riverside, CA06, -116.673, 33.555, 3920, 74.5, M
ALDER POINT CALIFORNIA, Humboldt, CA01, -123.590, 40.187, 923, 70.5, M
ARROYO SECO (MT. DIABLO) CALIF, Monterey, CA04, -121.492, 36.230, 980, 72.8, M
ASH CREEK CALIFORNIA, Siskiyou, CA02, -121.979, 41.277, 3200, 64.7, M
ASH VALLEY CALIFORNIA, Lassen, CA02, -120.686, 41.052, 5100, 65.3, M
BACKBONE CALIFORNIA, Trinity, CA01, -123.142, 40.889, 4700, 73.5, M
BALD MTN LOC CALIFORNIA, El Dorado, CA02, -120.697, 38.906, 4680, 78.3, M
BARNABY CALIFORNIA, Marin, CA01, -122.702, 38.028, 1240, 64.2, M
BATTERSON CALIFORNIA, Madera, CA05, -119.508, 37.232, 3160, 81.4, M
BIG BAR CALIFORNIA, Trinity, CA01, -123.233, 40.733, 1500, 73.4, M
BELL CANYON CALIFORNIA, Orange, CA06, -117.592, 33.542, 700, 71.9, M
BRADLEY CALIFORNIA, Monterey, CA04, -120.803, 35.864, 537, 75.6, M
BEAR PEAK CALIFORNIA, Tulare, CA05, -118.052, 35.884, 8228, 67.1, M
BENTON CALIFORNIA, Mono, CA07, -118.478, 37.843, 5450, 75.5, M
BEAUMONT CALIFORNIA, Riverside, CA06, -116.950, 33.931, 2604, 81.0, M
BEVERLY HILLS CALIFORNIA, Los Angeles, CA06, -118.412, 34.125, 1260, 76.0, M
BEAR VALLEY CALIFORNIA, Kern, CA05, -118.625, 35.140, 4000, 73.1, M
BANGOR CALIFORNIA, Butte, CA02, -121.386, 39.398, 803, 78.7, M
BIG HILL CALIFORNIA, Humboldt, CA01, -123.636, 41.098, 3570, 69.0, M
BIG PINES CALIFORNIA, Los Angeles, CA07, -117.692, 34.379, 6917, 71.4, M
BIG ROCK CALIFORNIA, Marin, CA01, -122.570, 38.039, 1500, 68.7, M
BLACK DIAMOND CALIFORNIA, Contra Costa, CA04, -121.884, 37.950, 1600, 72.5, M
BLUE DOOR CALIFORNIA, Lassen, CA02, -120.337, 41.055, 5615, 66.0, M
BLUE RIDGE (KNF) CALIFORNIA, Siskiyou, CA01, -123.187, 41.269, 5956, 67.0, M
BEN BOLT CALIFORNIA, El Dorado, CA05, -120.934, 38.591, 905, 76.6, M
BEN LOMOND CALIFORNIA, Santa Cruz, CA04, -122.170, 37.132, 2630, 72.7, M
BOGARD R.S. CALIFORNIA, Lassen, CA02, -121.083, 40.598, 5650, 60.9, M
BOONVILLE CALIFORNIA, Mendocino, CA01, -123.349, 38.988, 644, 68.5, M
BIG PINE FLAT CALIFORNIA, San Bernardino, CA07, -117.013, 34.319, 6861, 68.8, M
BRIDGEPORT 4NW CALIFORNIA, Mono, CA03, -119.289, 38.272, 6650, 68.8, M
BRANCH MOUNTAIN CALIFORNIA, San Luis Obispo, CA04, -120.083, 35.189, 3770, 78.5, M
BEAR FLAT CALIFORNIA, Modoc, CA02, -120.313, 41.295, 6200, 65.8, M
BRIONES CALIFORNIA, Contra Costa, CA04, -122.118, 37.944, 1450, 69.4, M
BLACKROCK CALIFORNIA, Tulare, CA05, -118.260, 36.093, 8200, 63.9, M
BROOKS CALIFORNIA, Yolo, CA02, -122.145, 38.738, 354, 79.6, M
BIG SUR CALIFORNIA, Monterey, CA04, -121.785, 36.236, 450, 63.2, M
BUCK MEADOWS CALIFORNIA, Tuolumne, CA05, -120.097, 37.823, 3200, 73.4, M
BULL FLAT CALIFORNIA, Lassen, CA03, -120.114, 40.481, 4395, 70.6, M
BURNS CANYON CALIFORNIA, San Bernardino, CA07, -116.634, 34.210, 6000, 76.0, M
BUTTERCUP CALIFORNIA, Imperial, CA07, -114.884, 32.740, 217, 94.5, M
BEAVER CAMP LOC CALIFORNIA, Amador, CA05, -120.325, 38.488, 5000, 81.2, M
BRAZIE RANCH CALIFORNIA, Siskiyou, CA01, -122.594, 41.685, 3000, 76.3, M
CAHUILLA CALIFORNIA, Imperial, CA07, -115.174, 32.974, 278, 95.4, M
CALLAHAN CALIFORNIA, Siskiyou, CA01, -122.796, 41.308, 3136, 74.2, M
CAMERON FIRE STATION CALIFORNI, San Diego, CA06, -116.463, 32.721, 3443, 74.4, M
CANBY CALIFORNIA, Modoc, CA02, -120.868, 41.434, 4312, 69.8, M
CARRIZO CALIFORNIA, San Luis Obispo, CA05, -119.773, 35.096, 2490, 81.5, M
CASE SPRINGS CALIFORNIA, San Diego, CA06, -117.418, 33.445, 2320, 74.3, M
CATHEYS VALLEY CALIFORNIA, Mariposa, CA05, -120.111, 37.468, 1200, 82.1, M
CEDAR GROVE CALIFORNIA, Fresno, CA05, -118.656, 36.788, 4720, 71.7, M
CHEESEBORO CALIFORNIA, Ventura, CA06, -118.717, 34.185, 1650, 76.8, M
CHICO CALIFORNIA, Butte, CA02, -121.779, 39.712, 230, 78.8, M
CHILAO CALIFORNIA, Los Angeles, CA06, -118.030, 34.332, 5450, 75.5, M
CHUCHUPATE CALIFORNIA, Ventura, CA05, -119.012, 34.808, 4900, 67.2, M
CLAREMONT CALIFORNIA, Los Angeles, CA06, -117.707, 34.137, 1645, 75.5, M
CLEAR CREEK CALIFORNIA, Los Angeles, CA06, -118.152, 34.271, 3000, 77.0, M
CLARK CALIFORNIA, Riverside, CA06, -117.309, 33.877, 1720, 76.3, M
CALAVERAS ROAD CALIFORNIA, Alameda, CA04, -121.844, 37.553, 1230, 68.1, M
CASE MOUNTAIN CALIFORNIA, Tulare, CA05, -118.809, 36.411, 6450, 70.2, M
CORONA CALIFORNIA, Riverside, CA06, -117.549, 33.874, 640, 77.8, M
COHASSET CALIFORNIA, Butte, CA02, -121.769, 39.872, 1733, 81.5, M
COLLINS BALDY CALIFORNIA, Siskiyou, CA01, -122.950, 41.775, 5493, 67.0, M
ADELANTO 3.1 S, San Bernardino, CA07, -117.433, 34.525, 3085, M, 1.34
LYONS VALLEY CALIFORNIA, Lake, CA01, -123.074, 39.126, 3200, 70.5, M
LYTLE CREEK CALIFORNIA, San Bernardino, CA06, -117.480, 34.234, 2792, 77.1, M
MAD RIVER CALIFORNIA, Trinity, CA01, -123.524, 40.463, 2775, 69.5, M
MALIBU HILLS CALIFORNIA, Los Angeles, CA06, -118.633, 34.058, 1575, 73.4, M
MANZANITA LAKE CALIFORNIA, Shasta, CA02, -121.580, 40.540, 5660, 62.9, M
MILL CREEK (BDF) CALIFORNIA, San Bernardino, CA06, -117.035, 34.084, 2950, 78.9, M
MCGUIRES CALIFORNIA, Mendocino, CA01, -123.601, 39.353, 593, 65.2, M
MEANS LAKE CALIFORNIA, San Bernardino, CA07, -116.517, 34.391, 2900, 86.4, M
MENDOCINO PASS CALIFORNIA, Mendocino, CA01, -122.945, 39.808, 5420, 72.0, M
METCALF GAP CALIFORNIA, Madera, CA05, -119.768, 37.409, 3077, 82.7, M
MEYERS CALIFORNIA, El Dorado, CA03, -120.018, 38.849, 6310, 64.4, M
MID HILLS CALIFORNIA, San Bernardino, CA07, -115.411, 35.123, 5413, 77.0, M
MILL CREEK (ANF) CALIFORNIA, Los Angeles, CA06, -118.082, 34.390, 5021, 74.6, M
MILO CALIFORNIA, Tulare, CA05, -118.869, 36.231, 1923, M, M
MALLORY RIDGE CALIFORNIA, Contra Costa, CA05, -121.779, 37.817, 2040, 75.6, M
MONTECITO CALIFORNIA, Santa Barbara, CA06, -119.648, 34.461, 1500, 71.8, M
MODOC NWR CALIFORNIA, Modoc, CA02, -120.354, 41.459, 4380, 68.1, M
MOJAVE RIVER SINK CALIFORNIA, San Bernardino, CA07, -116.079, 35.053, 950, 94.2, M
MORMON ROCK CALIFORNIA, San Bernardino, CA06, -117.502, 34.318, 3300, 77.5, M
MOUNTAIN REST CALIFORNIA, Fresno, CA05, -119.371, 37.054, 4100, 78.7, M
MARKLEEVILLE CALIFORNIA, Alpine, CA03, -119.767, 38.683, 5501, 69.7, M
MT. SHASTA CALIFORNIA, Siskiyou, CA02, -122.316, 41.316, -, 71.0, M
MARIPOSA CALIFORNIA, Mariposa, CA05, -119.987, 37.504, 2231, 78.5, M
MT. DIABLO CALIFORNIA, Contra Costa, CA05, -121.914, 37.882, 3849, 73.6, M
MOUNT ZION CALIFORNIA, Amador, CA05, -120.651, 38.389, 2960, 79.5, M
NORTH FORK CALIFORNIA, Madera, CA05, -119.505, 37.233, 2720, 79.6, M
OAK BOTTOM CALIFORNIA, Shasta, CA02, -122.606, 40.651, 1326, 81.3, M
OAK KNOLL CALIFORNIA, Siskiyou, CA01, -122.850, 41.839, 1940, 72.7, M
OAK MOUNTAIN CALIFORNIA, Shasta, CA02, -121.983, 41.006, 1700, 78.8, M
OAK CREEK CALIFORNIA, Inyo, CA07, -118.259, 36.843, 4855, 84.8, M
OJAI CALIFORNIA, Ventura, CA06, -119.230, 34.448, 765, 71.3, M
OAK GROVE CALIFORNIA, San Diego, CA06, -116.795, 33.393, 2752, 78.4, M
OAKLAND NORTH CALIFORNIA, Contra Costa, CA04, -122.221, 37.865, 1403, 63.2, M
OAK OPENING CALIFORNIA, Tulare, CA05, -118.702, 36.175, 3240, 81.6, M
OPAL MOUNTAIN CALIFORNIA, San Bernardino, CA07, -117.176, 35.154, 3240, 84.5, M
OWENS CAMP LOC CALIFORNIA, El Dorado, CA02, -120.245, 38.733, 5240, 69.9, M
OWENS VALLEY CALIFORNIA, Inyo, CA07, -118.551, 37.390, 4640, 82.0, M
OZENA CALIFORNIA, Ventura, CA06, -119.354, 34.682, 3670, 77.0, M
PANAMINT CALIFORNIA, Inyo, CA07, -117.088, 36.120, 6880, 74.6, M
PARKFIELD CALIFORNIA, Monterey, CA04, -120.432, 35.899, 1535, 77.0, M
PATTY MOCUS CALIFORNIA, Tehama, CA02, -122.867, 40.295, 3500, 75.2, M
PINE HILLS CALIFORNIA, San Diego, CA06, -116.634, 33.016, -, 74.9, M
PIERCE CALIFORNIA, Plumas, CA02, -120.642, 40.246, 5700, 69.1, M
PINEHURST CALIFORNIA, Fresno, CA05, -119.000, 36.685, 4060, 77.2, M
PIKE COUNTY LOOKOUT CALIFORNIA, Yuba, CA02, -121.202, 39.475, 3714, 76.2, M
PILOT HILL CALIFORNIA, El Dorado, CA02, -121.009, 38.833, 1200, 76.8, M
PIRU CALIFORNIA, Ventura, CA06, -118.810, 34.404, 614, 71.6, M
PARK RIDGE CALIFORNIA, Tulare, CA05, -118.942, 36.724, 7540, 67.1, M
PINNACLES CALIFORNIA, San Benito, CA04, -121.147, 36.471, 1322, 76.3, M
POPPY PARK CALIFORNIA, Los Angeles, CA07, -118.383, 34.733, 2760, 84.0, M
POTRERO CALIFORNIA, San Diego, CA06, -116.609, 32.606, 2345, 75.5, M
POVERTY CALIFORNIA, Santa Clara, CA04, -121.771, 37.443, 2066, 70.4, M
PANOCHE ROAD CALIFORNIA, Fresno, CA05, -120.766, 36.727, 2032, 82.0, M
PULGAS CALIFORNIA, San Mateo, CA04, -122.298, 37.475, 644, 68.6, M
QUARTZ HILL CALIFORNIA, Siskiyou, CA01, -122.934, 41.599, 4225, 74.5, M
QUINCY RD CALIFORNIA, Plumas, CA02, -120.942, 39.973, 3500, 70.5, M
RAVENDALE CALIFORNIA, Lassen, CA03, -120.316, 40.731, 5298, 69.4, M
RANCHITA CALIFORNIA, San Diego, CA07, -116.497, 33.222, 4415, 78.5, M
READER RANCH CALIFORNIA, Nevada, CA02, -121.117, 39.304, 1968, 79.9, M
REDDING AIRPORT CALIFORNIA, Shasta, CA02, -122.291, 40.516, 500, 82.2, M
RICE VALLEY CALIFORNIA, Riverside, CA07, -114.732, 34.061, 820, 96.1, M
CAMPO ASOS, San Diego, CA07, -116.468, 32.626, 2641, 73.8, 0.00
Burbank Glendale Pasadena Area, -, -, -, -, -, 75.8, 0.00
Camarillo Area, -, -, -, -, -, 67.7, 0.00
Needles Area, -, -, -, -, -, 98.0, 0.49
Oxnard Area, -, -, -, -, -, 67.8, 0.00
Palm Springs Area, -, -, -, -, -, 93.4, 0.86
Riverside Area, -, -, -, -, -, 80.1, 0.00
Ramona Area, -, -, -, -, -, 73.4, 0.01
Northern CA 8 Station Index, -, -, -, -, -, M, 0.01
San Joaquin 5 Station Index, -, -, -, -, -, M, 0.31
SANTA ROSA ISLAND CALIFORNIA, Santa Barbara, CA06, -120.078, 33.978, 1298, 58.3, M
SANTA ROSA PLATEAU CALIFORNIA, Riverside, CA06, -117.231, 33.529, 1980, 73.2, M
SANTA ROSA CALIFORNIA, Sonoma, CA01, -122.712, 38.479, 576, 66.9, M
STAMPEDE CALIFORNIA, Sierra, CA03, -120.075, 39.483, 6867, 65.2, M
STONYFORD CALIFORNIA, Colusa, CA02, -122.575, 39.367, 1200, 78.9, M
SUGARLOAF (SHF) CALIFORNIA, Shasta, CA02, -122.438, 40.917, 4200, 79.0, M
SUGARLOAF CALIFORNIA, Tulare, CA05, -118.675, 36.727, 8120, 66.0, M
TALEGA CALIFORNIA, San Diego, CA06, -117.486, 33.478, 1203, 72.1, M
TANBARK CALIFORNIA, Los Angeles, CA06, -117.761, 34.207, 2600, 76.8, M
TARGET RANGE CALIFORNIA, San Diego, CA06, -117.359, 33.372, 918, 69.8, M
TEMESCAL (LPF) CALIFORNIA, Ventura, CA06, -118.756, 34.481, 1140, 74.5, M
THOMES CREEK CALIFORNIA, Tehama, CA02, -122.610, 39.864, 1040, 84.5, M
THOUSAND OAKS CALIFORNIA, Ventura, CA06, -118.870, 34.210, 795, 67.2, M
TIMBER MOUNTAIN CALIFORNIA, Modoc, CA01, -121.298, 41.629, 4960, 70.8, M
TEMESCAL (CNF) CALIFORNIA, Riverside, CA06, -117.483, 33.763, 1125, 78.5, M
MOUNT TOM CALIFORNIA, Fresno, CA05, -119.178, 37.376, 9018, 61.0, M
LAS TRAMPAS CALIFORNIA, Contra Costa, CA04, -122.067, 37.834, 1760, 70.0, M
TRINITY CAMP CALIFORNIA, Trinity, CA01, -122.804, 40.786, 3308, 73.7, M
TRIMMER CALIFORNIA, Fresno, CA05, -119.305, 36.911, 1540, 83.6, M
GAYLOR MEADOW CALIFORNIA, Tuolumne, CA05, -119.318, 37.868, 9270, 55.3, M
UHL / HOT SPRINGS, Tulare, CA05, -118.633, 35.889, 3720, 77.2, M
UNDERWOOD CALIFORNIA, Trinity, CA01, -123.495, 40.722, 2600, 72.2, M
VALLEY CENTER CALIFORNIA, San Diego, CA06, -117.009, 33.237, 1483, 74.7, M
VAN BREMMER CALIFORNIA, Siskiyou, CA01, -121.794, 41.643, 4928, 67.9, M
VALYERMO CALIFORNIA, Los Angeles, CA07, -117.851, 34.446, 3780, 78.8, M
VANDENBERG CALIFORNIA, Santa Barbara, CA06, -120.486, 34.759, 1050, 61.6, M
WALKER CALIFORNIA, Mono, CA03, -119.459, 38.565, 5440, 77.6, M
WALKER PASS CALIFORNIA, Kern, CA05, -118.057, 35.665, 5572, 77.8, M
WARM SPRINGS CALIFORNIA, Los Angeles, CA06, -118.579, 34.596, 4930, 78.4, M
WEED AIRPORT CALIFORNIA, Siskiyou, CA01, -122.454, 41.479, 2930, 72.9, M
WESTWOOD CALIFORNIA, Lassen, CA02, -120.900, 40.307, 5800, 69.5, M
WHITE CLOUD CALIFORNIA, Nevada, CA02, -120.837, 39.317, 4320, 77.3, M
WHITTIER HILLS CALIFORNIA, Los Angeles, CA06, -118.010, 33.984, 950, 74.1, M
WHITMORE CALIFORNIA, Shasta, CA02, -121.899, 40.619, 2417, 79.8, M
WILEY RIDGE CALIFORNIA, Ventura, CA06, -118.841, 34.372, 1645, 76.5, M
WOFFORD HEIGHTS CALIFORNIA, Kern, CA05, -118.499, 35.722, 3150, 79.5, M
WOLVERTON CALIFORNIA, Tulare, CA05, -118.703, 36.445, 5240, 76.1, M
WOODACRE CALIFORNIA, Marin, CA01, -122.645, 37.991, 1400, 69.3, M
WHITAKER PEAK CALIFORNIA, Los Angeles, CA06, -118.740, 34.569, 4120, 76.7, M
WHITE WOLF CALIFORNIA, Tuolumne, CA05, -119.650, 37.851, 8025, 61.7, M
YOLLA BOLLA CALIFORNIA, Trinity, CA01, -123.066, 40.338, 4524, 71.3, M
YUCCA VALLEY CALIFORNIA, San Bernardino, CA07, -116.408, 34.123, 3260, 82.8, M
YUROK CALIFORNIA, Humboldt, CA01, -123.857, 41.290, 495, 70.1, M
HAGAN'S MEADOW, El Dorado, CA03, -119.940, 38.850, 7776, 57.9, 0.00
BLUE LAKES, Alpine, CA05, -119.920, 38.610, 8057, 59.7, 0.00
POISON FLAT, Alpine, CA03, -119.630, 38.510, 7736, 58.5, 0.50
SONORA PASS, Mono, CA03, -119.600, 38.310, 8827, 60.2, 0.90
LEAVITT MEADOWS, Mono, CA03, -119.550, 38.300, 7198, 62.2, 0.40
VIRGINIA LAKES RIDGE, Mono, CA03, -119.230, 38.070, 9445, 61.5, 0.20
LOBDELL LAKE, Mono, CA03, -119.370, 38.440, 9233, 59.0, 0.00
EBBETTS PASS, Alpine, CA03, -119.800, 38.550, 8765, 60.7, 0.80
HEAVENLY VALLEY, El Dorado, CA03, -119.920, 38.920, 8582, 58.0, 0.10
LEAVITT LAKE, Mono, CA03, -119.610, 38.280, 9617, 59.5, 0.70
SPRATT CREEK, Alpine, CA03, -119.820, 38.670, 6115, 66.8, 1.60
MONITOR PASS, Alpine, CA03, -119.610, 38.670, 8310, 62.0, 0.00
BURNSIDE LAKE, Alpine, CA03, -119.890, 38.720, 8129, 56.2, 0.80
SUMMIT MEADOW, Mono, CA03, -119.540, 38.400, 9313, 60.2, 0.20
FORESTDALE CREEK, Alpine, CA03, -119.960, 38.680, 8017, 62.6, 0.20
HORSE MEADOW, Alpine, CA03, -119.890, 38.840, 8557, 61.5, 0.10
CARSON PASS, Alpine, CA02, -119.990, 38.690, 8353, 59.1, 0.10
CROWDER FLAT, Modoc, CA01, -120.750, 41.890, 5170, 64.7, 0.10
CEDAR PASS, Modoc, CA02, -120.300, 41.580, 7030, 63.7, 0.00
ROCK CREEK, Mono, CA07, -118.667, 37.551, 7040, 69.3, M
RODEO VALLEY, Mendocino, CA01, -123.321, 39.668, 2428, 72.3, M
ROSE VALLEY CALIFORNIA, Ventura, CA06, -119.184, 34.543, 3331, 70.0, M
ROUND MOUNTAIN, Siskiyou, CA02, -121.464, 41.427, 5258, 70.5, M
ROSE PEAK CALIFORNIA, Alameda, CA04, -121.735, 37.502, 3060, 73.7, M
RATTLESNAKE CALIFORNIA, Tulare, CA05, -118.422, 36.407, 8600, 67.5, M
RUSH CREEK CALIFORNIA, Modoc, CA02, -120.864, 41.294, 4800, 71.5, M
RUTH CALIFORNIA, Trinity, CA01, -123.316, 40.251, 2732, 69.3, M
SACRAMENTO NWR CALIFORNIA, Glenn, CA02, -122.182, 39.417, 120, 77.3, M
SADDLEBACK BUTTE CALIFORNIA, Los Angeles, CA07, -117.821, 34.685, 2590, 83.8, M
SAUGUS CALIFORNIA, Los Angeles, CA06, -118.525, 34.425, 1450, 78.7, M
SAWYERS BAR CALIFORNIA, Siskiyou, CA01, -123.132, 41.300, 2192, 73.8, M
SANTA BARBARA ISLAND CALIFORNI, Santa Barbara, CA06, -119.033, 33.483, 176, 64.5, M
SANTA CRUZ ISLAND CALIFORNIA, Santa Barbara, CA06, -119.722, 33.996, 250, 68.5, M
SCORPION CALIFORNIA, Trinity, CA01, -122.697, 41.112, 4400, 75.9, M
SODA CREEK CALIFORNIA, Lake, CA01, -122.977, 39.425, 1773, 73.4, M
SADDLEBACK CALIFORNIA, Sierra, CA02, -120.865, 39.638, 6670, 68.7, M
SECRET TOWN CALIFORNIA, Nevada, CA02, -120.885, 39.184, 2826, 77.5, M
SANTA FE DAM CALIFORNIA, Los Angeles, CA06, -117.946, 34.121, 500, 77.2, M
SHAVER CALIFORNIA, Fresno, CA05, -119.256, 37.135, 5746, 65.0, M
SCHOOL HOUSE CALIFORNIA, Humboldt, CA01, -123.906, 41.138, 2640, 64.6, M
SHIP MTN. CALIFORNIA, Del Norte, CA01, -123.792, 41.736, 5300, 59.3, M
SHADEQUARTER CALIFORNIA, Tulare, CA05, -118.956, 36.567, 4069, 78.4, M
SIMS CALIFORNIA, Shasta, CA02, -122.373, 41.075, 2400, 79.7, M
SIMI VALLEY CALIFORNIA, Ventura, CA06, -118.814, 34.291, 914, 70.2, M
SLATER BUTTE CALIFORNIA, Siskiyou, CA01, -123.352, 41.859, 4670, 71.5, M
SAN MIGUEL CALIFORNIA, San Diego, CA06, -116.974, 32.685, 425, 70.6, M
SAN LUIS NWR CALIFORNIA, Merced, CA05, -120.794, 37.182, 65, 76.3, M
SANTA RITA CALIFORNIA, San Benito, CA05, -120.598, 36.348, 5000, 74.9, M
SOLDIER MOUNTAIN CALIFORNIA, Shasta, CA02, -121.586, 40.926, 3710, 75.4, M
SOMES BAR CALIFORNIA, Siskiyou, CA01, -123.496, 41.390, 920, 74.9, M
SQUAW SPRINGS CALIFORNIA, San Bernardino, CA07, -117.568, 35.370, 3620, 83.7, M
SQUAW LAKE CALIFORNIA, Imperial, CA07, -114.494, 32.908, 300, 95.4, M
Alturas Area, -, -, -, -, -, 67.8, 0.02
Mount Shasta Area, -, -, -, -, -, 68.4, 0.00
Palmdale Area, -, -, -, -, -, 84.0, 0.01
Lancaster Area, -, -, -, -, -, 84.6, T
DISMAL SWAMP, Modoc, CA03, -120.180, 41.990, 7360, 58.0, 0.10
ADIN MTN, Modoc, CA02, -120.790, 41.240, 6190, 60.3, 0.00
INDEPENDENCE CREEK, Sierra, CA03, -120.280, 39.490, 6456, 60.2, 0.00
INDEPENDENCE CAMP, Sierra, CA03, -120.290, 39.450, 7003, 60.1, 0.00
INDEPENDENCE LAKE, Nevada, CA03, -120.310, 39.430, 8352, 63.3, 0.00
TRUCKEE #2, Placer, CA03, -120.180, 39.300, 6509, 65.8, 0.10
WARD CREEK #3, Placer, CA03, -120.220, 39.140, 6655, 59.7, 0.00
TAHOE CITY CROSS, Placer, CA03, -120.150, 39.170, 6797, 63.3, 0.10
SQUAW VALLEY G.C., Placer, CA03, -120.260, 39.190, 8029, 61.7, 0.70
CSS LAB, Nevada, CA02, -120.370, 39.330, 6855, 61.2, 0.10
RUBICON #2, El Dorado, CA03, -120.130, 39.000, 7689, 64.3, 0.00
ECHO PEAK, El Dorado, CA03, -120.080, 38.850, 7670, 63.5, 0.00
FALLEN LEAF, El Dorado, CA03, -120.050, 38.930, 6236, 60.6, 0.00
El Cajon Area, -, -, -, -, -, 73.3, 0.00
Hanford Area, -, -, -, -, -, 81.5, 0.00
El Centro Area, -, -, -, -, -, 93.5, 0.01
Madera Area, -, -, -, -, -, 79.3, 0.00
Merced Area, -, -, -, -, -, 79.5, 0.00
San Jose Area, -, -, -, -, -, 69.3, 0.00
Crescent City Area, -, -, -, -, -, 54.8, 0.06
Escondido Area, -, -, -, -, -, 72.6, 0.00
Sacramento Downtown Area, -, -, -, -, -, 77.3, 0.00
Tahoe City Area, -, -, -, -, -, 63.2, T
Ukiah Area, -, -, -, -, -, 74.2, 0.00
CONVERSE CALIFORNIA, San Bernardino, CA06, -116.913, 34.194, 5618, 70.1, M
COOSKIE MOUNTAIN CALIFORNIA, Humboldt, CA01, -124.266, 40.257, 2950, 66.1, M
CORRALITOS CALIFORNIA, Santa Cruz, CA04, -121.798, 36.991, 450, 67.2, M
COUNTY LINE CALIFORNIA, Lake, CA02, -122.412, 39.019, 2085, 81.6, M
CAMP 9 CALIFORNIA, Los Angeles, CA06, -118.422, 34.362, 4000, 76.6, M
CRANE FLAT LOOKOUT CALIFORNIA, Mariposa, CA05, -119.825, 37.762, 6644, 69.6, M
CRESTVIEW CALIFORNIA, Mono, CA07, -118.983, 37.745, 7600, 62.1, M
CORNING CALIFORNIA, Tehama, CA02, -122.170, 39.939, 294, 81.2, M
CARPENTER RIDGE CALIFORNIA, Butte, CA02, -121.582, 40.069, 4812, 73.9, M
CRANSTON CALIFORNIA, Riverside, CA06, -116.841, 33.740, 1950, 82.9, M
CASHMAN CALIFORNIA, Plumas, CA02, -120.915, 40.002, 4520, 74.9, M
DESCANSO CALIFORNIA, San Diego, CA06, -116.622, 32.857, 3480, 75.8, M
DEVILS GARDEN CALIFORNIA, Modoc, CA02, -120.671, 41.530, 5022, 70.6, M
DIABLO GRANDE CALIFORNIA, Stanislaus, CA05, -121.294, 37.329, 1850, 79.1, M
DEMOCRAT CALIFORNIA, Kern, CA05, -118.630, 35.532, 2356, 83.9, M
DINKEY CALIFORNIA, Fresno, CA05, -119.039, 37.066, 5668, 63.6, M
DOG VALLEY CALIFORNIA, Sierra, CA03, -120.048, 39.562, 5976, 67.3, M
DOYLE CALIFORNIA, Lassen, CA03, -120.106, 40.022, 4240, 74.5, M
DUNCAN CALIFORNIA, Placer, CA02, -120.509, 39.144, 7100, 68.5, M
DEL VALLE CALIFORNIA, Los Angeles, CA06, -118.683, 34.431, 1278, 77.9, M
DEVORE CALIFORNIA, San Bernardino, CA06, -117.404, 34.221, 2057, 78.4, M
EAGLE PEAK CALIFORNIA, Tehama, CA02, -122.657, 39.928, 3713, 77.6, M
EEL RIVER CAMP CALIFORNIA, Humboldt, CA01, -123.824, 40.138, 446, 69.2, M
EEL RIVER CALIFORNIA, Mendocino, CA01, -123.083, 39.833, 1500, 76.6, M
EL CARISO CALIFORNIA, Riverside, CA06, -117.411, 33.647, 3038, 79.7, M
MOUNT ELIZABETH CALIFORNIA, Tuolumne, CA05, -120.247, 38.063, 4933, 76.1, M
EL MIRAGE CALIFORNIA, San Bernardino, CA07, -117.550, 34.634, 2880, 83.4, M
ESPERANZA CALIFORNIA, Calaveras, CA05, -120.515, 38.243, 2559, 77.6, M
FANCHER CREEK CALIFORNIA, Fresno, CA05, -119.466, 36.884, 920, 85.6, M
FAWNSKIN CALIFORNIA, San Bernardino, CA06, -116.899, 34.266, 6900, 64.1, M
FENCE MEADOW CALIFORNIA, Fresno, CA05, -119.175, 36.961, 5048, 75.3, M
FORT HUNTER LIGGET CALIFORNIA, Monterey, CA04, -121.242, 36.012, 1100, 76.4, M
FIGUEROA CALIFORNIA, Santa Barbara, CA06, -120.007, 34.733, 3200, 77.2, M
FISH CREEK MTN CALIFORNIA, Imperial, CA07, -116.067, 32.990, 760, 95.5, M
FIVE MILE CALIFORNIA, Inyo, CA07, -117.918, 35.872, 4150, 86.2, M
FORT ORD #2 CALIFORNIA, Monterey, CA04, -121.786, 36.627, 490, 58.4, M
FORESTHILL CALIFORNIA, Placer, CA02, -120.732, 39.091, 4355, 75.4, M
FOUNTAIN SPRINGS CALIFORNIA, Tulare, CA05, -118.915, 35.892, 210, 82.0, M
FREMONT CANYON CALIFORNIA, Orange, CA06, -117.711, 33.808, 1781, 73.9, M
FRIEND MOUNTAIN CALIFORNIA, Trinity, CA01, -123.342, 40.505, 4000, 70.2, M
GASQUET CALIFORNIA, Del Norte, CA01, -123.979, 41.846, 500, 66.3, M
GRASSHOPPER CALIFORNIA, Lassen, CA03, -120.784, 40.782, 6158, 65.6, M
GOOSE VALLEY CALIFORNIA, San Diego, CA06, -116.846, 33.074, 1530, 74.9, M
GORDON CALIFORNIA, Lassen, CA03, -120.896, 40.759, 6200, 66.1, M
GREEN SPRING CALIFORNIA, Tuolumne, CA05, -120.500, 37.833, 1020, 79.7, M
HASTINGS CALIFORNIA, Monterey, CA04, -121.552, 36.389, 1885, 71.0, M
HAWKEYE CALIFORNIA, Sonoma, CA01, -122.917, 38.782, 2000, 71.9, M
HAYFORK CALIFORNIA, Trinity, CA01, -123.165, 40.550, 2323, 70.9, M
HELL HOLE CALIFORNIA, Placer, CA02, -120.422, 39.072, 5240, 72.3, M
HERNANDEZ CALIFORNIA, San Benito, CA04, -120.856, 36.383, 3733, 77.4, M
HIGH GLADE LOOKOUT CALIFORNIA, Lake, CA02, -122.808, 39.208, 4840, 72.1, M
HIGH SIERRA CALIFORNIA, Fresno, CA05, -119.038, 37.315, 7403, 66.5, M
HOPLAND CALIFORNIA, Mendocino, CA01, -123.081, 39.031, 2682, 75.7, M
HOLLISTER CALIFORNIA, San Benito, CA04, -121.362, 36.842, 404, 68.3, M
HUNTER MOUNTAIN CALIFORNIA, Inyo, CA07, -117.474, 36.563, 6880, 72.1, M
HORSE LAKE CALIFORNIA, Lassen, CA03, -120.503, 40.631, 5100, 68.6, M
HOOPA CALIFORNIA, Humboldt, CA01, -123.671, 41.048, 375, 71.5, M
HORSE THIEF SPRINGS CALIFORNIA, San Bernardino, CA07, -115.909, 35.771, 5000, 82.4, M
HURLEY CALIFORNIA, Fresno, CA05, -119.568, 37.015, 1201, 79.5, M
INDIAN WELL CALIFORNIA, Siskiyou, CA01, -121.538, 41.742, 4770, 70.8, M
JARBO GAP CALIFORNIA, Butte, CA02, -121.489, 39.736, 2490, 80.8, M
JERSEYDALE CALIFORNIA, Mariposa, CA05, -119.839, 37.544, 3900, 79.6, M
JOHNSONDALE CALIFORNIA, Tulare, CA05, -118.545, 35.972, 4700, 69.4, M
JUANITA LAKE CALIFORNIA, Siskiyou, CA01, -122.006, 41.786, 5400, 69.3, M
JULIAN CALIFORNIA, San Diego, CA07, -116.591, 33.076, 4240, 75.1, M
JUNIPER CREEK CALIFORNIA, Modoc, CA02, -120.472, 41.332, 4372, 69.7, M
KEENWILD CALIFORNIA, Riverside, CA06, -116.767, 33.667, 4920, 75.4, M
KETTLEMAN HILLS CALIFORNIA, Kings, CA05, -120.057, 36.033, 810, 84.2, M
KNOXVILLE CREEK CALIFORNIA, Lake, CA02, -122.417, 38.862, 2200, 76.8, M
KONOCTI CALIFORNIA, Lake, CA02, -122.706, 38.912, 2163, 78.0, M
LOS BANOS CALIFORNIA, Merced, CA05, -121.053, 37.055, 350, 79.7, M
MT. LAGUNA CALIFORNIA, San Diego, CA07, -116.420, 32.880, 5760, 69.3, M
LA HONDA CALIFORNIA, San Mateo, CA04, -122.255, 37.305, 872, 63.1, M
LA PANZA CALIFORNIA, San Luis Obispo, CA04, -120.187, 35.381, 1630, 75.6, M
LAURAL MOUNTAIN CALIFORNIA, Kern, CA07, -117.699, 35.478, 4390, 82.7, M
LASSEN LODGE CALIFORNIA, Tehama, CA02, -121.714, 40.344, 4159, 77.7, M
LAUFMAN CALIFORNIA, Lassen, CA03, -120.353, 40.142, 5800, 73.5, M
LAYTONVILLE CALIFORNIA, Mendocino, CA01, -123.485, 39.702, 1820, 72.3, M
LADDER BUTTE CALIFORNIA, Lassen, CA02, -121.297, 40.807, 5750, 69.9, M
LEO CARRILLO CALIFORNIA, Los Angeles, CA06, -118.936, 34.046, 50, 67.4, M
LOS GATOS CALIFORNIA, Santa Clara, CA04, -121.943, 37.203, 2000, 72.7, M
LOST HORSE CALIFORNIA, Riverside, CA07, -116.188, 34.018, 4200, 80.4, M
LINCOLN CALIFORNIA, Placer, CA02, -121.268, 38.883, 200, 79.6, M
LOWER KLAMATH CALIFORNIA, Siskiyou, CA01, -121.700, 41.999, 4098, 65.6, M
LOS PRIETOS CALIFORNIA, Santa Barbara, CA06, -119.783, 34.536, 1020, 74.4, M
LAS FLORES CALIFORNIA, San Diego, CA06, -117.439, 33.289, 100, 69.5, M
LAS TABLAS CALIFORNIA, San Luis Obispo, CA04, -120.924, 35.656, 994, 73.7, M
LITTLE TUJUNGA CALIFORNIA, Los Angeles, CA06, -118.361, 34.294, 1390, 74.3, M