Name, County, ClimateDivision, Longitude, Latitude, Elevation, MeanAvgTemperature, TotalPrecipitation
BARSTOW-DAGGETT AIRPORT, San Bernardino, CA07, -116.787, 34.854, 1919, 46.1, 1.79
MERCED, Merced, CA05, -120.516, 37.289, 154, 44.5, 2.29
SAN DIEGO MONTGOMERY FIELD, San Diego, CA06, -117.137, 32.815, 418, 55.0, 3.85
SAN DIEGO INTERNATIONAL AP, San Diego, CA06, -117.183, 32.734, 15, 56.6, 3.38
SAN DIEGO MIRAMAR NAS, San Diego, CA06, -117.133, 32.867, 477, 54.7, 4.92
NORTH ISLAND NAS, San Diego, CA06, -117.210, 32.692, 14, 60.2, 2.88
SAN FRANCISCO INTERNATIONAL AP, San Mateo, CA04, -122.366, 37.620, 10, 48.9, 2.36
SAN LUIS OBISPO MCCHESNEY FIELD, San Luis Obispo, CA04, -120.644, 35.238, 183, 52.2, 1.83
CEDARVILLE, Modoc, CA03, -120.179, 41.530, 4688, 28.7, 1.68
CHICO UNIVERSITY FARM, Butte, CA02, -121.821, 39.691, 185, 45.0, 0.46
CHULA VISTA, San Diego, CA06, -117.086, 32.640, 56, 56.9, 2.07
COLFAX, Placer, CA02, -120.947, 39.090, 2373, 41.3, 5.02
CUYAMACA, San Diego, CA06, -116.587, 32.990, 4640, 39.9, 9.23
DAVIS 2 WSW EXP FARM, Yolo, CA02, -121.776, 38.535, 60, 44.2, 1.86
DEATH VALLEY NATIONAL PARK, Inyo, CA07, -116.867, 36.463, -194, 52.7, 0.04
FORT BRAGG 5 N, Mendocino, CA01, -123.756, 39.510, 123, 43.1, 4.65
HANFORD 1 S, Kings, CA05, -119.637, 36.316, 237, 43.6, 1.49
HAPPY CAMP RANGER STATION, Siskiyou, CA01, -123.375, 41.796, 1142, 39.9, 1.05
HEALDSBURG, Sonoma, CA01, -122.866, 38.629, 177, 45.1, 3.26
INDIO FIRE STATION, Riverside, CA07, -116.215, 33.709, -21, 55.7, 0.00
LEMON COVE, Tulare, CA05, -119.026, 36.382, 513, 45.6, 1.88
LIVERMORE, Alameda, CA04, -121.751, 37.682, 529, 46.1, 1.56
LODI, San Joaquin, CA05, -121.288, 38.106, 40, 44.6, 1.67
MERCED MUNICIPAL AP, Merced, CA05, -120.518, 37.286, 152, 44.2, 1.31
NAPA STATE HOSPITAL, Napa, CA01, -122.265, 38.278, 35, 45.8, 2.57
OJAI, Ventura, CA06, -119.227, 34.448, 745, 48.0, 2.21
ORLAND, Glenn, CA02, -122.200, 39.746, 254, 44.4, 1.38
ORLEANS, Humboldt, CA01, -123.532, 41.309, 403, 40.0, 11.92
PASADENA, Los Angeles, CA06, -118.145, 34.148, 864, 55.7, 3.77
PASO ROBLES, San Luis Obispo, CA04, -120.685, 35.628, 730, 45.7, 1.13
PETALUMA AIRPORT, Sonoma, CA01, -122.608, 38.258, 20, 44.6, 2.15
QUINCY, Plumas, CA02, -120.947, 39.937, 3420, 32.9, 4.20
REDLANDS, San Bernardino, CA06, -117.195, 34.037, 1410, 51.7, 3.40
SANTA CRUZ, Santa Cruz, CA04, -122.000, 36.988, 70, 48.5, 3.00
SANTA ROSA, Sonoma, CA01, -122.713, 38.456, 166, 46.7, 3.26
TAHOE CITY, Placer, CA03, -120.143, 39.168, 6230, 28.5, 4.58
UKIAH, Mendocino, CA01, -123.210, 39.147, 636, 44.0, 3.48
VACAVILLE, Solano, CA02, -121.961, 38.396, 110, 45.7, 1.87
WASCO, Kern, CA05, -119.352, 35.589, 291, 45.4, 0.45
WEAVERVILLE, Trinity, CA01, -122.940, 40.737, 2058, 36.7, 4.04
WILLOWS 6 W, Glenn, CA02, -122.305, 39.523, 234, 45.3, 0.89
YOSEMITE PARK HEADQUARTERS, Mariposa, CA05, -119.590, 37.750, 4018, 33.4, 0.72
YREKA, Siskiyou, CA01, -122.641, 41.703, 2709, 32.2, 1.63
BERKELEY, Alameda, CA04, -122.260, 37.874, 310, 49.3, 2.59
BLYTHE, Riverside, CA07, -114.597, 33.613, 268, 50.5, 0.08
EUREKA WFO WOODLEY ISLAND, Humboldt, CA01, -124.160, 40.810, 20, 45.2, 6.66
INDEPENDENCE, Inyo, CA07, -118.204, 36.798, 3950, 38.7, 0.69
SAN LUIS OBISPO POLY, San Luis Obispo, CA04, -120.662, 35.306, 308, 51.6, 1.90
BURNEY, Shasta, CA02, -121.655, 40.880, 3198, 30.0, 3.14
IMPERIAL BEACH REAM FIELD NAS, San Diego, CA06, -117.117, 32.568, 24, 54.3, 0.95
CAMPO, San Diego, CA06, -116.470, 32.626, 2630, 47.8, 6.20
CALEXICO 2 NE, Imperial, CA07, -115.464, 32.688, 12, M, 0.96
EL CENTRO 2 SSW, Imperial, CA07, -115.562, 32.767, -30, 56.2, 1.05
IMPERIAL COUNTY AP, Imperial, CA07, -115.577, 32.835, -55, 55.2, 0.98
EL CENTRO NAF, Imperial, CA07, -115.664, 32.832, -46, 55.0, 0.67
ALPINE, San Diego, CA06, -116.777, 32.836, 1695, 49.7, 3.00
DEEP CANYON LAB, Riverside, CA07, -116.376, 33.651, 1200, M, 2.54
ELSINORE, Riverside, CA06, -117.346, 33.686, 1268, 51.2, 4.05
SANTA ANA JOHN WAYNE AP, Orange, CA06, -117.867, 33.680, 43, 55.1, 2.76
HAYFIELD PUMPING PLANT, Riverside, CA07, -115.629, 33.704, 1370, 51.4, 1.66
IDYLLWILD FIRE DEPT, Riverside, CA06, -116.707, 33.757, 5380, 41.0, 6.09
SAN JACINTO, Riverside, CA06, -116.975, 33.797, 1525, 55.1, 1.36
HEMET, Riverside, CA06, -116.894, 33.738, 1811, 48.4, 1.67
SANTA ANA FIRE STATION, Orange, CA06, -117.867, 33.744, 135, 56.4, 3.50
EAGLE MOUNTAIN, Riverside, CA07, -115.451, 33.809, 973, 53.5, 2.36
PALM SPRINGS, Riverside, CA07, -116.510, 33.828, 425, 55.4, 2.57
LONG BEACH DAUGHERTY AP, Los Angeles, CA06, -118.147, 33.812, 34, 54.6, 2.61
PALOS VERDES ES FC43D, Los Angeles, CA06, -118.391, 33.800, 220, M, 2.69
FULLERTON MUNICIPAL AP, Orange, CA06, -117.986, 33.872, 86, 54.9, 2.94
BEAUMONT #2, Riverside, CA07, -116.990, 33.926, 2591, 49.8, 1.38
YORBA LINDA, Orange, CA06, -117.819, 33.890, 350, 54.9, 3.20
DOWNEY FIRE DEPT. FC107C, Los Angeles, CA06, -118.145, 33.930, 110, M, 2.55
HAWTHORNE MUNICIPAL AP, Los Angeles, CA06, -118.333, 33.924, 55, 55.9, 2.25
LOS ANGELES INTL AP, Los Angeles, CA06, -118.387, 33.938, 97, 54.9, 2.51
RIVERSIDE FIRE STATION 3, Riverside, CA06, -117.388, 33.951, 840, 54.0, 0.00
RIVERSIDE MUNICIPAL AP, Riverside, CA06, -117.435, 33.953, 845, 53.5, 2.56
CHINO AP, San Bernardino, CA06, -117.625, 33.976, 636, 52.2, 2.10
WHITTIER CITY YARD FC106C, Los Angeles, CA06, -118.022, 33.976, 446, M, 2.71
RIVERSIDE CITRUS EXP, Riverside, CA06, -117.361, 33.967, 986, 54.5, 2.60
SAN GABRIEL DAM FC425B-E, Los Angeles, CA06, -117.861, 34.205, 1481, M, 4.58
MT WILSON CBS, Los Angeles, CA06, -118.071, 34.231, 5710, 45.1, 3.27
LA CRESCENTA FC251 C, Los Angeles, CA06, -118.238, 34.222, 1545, M, 3.34
VAN NUYS AP, Los Angeles, CA06, -118.491, 34.212, 785, 53.1, 2.03
CAMARILLO AP, Ventura, CA06, -119.088, 34.211, 71, 51.8, 1.45
OXNARD VENTURA COUNTY AP, Ventura, CA06, -119.204, 34.200, 39, 52.5, 0.64
PARKER RESRVOIR, San Bernardino, CA07, -114.171, 34.290, 738, 51.3, 1.41
TWENTYNINE PALMS MC, San Bernardino, CA07, -116.147, 34.294, 2003, 48.7, 0.26
BIG BEAR LAKE, San Bernardino, CA06, -116.917, 34.243, 6753, 30.9, 4.61
LAKE ARROWHEAD, San Bernardino, CA07, -117.188, 34.247, 5205, 34.1, 0.00
CHATSWORTH FC 24 F, Los Angeles, CA06, -118.600, 34.250, 950, M, 2.62
VENTURA, Ventura, CA06, -119.292, 34.283, 105, M, 2.36
CRYSTAL LAKE FC238C, Los Angeles, CA06, -117.842, 34.318, 5345, M, 2.82
BIG TUJUNGA DAM FC46, Los Angeles, CA06, -118.188, 34.295, 2326, M, 0.12
PACOIMA DAM FC33A-E, Los Angeles, CA06, -118.400, 34.329, 1550, M, 2.31
PIRU 2 ESE, Ventura, CA06, -118.757, 34.406, 712, M, 2.31
SANTA BARBARA MUNI AP, Santa Barbara, CA06, -119.842, 34.424, 8, 51.2, 2.11
JUNCAL DAM, Santa Barbara, CA06, -119.507, 34.491, 2260, M, 3.02
ACTON ESCONDIDO FC261, Los Angeles, CA06, -118.271, 34.494, 2833, M, 1.64
GIBRALTAR DAM NO. 2, Santa Barbara, CA06, -119.682, 34.523, 1558, M, 3.66
PALMDALE, Los Angeles, CA07, -118.094, 34.588, 2612, 44.9, 0.46
SAUGUS POWER PLANT 1, Los Angeles, CA06, -118.454, 34.590, 2161, M, 3.57
CACHUMA LAKE, Santa Barbara, CA06, -119.982, 34.582, 789, 51.1, 2.46
SALSIPUEDES GAGING STATION, Santa Barbara, CA06, -120.408, 34.585, 254, M, 2.21
EL MIRAGE, San Bernardino, CA07, -117.630, 34.589, 2950, 52.5, 0.24
PALMDALE AP, Los Angeles, CA07, -118.083, 34.629, 2509, 43.2, 1.43
LOMPOC, Santa Barbara, CA06, -120.451, 34.654, 75, 51.6, 1.63
LANCASTER, Los Angeles, CA06, -118.213, 34.741, 2338, 43.2, 0.92
SANDBERG, Los Angeles, CA06, -118.724, 34.744, 4510, 39.6, 3.68
LEBEC, Kern, CA05, -118.865, 34.833, 3575, 43.8, 1.41
CHUCHUPATE RANGER STN, Ventura, CA05, -119.011, 34.808, 5260, 38.6, 0.15
GAREY SISQUOC RIVER, Santa Barbara, CA06, -120.305, 34.894, 355, M, 1.43
MITCHELL CAVERNS, San Bernardino, CA07, -115.547, 34.944, 4350, 44.0, 2.70
NEW CUYAMA FIRE STATION, Santa Barbara, CA06, -119.683, 34.946, 2160, 45.3, 0.84
TWITCHELL DAM, Santa Barbara, CA06, -120.321, 34.988, 582, 49.5, 2.56
MOJAVE, Kern, CA07, -118.162, 35.049, 2735, 43.2, 0.00
PISMO BEACH, San Luis Obispo, CA04, -120.683, 35.160, 39, 52.3, 1.37
TAFT, Kern, CA05, -119.430, 35.150, 773, 44.5, 0.68
BAKER, San Bernardino, CA07, -116.063, 35.276, 962, 47.7, 1.04
SALINAS DAM, San Luis Obispo, CA04, -120.504, 35.337, 1392, M, 2.43
RANDSBURG, Kern, CA07, -117.652, 35.369, 3570, 43.0, 1.11
SANTA MARGARITA BOOST, San Luis Obispo, CA04, -120.637, 35.374, 1148, M, 3.83
MORRO BAY FIRE DEPT, San Luis Obispo, CA04, -120.845, 35.367, 118, 53.0, 1.58
BAKERSFIELD AP, Kern, CA05, -119.055, 35.434, 490, 45.7, 0.63
BUTTONWILLOW, Kern, CA05, -119.470, 35.403, 225, 44.4, 0.71
GLENNVILLE, Kern, CA05, -118.701, 35.727, 3140, 40.4, 4.09
TRONA, San Bernardino, CA07, -117.391, 35.764, 1695, 46.1, 0.63
DELANO, Kern, CA05, -119.260, 35.768, 302, 43.4, 0.49
BRADLEY TELEMETERING, Monterey, CA04, -120.868, 35.930, 443, M, 1.16
SHOSHONE, Inyo, CA07, -116.271, 35.972, 1546, 48.3, 1.03
PORTERVILLE MUNICIPAL AIRPORT, Tulare, CA05, -119.062, 36.029, 442, 45.0, 0.65
KETTLEMAN CITY, Kings, CA05, -119.960, 36.007, 240, 44.4, 0.70
HAIWEE, Inyo, CA07, -117.953, 36.139, 3825, 44.6, 0.91
CORCORAN IRRIGATION DIST., Kings, CA05, -119.582, 36.098, 200, 44.6, 0.73
COALINGA, Fresno, CA05, -120.361, 36.136, 670, 46.2, 0.96
PRIEST VALLEY, Monterey, CA04, -120.695, 36.188, 2300, 42.1, 2.56
KING CITY, Monterey, CA04, -121.138, 36.207, 320, 47.9, 0.59
LINDSAY, Tulare, CA05, -119.054, 36.203, 435, 43.5, 1.61
BIG SUR STATION, Monterey, CA04, -121.780, 36.247, 200, 48.3, 3.37
VISALIA, Tulare, CA05, -119.300, 36.328, 303, 44.6, 1.28
FIVE POINTS 5 SSW, Fresno, CA05, -120.156, 36.364, 285, 43.5, 0.80
SAN CLEMENTE DAM, Monterey, CA04, -121.709, 36.438, 600, M, 2.28
ASH MOUNTAIN, Tulare, CA05, -118.825, 36.491, 1708, 45.6, 2.34
THREE RIVERS EDISON PH 1, Tulare, CA05, -118.862, 36.465, 1140, 42.4, 1.55
PINNACLES NATIONAL PARK, San Benito, CA04, -121.182, 36.482, 1307, 42.2, 1.33
CARMEL VALLEY, Monterey, CA04, -121.724, 36.481, 480, 48.8, 2.33
LODGEPOLE, Tulare, CA05, -118.732, 36.604, 6735, 26.6, 6.04
PANOCHE 2 W, San Benito, CA05, -120.884, 36.607, 1400, M, 0.92
MONTEREY, Monterey, CA04, -121.855, 36.593, 122, 49.7, 3.48
SALINAS NO. 2, Monterey, CA04, -121.666, 36.659, 45, 49.6, 2.67
SALINAS AP, Monterey, CA04, -121.609, 36.664, 73, 49.0, 2.29
GRANT GROVE, Tulare, CA05, -118.962, 36.738, 6580, 34.3, 7.12
PAICINES 4 W, San Benito, CA04, -121.349, 36.715, 905, 42.8, 2.26
PINE FLAT DAM, Fresno, CA05, -119.337, 36.821, 615, 43.7, 2.59
LOS BANOS ARBURUA RANCH, Merced, CA05, -120.939, 36.875, 843, M, 1.41
HOLLISTER 2, San Benito, CA04, -121.421, 36.848, 275, 46.9, 2.06
BALCH POWER HOUSE, Fresno, CA05, -119.088, 36.909, 1735, 42.4, 4.31
WATSONVILLE WATERWORKS, Santa Cruz, CA04, -121.769, 36.931, 95, 48.8, 3.29
FRIANT GOVERNMENT CAMP, Fresno, CA05, -119.707, 36.997, 410, 44.6, 0.81
MADERA, Madera, CA05, -120.038, 36.954, 270, 43.7, 1.27
WISHON DAM, Fresno, CA05, -118.984, 37.007, 6550, 36.8, 6.02
GILROY, Santa Clara, CA04, -121.561, 37.003, 194, 48.0, 1.76
AUBERRY 2 NW, Fresno, CA05, -119.513, 37.092, 2090, 41.6, 3.45
LOS BANOS, Merced, CA05, -120.867, 37.056, 120, 45.1, 1.16
BEN LOMOND NO. 4, Santa Cruz, CA04, -122.080, 37.086, 420, 47.0, 5.34
MORGAN HILL, Santa Clara, CA04, -121.602, 37.136, 375, 48.1, 0.94
ASPENDELL, Inyo, CA01, -118.599, 37.232, 8470, 30.4, 2.30
HUNTINGTON LAKE, Fresno, CA05, -119.221, 37.228, 7020, 32.1, 6.45
BIG CREEK PH 1, Fresno, CA05, -119.242, 37.206, 4878, 39.9, 3.52
NORTH FORK RS, Madera, CA05, -119.510, 37.233, 2645, 43.3, 1.07
LOS GATOS, Santa Clara, CA04, -121.959, 37.232, 365, 46.4, 2.74
NEWMAN, Stanislaus, CA05, -121.018, 37.281, 90, 46.3, 1.01
MOUNT HAMILTON, Santa Clara, CA04, -121.635, 37.343, 4220, 41.8, 4.76
BISHOP AIRPORT, Inyo, CA07, -118.359, 37.371, 4110, 34.0, 0.61
MOFFETT FEDERAL AIRFIELD, Santa Clara, CA04, -122.048, 37.406, 39, 48.4, 1.69
WOODSIDE FIRE STATION 1, San Mateo, CA04, -122.256, 37.429, 380, 47.8, 3.22
TURLOCK #2, Stanislaus, CA05, -120.846, 37.502, 103, 44.6, 1.44
PALO ALTO, Santa Clara, CA04, -122.140, 37.444, 25, 45.4, 1.61
REDWOOD CITY, San Mateo, CA04, -122.239, 37.477, 31, 47.2, 3.86
HALF MOON BAY, San Mateo, CA04, -122.443, 37.473, 27, 48.7, 2.65
SO ENTRANCE YOSEMITE N.P., Mariposa, CA05, -119.633, 37.512, 5047, 33.0, 5.58
MARIPOSA R S, Mariposa, CA05, -119.986, 37.495, 2100, M, 4.54
NEWARK, Alameda, CA04, -122.032, 37.515, 10, 48.2, 1.71
EXCHEQUER DAM, Mariposa, CA05, -120.267, 37.585, 442, M, 2.50
MODESTO AP, Stanislaus, CA05, -120.955, 37.625, 87, 45.6, 1.37
HAYWARD AIR TERMINAL, Alameda, CA04, -122.121, 37.659, 31, 48.2, 2.37
TRACY CARBONA, San Joaquin, CA05, -121.347, 37.682, 135, 45.1, 0.26
LIVERMORE MUNICIPAL AP, Alameda, CA04, -121.815, 37.693, 393, 45.4, 1.54
OAKLAND INTERNATIONAL AIRPORT, Alameda, CA04, -122.233, 37.718, 5, 47.5, 2.46
UPPER SAN LEANDRO FILTERS, Alameda, CA04, -122.167, 37.772, 394, M, 3.01
SAN FRANCISCO DOWNTOWN, San Francisco, CA04, -122.427, 37.771, 150, 50.4, 2.82
SAN FRANCISCO OCEANSIDE, San Francisco, CA04, -122.505, 37.728, 8, 50.8, 2.93
GROVELAND 2, Tuolumne, CA05, -120.226, 37.844, 2800, 39.0, 3.74
TRACY PUMPING PLANT, Alameda, CA05, -121.583, 37.796, 61, 45.8, 1.46
OAKLAND MUSEUM, Alameda, CA04, -122.264, 37.798, 30, 50.0, 2.54
TUOLUMNE MEADOWS R.S., Tuolumne, CA05, -119.344, 37.877, 8694, 25.0, 4.08
MATHER, Tuolumne, CA05, -119.856, 37.885, 4510, M, 4.97
MOUNT DIABLO JUNCTION, Contra Costa, CA04, -121.930, 37.879, 2170, 44.8, 2.14
STOCKTON AP, San Joaquin, CA05, -121.226, 37.890, 27, 43.9, 1.19
RICHMOND, Contra Costa, CA04, -122.377, 37.919, 20, 48.4, 0.81
MUIR WOODS, Marin, CA01, -122.569, 37.898, 220, M, 2.58
HETCH HETCHY, Tuolumne, CA05, -119.783, 37.961, 3870, 35.9, 4.76
CHERRY VALLEY DAM, Tuolumne, CA05, -119.916, 37.975, 4765, 38.0, 7.94
SONORA, Tuolumne, CA05, -120.387, 37.967, 1675, 41.6, 4.43
STOCKTON FIRE STA 4, San Joaquin, CA05, -121.318, 37.999, 12, 40.2, 2.26
ANTIOCH PUMPING PLANT #3, Contra Costa, CA05, -121.752, 37.983, 60, 44.4, M
CONCORD BUCHANAN FIELD, Contra Costa, CA04, -122.053, 37.992, 23, 45.6, 1.28
CONCORD WASTEWATER PLANT, Contra Costa, CA04, -122.069, 37.983, 40, 47.5, 2.73
SAN RAFAEL-CIVIC CENTER, Marin, CA01, -122.537, 37.998, 120, 46.0, 3.72
KENTFIELD, Marin, CA01, -122.545, 37.957, 145, 45.9, 4.33
MARTINEZ WATER PLANT, Contra Costa, CA04, -122.114, 38.013, 40, 42.1, 2.02
BODIE CALIFORNIA STATE HISTORIC PARK, Mono, CA03, -119.014, 38.212, 8370, 22.6, 1.41
ACAMPO 5NE, San Joaquin, CA05, -121.201, 38.218, 87, M, 1.91
NAPA COUNTY AIRPORT, Napa, CA04, -122.280, 38.208, 16, 42.6, 1.60
BRIDGEPORT, Mono, CA03, -119.229, 38.258, 6470, 26.8, 0.81
CALAVERAS BIG TREES, Calaveras, CA05, -120.311, 38.277, 4695, 35.1, 9.31
CAMP PARDEE, Calaveras, CA05, -120.843, 38.249, 658, 44.7, 2.37
TRAVIS FIELD AFB, Solano, CA02, -121.933, 38.267, 62, M, 1.57
FAIRFIELD, Solano, CA02, -122.068, 38.274, 40, 45.0, 2.87
IMPERIAL, Imperial, CA07, -115.567, 32.849, -64, 54.7, 1.10
EL CAPITAN DAM, San Diego, CA06, -116.815, 32.886, 600, 50.6, 0.13
LAKESIDE 2 E, San Diego, CA06, -116.895, 32.854, 690, M, 4.66
POWAY VALLEY, San Diego, CA06, -117.031, 33.020, 648, 54.4, 2.31
JULIAN CDF, San Diego, CA06, -116.592, 33.076, 4215, 43.3, 0.00
SAN PASQUAL ANIMAL PK, San Diego, CA06, -116.997, 33.096, 420, 54.9, 4.03
CARLSBAD MCCLELLAN PALOMAR AP, San Diego, CA06, -117.277, 33.130, 313, 54.6, 3.42
HENSHAW DAM, San Diego, CA06, -116.761, 33.237, 2700, 44.4, 7.97
VISTA, San Diego, CA06, -117.232, 33.235, 430, 54.8, 3.60
OCEANSIDE MARINA, San Diego, CA06, -117.395, 33.210, 10, 54.6, 2.90
BORREGO DESERT PARK, San Diego, CA07, -116.404, 33.256, 810, 55.5, 2.61
PALOMAR MTN OBSERVATORY, San Diego, CA06, -116.840, 33.378, 5550, 42.8, 13.71
TEMECULA, Riverside, CA06, -117.151, 33.497, 1020, 48.8, 2.63
MECCA FIRE STATION, Riverside, CA07, -116.073, 33.570, -183, 55.1, 1.00
LAGUNA BEACH, Orange, CA06, -117.781, 33.545, 44, 53.0, 0.31
BLYTHE ASOS, Riverside, CA07, -114.715, 33.619, 395, 53.4, 0.65
DESERT RESORTS REGIONAL AP, Riverside, CA07, -116.164, 33.632, -118, 53.2, 1.54
SONOMA, Sonoma, CA01, -122.462, 38.299, 97, 45.2, 1.57
SUTTER HILL CDF, Amador, CA05, -120.801, 38.377, 1586, 41.5, 3.77
WEST POINT, Calaveras, CA05, -120.545, 38.378, 2775, M, 5.56
ATLAS ROAD BROWN, Napa, CA01, -122.248, 38.427, 1680, M, 3.66
GRATON, Sonoma, CA01, -122.865, 38.431, 200, 44.0, 4.60
OCCIDENTAL, Sonoma, CA01, -122.966, 38.386, 865, 44.9, 5.49
FIDDLETOWN DEXTER RCH, Amador, CA05, -120.698, 38.525, 2170, M, 4.16
SACRAMENTO AP ASOS, Sacramento, CA02, -121.496, 38.507, 19, 44.0, 1.51
WINTERS, Yolo, CA02, -121.978, 38.525, 135, 45.6, 2.73
LAKE SOLANO, Solano, CA02, -122.004, 38.492, 187, 45.2, 2.76
SAINT HELENA, Napa, CA01, -122.471, 38.507, 225, 45.2, 3.63
SAINT HELENA 4 WSW, Napa, CA01, -122.538, 38.493, 1780, M, 4.50
FORT ROSS, Sonoma, CA01, -123.245, 38.515, 112, 48.1, 3.36
SACRAMENTO 5 ESE, Sacramento, CA02, -121.418, 38.555, 38, 45.3, 1.75
ANGWIN PACIFIC UNION COLLEGE, Napa, CA01, -122.440, 38.573, 1715, 44.4, 4.20
CALISTOGA, Napa, CA01, -122.578, 38.577, 350, 44.6, 5.16
VENADO, Sonoma, CA01, -123.018, 38.609, 1260, M, 5.44
WOODLAND 1 WNW, Yolo, CA02, -121.794, 38.683, 67, 45.6, 1.98
PLACERVILLE, El Dorado, CA02, -120.824, 38.696, 1850, 43.4, 4.36
REPRESA, Sacramento, CA02, -121.161, 38.694, 295, M, 2.35
SACRAMENTO METROPOLITAN AP, Sacramento, CA02, -121.595, 38.701, 24, 42.8, 1.54
PACIFIC HOUSE, El Dorado, CA02, -120.503, 38.758, 3450, M, 7.31
MIDDLETOWN, Lake, CA02, -122.626, 38.748, 1121, M, 4.50
CLOVERDALE, Sonoma, CA01, -123.026, 38.793, 400, 45.5, 3.75
KELSEY 1 N, El Dorado, CA02, -120.821, 38.809, 2000, M, 3.46
SOUTH LAKE TAHOE AP, El Dorado, CA03, -119.996, 38.898, 6257, 29.2, 2.29
GEORGETOWN RS, El Dorado, CA02, -120.801, 38.933, 3001, 44.1, 7.37
AUBURN, Placer, CA02, -121.084, 38.907, 1292, 43.5, 0.89
NICOLAUS #2, Sutter, CA02, -121.545, 38.926, 43, M, 1.95
YORKVILLE, Mendocino, CA01, -123.231, 38.905, 1100, M, 5.75
FORESTHILL RANGER STATION, Placer, CA02, -120.845, 39.010, 3015, M, 7.11
MARYSVILLE AIRPORT (ASOS), Yuba, CA02, -121.569, 39.102, 62, 43.1, 2.23
UKIAH MUNICIPAL AP, Mendocino, CA01, -123.200, 39.128, 603, 43.4, 3.37
UKIAH 4 WSW, Mendocino, CA01, -123.272, 39.127, 1328, M, 5.40
CULVER CITY, Los Angeles, CA06, -118.414, 34.005, 92, 55.0, 3.32
SANTA MONICA MUNICIPAL AP, Los Angeles, CA06, -118.447, 34.021, 175, 55.0, 3.33
SANTA MONICA PIER, Los Angeles, CA06, -118.500, 34.008, 14, 55.6, 1.56
ONTARIO INTL AP, San Bernardino, CA06, -117.577, 34.053, 924, 53.0, 3.17
POMONA/FAIRPLEX, Los Angeles, CA06, -117.766, 34.082, 999, 51.9, 3.59
COVINA CITY YARD FC387B, Los Angeles, CA06, -117.880, 34.092, 607, M, 3.43
U C L A, Los Angeles, CA06, -118.443, 34.070, 430, 57.2, 3.57
TOPANGA PATROL FC-6, Los Angeles, CA06, -118.599, 34.084, 745, M, 0.83
IRON MOUNTAIN, San Bernardino, CA07, -115.122, 34.147, 922, 53.7, 1.34
TWENTYNINE PALMS, San Bernardino, CA07, -116.037, 34.128, 1975, 49.1, 1.30
JOSHUA TREE, San Bernardino, CA07, -116.275, 34.147, 2563, 45.3, 0.59
SAN DIMAS FIRE FC 95, Los Angeles, CA06, -117.802, 34.105, 958, M, 3.25
GLENDORA FC 287B, Los Angeles, CA06, -117.847, 34.147, 933, M, 3.91
SAN GABRIEL FIRE DEPT, Los Angeles, CA06, -118.100, 34.084, 363, 54.8, 2.36
POINT MUGU NF, Ventura, CA06, -119.123, 34.124, 12, 51.0, 0.19
ALTADENA, Los Angeles, CA06, -118.138, 34.182, 1127, M, 2.79
SAN GABRIEL CANYON PH, Los Angeles, CA06, -117.908, 34.155, 744, M, 3.29
WOODLAND HILLS PIERCE COLLEGE, Los Angeles, CA06, -118.574, 34.182, 790, 50.8, 2.38
GOLD RUN 4 SW, Placer, CA02, -120.900, 39.150, 3220, M, 6.71
WILLIAMS, Colusa, CA02, -122.150, 39.150, 85, M, 6.93
GRASS VALLEY NO. 2, Nevada, CA02, -121.068, 39.204, 2400, 40.4, 6.61
HARRY L. ENGLEBRIGHT DAM, Nevada, CA02, -121.267, 39.237, 800, M, 4.69
COLUSA 2 SSW, Colusa, CA02, -122.027, 39.188, 50, 43.2, 1.17
BLUE CANYON NYACK AP, Placer, CA02, -120.709, 39.276, 5286, 38.2, 5.23
NEVADA CITY, Nevada, CA02, -121.001, 39.247, 2781, 39.5, 8.77
TRUCKEE AIRPORT, Nevada, CA03, -120.139, 39.320, 5900, 26.4, 3.12
TRUCKEE RS, Nevada, CA03, -120.173, 39.333, 5823, 26.6, 5.49
DONNER MEMORIAL ST PARK, Nevada, CA03, -120.233, 39.324, 5937, 25.5, 6.50
COLGATE POWERHOUSE, Yuba, CA02, -121.192, 39.331, 595, M, 4.67
MOULTON WEIR, Colusa, CA02, -122.017, 39.333, 76, M, 1.28
BOCA, Nevada, CA03, -120.094, 39.389, 5575, 26.5, 2.52
DOBBINS 1 S, Yuba, CA02, -121.201, 39.358, 1640, 42.4, 3.45
POTTER VALLEY POWERHOUSE, Mendocino, CA01, -123.129, 39.362, 1018, 41.0, 5.23
FARAD, Nevada, CA03, -120.033, 39.428, 5153, M, 1.88
WILLITS 1 NE, Mendocino, CA01, -123.342, 39.419, 1353, 39.0, 4.78
BOWMAN DAM, Nevada, CA02, -120.656, 39.454, 5385, 37.5, 0.53
OROVILLE, Butte, CA02, -121.553, 39.518, 171, 44.1, 2.16
OROVILLE MUNICIPAL AP, Butte, CA02, -121.622, 39.494, 187, 43.4, 2.72
SIERRAVILLE RS, Sierra, CA02, -120.370, 39.583, 4975, 27.0, 0.65
DOWNIEVILLE, Sierra, CA02, -120.824, 39.563, 2915, 35.3, 7.39
STRAWBERRY VALLEY, Yuba, CA02, -121.108, 39.563, 3808, 36.8, 11.11
STONY GORGE RESERVOIR, Glenn, CA02, -122.534, 39.586, 800, 41.5, 1.20
BRUSH CREEK RANGER STATION, Butte, CA02, -121.345, 39.695, 3560, M, 11.37
HARRISON GULCH RS, Shasta, CA02, -122.965, 40.364, 2750, 40.8, 0.00
COLEMAN FISHERIES STATION, Shasta, CA02, -122.143, 40.400, 420, M, 3.26
VOLTA PH, Shasta, CA02, -121.866, 40.458, 2220, M, 3.96
GRIZZLY CREEK STATE PARK, Humboldt, CA01, -123.909, 40.486, 413, M, 7.12
SCOTIA, Humboldt, CA01, -124.104, 40.483, 136, 46.5, 5.39
MANZANITA LAKE, Shasta, CA02, -121.577, 40.541, 5750, 30.7, 4.90
WHISKEYTOWN RESERVOIR, Shasta, CA02, -122.528, 40.612, 1295, 44.2, 3.55
SHASTA DAM, Shasta, CA02, -122.416, 40.714, 1075, 44.4, 4.33
TRINITY RIVER HATCHERY, Trinity, CA01, -122.795, 40.726, 1861, 37.9, 3.20
BIG BAR 4 E, Trinity, CA01, -123.208, 40.741, 1253, 38.0, 3.76
ROUND MOUNTAIN, Shasta, CA02, -121.935, 40.796, 2100, M, 5.61
BUCKHORN, Shasta, CA02, -121.932, 40.880, 3700, M, 9.74
HAT CREEK, Shasta, CA02, -121.543, 40.932, 3015, 31.6, 2.20
PIT RIVER PH 5, Shasta, CA02, -121.977, 40.987, 1458, M, 7.55
WILLOW CREEK 1 NW, Humboldt, CA01, -123.636, 40.947, 464, 40.8, 5.20
FALL RIVER MILLS, Shasta, CA02, -121.435, 41.008, 3300, M, 2.18
ADIN RANGER STATION, Modoc, CA02, -120.945, 41.193, 4202, M, 1.89
DUNSMUIR TREATMENT PL, Siskiyou, CA02, -122.282, 41.183, 2169, 37.2, 5.53
JESS VALLEY, Modoc, CA02, -120.295, 41.268, 5400, 31.7, 1.27
MCCLOUD, Siskiyou, CA02, -122.138, 41.252, 3233, 32.8, 1.46
ORICK, Humboldt, CA01, -124.067, 41.283, 5, M, 9.36
CALLAHAN, Siskiyou, CA01, -122.825, 41.338, 3085, 33.5, 1.66
SAWYERS BAR RS, Siskiyou, CA01, -123.133, 41.301, 2255, 38.1, 5.25
ORLEANS RS, Humboldt, CA01, -123.534, 41.303, 433, M, 12.40
CANBY 3 SW, Modoc, CA02, -120.902, 41.422, 4310, 25.3, 1.26
ALTURAS, Modoc, CA02, -120.544, 41.490, 4378, 26.8, 0.55
FORT JONES RS, Siskiyou, CA01, -122.848, 41.601, 2729, 33.0, 0.02
LAVA BEDS NAT MON, Siskiyou, CA01, -121.501, 41.702, 4770, 31.8, 0.88
MOUNT HEBRON RS, Siskiyou, CA01, -122.045, 41.783, 4265, 29.8, 0.12
CRESCENT CITY 3 NNW, Del Norte, CA01, -124.215, 41.796, 43, 42.9, 18.09
CRESCENT CITY MCNAMARA AP, Del Norte, CA01, -124.238, 41.784, 56, 44.3, 13.44
OAK KNOLL W. C., Siskiyou, CA01, -122.850, 41.839, 1980, M, 0.51
GASQUET RS, Del Norte, CA01, -123.965, 41.845, 387, M, 23.39
FORT DICK RIVER, Del Norte, CA01, -124.135, 41.881, -, M, 16.84
TULELAKE, Siskiyou, CA01, -121.474, 41.960, 4038, 28.5, 0.68
COPCO NO 1 DAM, Siskiyou, CA01, -122.338, 41.980, 2665, 33.3, 3.97
ELK VALLEY, Del Norte, CA01, -123.718, 41.988, 1708, M, 17.11
PACIFICA 4 SSE, San Mateo, CA04, -122.472, 37.592, 475, 52.6, 3.17
BARSTOW, San Bernardino, CA07, -117.022, 34.893, 2220, 44.1, 1.35
INYOKERN, Kern, CA07, -117.821, 35.651, 2430, 41.8, 0.09
PEARBLOSSOM, Los Angeles, CA07, -117.897, 34.503, 3101, 43.0, 0.42
EL CAJON, San Diego, CA06, -116.928, 32.801, 495, 56.0, 5.38
MARKLEY COVE, Napa, CA02, -122.124, 38.492, 480, 44.6, 3.44
SUSANVILLE 2SW, Lassen, CA03, -120.663, 40.417, 4212, 30.2, 0.50
TEJON RANCHO, Kern, CA05, -118.750, 35.023, 1425, 36.3, 1.91
SAN NICOLAS IS, Ventura, CA06, -119.458, 33.240, 568, 56.4, 0.81
BURBANK GLENDALE PASADENA AP, Los Angeles, CA06, -118.365, 34.200, 731, 53.1, 2.18
MORGAN HILL 2.7 S, Santa Clara, CA04, -121.632, 37.092, 338, M, 1.87
ENCINITAS 2.7N, San Diego, CA06, -117.292, 33.076, 188, M, 2.25
MOUNT SHASTA, Siskiyou, CA02, -122.317, 41.322, 3613, 32.1, 2.29
WATSONVILLE MUNICIPAL AIRPORT, Santa Cruz, CA04, -121.790, 36.939, 162, 47.8, 2.11
SANTA ROSA SONOMA CO AP, Sonoma, CA04, -122.811, 38.504, 119, 43.1, 3.22
LORAINE 5 NNE, Kern, CA05, -118.412, 35.384, 4235, 41.1, 1.99
CORONADO FIRE DEPT, San Diego, CA06, -117.177, 32.692, 18, 58.1, 3.02
DEL MAR FIRE DEPT, San Diego, CA06, -117.262, 32.972, 12, 54.7, 2.94
IMPERIAL BEACH FIRE DEPT, San Diego, CA06, -117.114, 32.576, 22, 55.4, 3.62
LEMON GROVE FIRE DEPARTMENT, San Diego, CA06, -117.030, 32.738, 427, 56.0, 0.62
SPRING VALLEY FIRE DEPT, San Diego, CA06, -117.006, 32.710, 270, 53.5, 3.54
SANTEE FIRE DEPT, San Diego, CA06, -116.973, 32.841, 340, 55.8, 4.23
LEE VINING, Mono, CA07, -119.119, 37.957, 6797, 30.4, 1.53
ANAHEIM, Orange, CA06, -117.842, 33.865, 235, 57.3, 3.05
RED BLUFF TREATMENT PLANT, Tehama, CA02, -122.220, 40.162, 265, M, 2.30
NEW MELONES DAM HQ, Tuolumne, CA05, -120.486, 38.005, 960, 45.3, 4.06
MAMMOTH LAKES RS, Mono, CA07, -118.962, 37.648, 7804, 28.8, 1.99
FRAZIER PARK 9 SW, Ventura, CA05, -119.104, 34.733, 5169, M, 1.14
MONTEREY WFO, Monterey, CA04, -121.855, 36.593, 122, 49.1, 2.70
SKYLINE RIDGE PRESERVE, San Mateo, CA04, -122.185, 37.313, 2270, 43.1, 5.01
FREMONT, Alameda, CA04, -122.016, 37.542, 38, 48.0, 2.22
MAD RIVER 12 SE, Trinity, CA01, -123.374, 40.319, 2763, M, 7.88
NEWHALL 5NW, Los Angeles, CA06, -118.594, 34.393, 1765, 51.4, 2.63
TEHACHAPI 4 SE, Kern, CA05, -118.422, 35.101, 4220, 40.1, 1.05
WRIGHTWOOD, San Bernardino, CA07, -117.639, 34.362, 6000, 33.4, 5.73
REDDING CDF, Shasta, CA02, -122.299, 40.519, 502, M, 3.65
NORTHRIDGE CAL STATE, Los Angeles, CA06, -118.525, 34.245, 904, 54.0, 2.16
OXNARD WFO, Ventura, CA06, -119.137, 34.207, 52, 53.3, 2.14
HANFORD MUNICIPAL AP, Kings, CA05, -119.623, 36.311, 249, 43.2, 1.39
RAMONA AIRPORT, San Diego, CA06, -116.916, 33.038, 1385, 49.5, 4.99
VACAVILLE/NUT TREE AP ASOS, Solano, CA02, -121.959, 38.378, 104, 46.3, 2.65
ALTURAS MUNICIPAL AP, Modoc, CA02, -120.561, 41.484, 4383, 26.2, 1.45
MADERA MUNICIPAL AP, Madera, CA05, -120.111, 36.985, 251, 43.7, 1.17
BAKERSFIELD 5 NW, Kern, CA05, -119.051, 35.419, 470, 46.0, 0.08
FRESNO 5 NE, Fresno, CA05, -119.709, 36.767, 338, 45.4, 0.90
OCEANSIDE MUNICIPAL AP, San Diego, CA06, -117.350, 33.219, 30, 52.4, 3.07
SAN DIEGO SEAWORLD, San Diego, CA06, -117.231, 32.765, 14, 55.0, 3.42
ARCATA EUREKA AP, Humboldt, CA01, -124.105, 40.978, 211, 43.6, 10.01
CHICO ARMY FLYING SCH, Butte, CA02, -121.850, 39.800, 272, 44.7, 2.55
NEWPORT BEACH HARBOR, Orange, CA06, -117.884, 33.603, 10, 54.8, 1.72
REDDING AP, Shasta, CA02, -122.298, 40.515, 501, 42.9, 3.33
AVALON CATALINA AP, Los Angeles, CA06, -118.415, 33.404, 1565, 52.8, 3.76
SANTA MARIA PUBLIC AP, Santa Barbara, CA06, -120.452, 34.894, 243, 49.3, 0.91
MOUNT SHASTA, Siskiyou, CA02, -122.333, 41.333, 3535, 32.1, 1.61
RED BLUFF MUNI AP, Tehama, CA02, -122.255, 40.152, 354, 44.5, 1.65
NEEDLES AIRPORT, San Bernardino, CA07, -114.618, 34.768, 888, 51.7, 1.12
CHINA LAKE NAF, Kern, CA07, -117.693, 35.688, 2230, 43.3, 0.12
PARADISE, Butte, CA02, -121.624, 39.754, 1750, 45.0, 5.98
COVELO, Mendocino, CA01, -123.244, 39.816, 1413, 38.4, 5.08
VINTON, Plumas, CA02, -120.186, 39.806, 4950, 24.5, 1.13
PORTOLA, Plumas, CA02, -120.472, 39.805, 4850, 28.1, 2.78
DE SABLA, Butte, CA02, -121.611, 39.872, 2710, 40.9, 8.17
LEGGETT, Mendocino, CA01, -123.720, 39.874, 703, M, 12.24
STANDISH HICKEY ST PK, Mendocino, CA01, -123.727, 39.878, 853, 40.5, 9.30
BUCKS CREEK, Plumas, CA02, -121.315, 39.937, 1891, M, 8.73
DOYLE 4 SSE, Lassen, CA03, -120.083, 39.972, 4390, 31.9, 0.37
DOYLE, Lassen, CA03, -120.105, 40.027, 4293, M, 0.92
RICHARDSON GR ST PK, Humboldt, CA01, -123.793, 40.026, 503, 41.4, 8.03
CANYON DAM, Plumas, CA02, -121.089, 40.171, 4560, 31.3, 4.01
MIRANDA 4 SE, Humboldt, CA01, -123.776, 40.182, 266, M, 6.12
FORT SEWARD, Humboldt, CA01, -123.632, 40.218, 220, M, 6.76
HONEYDEW 1 SW, Humboldt, CA01, -124.132, 40.238, 373, M, 8.95
CHESTER, Plumas, CA02, -121.242, 40.303, 4530, 31.5, 3.31
MINERAL, Tehama, CA02, -121.609, 40.346, 4875, 27.3, 2.58
TWENTYNINE PALMS 12E - WONDER VALLEY, San Bernardino, CA07, -115.850, 34.121, 1376, 48.6, 1.52
HEARST CASTLE, San Luis Obispo, CA04, -121.168, 35.684, 1526, 50.9, 2.96
GETTY CENTER, Los Angeles, CA06, -118.479, 34.087, 1117, 55.3, 3.63
HESPERIA 2E, San Bernardino, CA07, -117.266, 34.421, 3055, 38.9, 2.79
RANCHO BERNARDO, San Diego, CA06, -117.081, 33.022, 690, 54.4, 4.71
PACIFICA 2S, San Mateo, CA04, -122.484, 37.610, 125, 47.5, 0.39
SAN JUAN CANYON, Orange, CA06, -117.552, 33.532, 375, 50.4, 0.83
YOUNTVILLE, Napa, CA01, -122.357, 38.395, 95, 43.6, M
APPLE VALLEY #2, San Bernardino, CA07, -117.279, 34.536, 2780, 41.2, 0.10
OCOTILLO WELLS 2W, San Diego, CA07, -116.169, 33.155, 390, 55.3, 1.98
IRVINE RANCH, Orange, CA06, -117.723, 33.720, 540, 53.9, 3.67
MT. LAGUNA #3, San Diego, CA07, -116.419, 32.867, 5920, 48.9, 1.95
AVALON INLAND, Los Angeles, CA06, -118.330, 33.338, 90, 50.9, 3.19
DESERT CENTER 2 NNE, Riverside, CA07, -115.392, 33.738, 747, 51.1, 1.32
TORRANCE AP, Los Angeles, CA06, -118.342, 33.802, 90, 54.9, 0.96
MERCED 23 WSW, Merced, CA05, -120.882, 37.238, 78, 41.9, 1.26
REDDING 12 WNW, Shasta, CA02, -122.607, 40.651, 1418, 42.2, 2.38
STOVEPIPE WELLS 1 SW, Inyo, CA07, -117.145, 36.602, 84, 51.2, 0.09
LOS ANGELES DOWNTOWN/USC, Los Angeles, CA06, -118.291, 34.024, 179, 57.2, 2.79
FRESNO YOSEMITE INT'L, Fresno, CA05, -119.720, 36.780, 334, 44.9, 1.09
MONTEREY PENINSUL AP, Monterey, CA04, -121.849, 36.590, 160, 50.3, 1.92
PASO ROBLES MUNICIPAL AP, San Luis Obispo, CA04, -120.629, 35.669, 820, 45.5, 0.91
MONTAGUE SISKIYOU AIRPORT, Siskiyou, CA01, -122.468, 41.774, 2645, 31.9, 0.57
SAN JOSE, Santa Clara, CA04, -121.924, 37.359, 49, 48.1, 1.53
PALM SPRINGS ASOS, Riverside, CA07, -116.504, 33.822, 409, 55.0, 2.53
THOUSAND OAKS 1 SW, Ventura, CA06, -118.899, 34.182, 783, 51.8, 1.18
FILLMORE 2 W, Ventura, CA06, -118.945, 34.409, 495, 52.7, 1.85
SAN DIEGO BROWN FIELD, San Diego, CA06, -116.994, 32.576, 521, 54.3, 3.88
Bakersfield Area, -, -, -, -, -, 45.7, 0.63
Bishop Area, -, -, -, -, -, 34.0, 0.61
Los Angeles Downtown Area, -, -, -, -, -, 57.2, 2.79
Eureka Area, -, -, -, -, -, 45.2, 6.66
Fresno Area, -, -, -, -, -, 44.9, 1.09
Los Angeles Airport Area, -, -, -, -, -, 54.9, 2.51
Long Beach Area, -, -, -, -, -, 54.6, 2.61
Redding Area, -, -, -, -, -, 42.9, 3.33
Sacramento Area, -, -, -, -, -, 44.0, 1.51
San Diego Area, -, -, -, -, -, 56.6, 3.38
Stockton Area, -, -, -, -, -, 43.9, 1.19
San Francisco Airport Area, -, -, -, -, -, 48.9, 2.36
Santa Maria Area, -, -, -, -, -, 49.3, 0.91
CAMP PENDLETON MCAS, San Diego, CA06, -117.355, 33.304, 70, 51.9, 3.48
LEMOORE REEVES NAS, Fresno, CA05, -119.950, 36.333, 232, 44.9, 1.64
MOUNTAIN PASS 1SE, San Bernardino, CA07, -115.531, 35.459, 4777, 36.5, 1.52
ARVIN, Kern, CA05, -118.834, 35.211, 450, 44.9, 1.42
FRAZIER PARK, Kern, CA06, -118.965, 34.827, 4972, 40.2, 3.04
CHIRIACO SUMMIT, Riverside, CA07, -115.721, 33.662, 1706, 50.4, 1.79
EDWARDS AFB NORTH AUXILIARY AIRFIELD, Kern, CA07, -117.865, 34.988, 2283, 42.9, 0.00
FALLBROOK 5 NE, San Diego, CA06, -117.190, 33.439, 1140, 54.4, 4.76
SANTA BARBARA 11 W, Santa Barbara, CA06, -119.880, 34.414, 18, 51.3, 1.71
BODEGA 6 WSW, Sonoma, CA01, -123.075, 38.321, 63, 46.9, 3.38
YOSEMITE VILLAGE 12 W, Mariposa, CA05, -119.821, 37.759, 6620, 36.0, 5.54
YUCCA MESA, San Bernardino, CA07, -116.407, 34.218, 3445, 45.5, 3.88
YUCCA VALLEY, San Bernardino, CA07, -116.388, 34.129, 3249, 44.3, 2.62
JOHNSON VALLEY, San Bernardino, CA07, -116.538, 34.359, 3167, 43.6, 1.28
REDONDO BEACH, Los Angeles, CA06, -118.376, 33.834, 142, 54.1, 1.74
BURBANK VALLEY PUMP PLANT, Los Angeles, CA06, -118.348, 34.187, 655, 52.9, 2.17
PIEDMONT 1.0 SE, Alameda, CA04, -122.216, 37.812, 372, M, 3.18
CASTRO VALLEY 0.5 WSW, Alameda, CA04, -122.069, 37.708, 287, M, 3.14
PLEASANTON 1.8 SSE, Alameda, CA04, -121.875, 37.648, 351, M, 2.31
VOLCANO 5.4 NE, Amador, CA05, -120.560, 38.497, 3488, M, 6.14
MARTINEZ 0.8 SSE, Contra Costa, CA04, -122.108, 37.990, 252, M, 1.89
PLEASANT HILL 1.2 ESE, Contra Costa, CA04, -122.054, 37.949, 57, M, 1.49
WALLACE 0.3 NE, Calaveras, CA05, -120.973, 38.197, 298, M, 2.25
MURPHYS 2.8 ENE, Calaveras, CA05, -120.412, 38.165, 3352, M, 4.46
CRESCENT CITY 5.5 NNE, Del Norte, CA01, -124.148, 41.824, 65, M, 18.18
DIAMOND SPRINGS 0.1 W, El Dorado, CA05, -120.824, 38.686, 1778, M, 3.51
PLACERVILLE 2.9 WNW, El Dorado, CA02, -120.840, 38.753, 1800, M, 3.59
PLACERVILLE 3.7 SW, El Dorado, CA02, -120.849, 38.695, 1755, M, 3.71
CAMERON PARK 0.9 SE, El Dorado, CA05, -120.976, 38.672, 1414, M, 2.54
FRESNO 3.4 SSE, Fresno, CA05, -119.811, 36.780, 303, M, 0.03
CLOVIS 2.9 N, Fresno, CA05, -119.693, 36.861, 382, M, 1.58
TOLLHOUSE 2.0 SSE, Fresno, CA05, -119.397, 36.990, 1673, M, 3.68
ARCATA 1.1 NE, Humboldt, CA01, -124.069, 40.881, 420, M, 7.03
BAYSIDE 1.8 SE, Humboldt, CA01, -124.038, 40.825, 77, M, 7.28
ORICK 5.9 SSW, Humboldt, CA01, -124.103, 41.208, 567, M, 11.15
MCKINLEYVILLE 2.7 SE, Humboldt, CA01, -124.084, 40.923, 325, M, 10.39
MCKINLEYVILLE 7.3 ESE, Humboldt, CA01, -123.998, 40.896, 366, M, 11.68
TRINIDAD 1.5 NNW, Humboldt, CA01, -124.152, 41.078, 201, M, 13.21
HONEYDEW 3.1 WNW, Humboldt, CA01, -124.182, 40.252, 316, M, 9.27
MCKINLEYVILLE 2.3 NE, Humboldt, CA01, -124.086, 40.978, 270, M, 11.50
REDWAY 4.3 W, Humboldt, CA01, -123.901, 40.108, 612, M, 9.57
FORTUNA 0.9 SSW, Humboldt, CA01, -124.144, 40.573, 128, M, 6.77
FORTUNA 1.5 NW, Humboldt, CA01, -124.161, 40.600, 98, M, 6.73
MIRANDA 4.1 SW, Humboldt, CA01, -123.894, 40.209, 539, M, 10.03
LEMOORE 0.9 ESE, Kings, CA05, -119.772, 36.293, 223, M, 0.99
LEMOORE 4.4 SSE, Kings, CA05, -119.756, 36.240, 213, M, 1.09
INYOKERN 9.4 WSW, Kern, CA07, -117.978, 35.635, 4319, M, 1.36
GLENDALE 2.4 WSW, Los Angeles, CA06, -118.295, 34.169, 511, M, 2.31
WHITTIER 3.6 ESE, Los Angeles, CA06, -117.984, 33.937, 289, M, 3.52
TORRANCE 2.8 SW, Los Angeles, CA06, -118.337, 33.790, 200, M, 2.68
ALTADENA 0.7 ESE, Los Angeles, CA06, -118.124, 34.187, 1323, M, 2.23
SANTA MONICA 1.9 E, Los Angeles, CA06, -118.460, 34.017, 148, M, 3.20
WOODLAND HILLS 2.6 WNW, Los Angeles, CA06, -118.650, 34.181, 894, M, 2.42
MONTE NIDO 0.2 SSW, Los Angeles, CA06, -118.687, 34.079, 682, M, 4.16
SHERMAN OAKS 1.7 ENE, Los Angeles, CA06, -118.420, 34.154, 638, M, 0.00
SUSANVILLE 3.2 SSW, Lassen, CA03, -120.674, 40.368, 4353, M, 1.83
UKIAH 8.4 NW, Mendocino, CA01, -123.331, 39.221, 2492, M, 2.61
YREKA 0.9 WNW, Siskiyou, CA01, -122.649, 41.733, 2692, M, 2.04
SANTA MARGARITA 8.9 ESE, San Luis Obispo, CA04, -120.453, 35.381, 2005, M, 1.82
PACIFICA 0.3 W, San Mateo, CA04, -122.483, 37.612, 227, M, 2.30
HALF MOON BAY 4.1 SE, San Mateo, CA04, -122.394, 37.420, 339, M, 0.27
FOSTER CITY 1.3 SW, San Mateo, CA04, -122.259, 37.549, 7, M, 2.16
HALF MOON BAY 0.5 SSW, San Mateo, CA04, -122.441, 37.463, 54, M, 0.71
ROHNERT PARK 1.6 WNW, Sonoma, CA01, -122.727, 38.352, 93, M, 2.68
HEALDSBURG 4.2 NW, Sonoma, CA01, -122.923, 38.656, 155, M, 4.15
GEYSERVILLE 10.6 WNW, Sonoma, CA01, -123.098, 38.737, 1328, M, 5.11
SANTA ROSA 3.1 W, Sonoma, CA01, -122.758, 38.451, 107, M, 3.90
SEBASTOPOL 3.7 WSW, Sonoma, CA01, -122.893, 38.385, 383, M, 4.27
APPLE VALLEY 2.6 SSW, San Bernardino, CA07, -117.235, 34.496, 2881, M, 1.27
WRIGHTWOOD 1.2 WNW, San Bernardino, CA07, -117.651, 34.365, 6148, M, 3.90
UPLAND 0.5 ESE, San Bernardino, CA06, -117.650, 34.115, 1415, M, 3.80
APPLE VALLEY 2.6 SE, San Bernardino, CA07, -117.181, 34.504, 2941, M, 1.64
KNIGHTS FERRY 5.2 WSW, Stanislaus, CA05, -120.752, 37.789, 144, M, 1.97
SAN JUAN BAUTISTA 0.5 S, San Benito, CA04, -121.537, 36.839, 252, M, 2.75
SANTA CRUZ 0.9 WNW, Santa Cruz, CA04, -122.051, 36.976, 281, M, 3.28
BEN LOMOND 1.2 SSE, Santa Cruz, CA04, -122.073, 37.088, 397, M, 1.50
DAVENPORT 4.2 NW, Santa Cruz, CA04, -122.218, 37.065, 495, M, 3.35
BOULDER CREEK 3.6 NE, Santa Cruz, CA04, -122.091, 37.181, 1724, M, 3.97
SCOTTS VALLEY 1.7 SW, Santa Cruz, CA04, -122.029, 37.040, 573, M, 4.54
SCOTTS VALLEY 1.4 W, Santa Cruz, CA04, -122.033, 37.055, 362, M, 0.00
CARMICHAEL 0.9 S, Sacramento, CA02, -121.319, 38.621, 108, M, 0.73
FOLSOM 2.4 SW, Sacramento, CA02, -121.176, 38.651, 194, M, 2.39
SACRAMENTO 13.7 SE, Sacramento, CA05, -121.283, 38.456, 97, M, 1.97
SACRAMENTO 1.4 S, Sacramento, CA02, -121.471, 38.547, 24, M, 2.16
SACRAMENTO 2.0 SE, Sacramento, CA02, -121.437, 38.550, 34, M, 2.06
ANTELOPE 3.5 W, Sacramento, CA02, -121.392, 38.707, 79, M, 2.12
SACRAMENTO 4.1 NE, Sacramento, CA02, -121.412, 38.609, 46, M, 1.88
MOUNTAIN VIEW 1.2 S, Santa Clara, CA04, -122.075, 37.385, 109, M, 1.72
SAN JOSE 4.6 S, Santa Clara, CA04, -121.836, 37.238, 158, M, 1.39
SUNNYVALE 1.9 SE, Santa Clara, CA04, -122.004, 37.365, 85, M, 1.66
SAN JOSE 5.4 SW, Santa Clara, CA04, -121.775, 37.305, 223, M, 1.99
MONTE SERENO 0.4 SSW, Santa Clara, CA04, -121.990, 37.232, 467, M, 2.76
SAN JOSE 4.6 NE, Santa Clara, CA04, -121.795, 37.354, 318, M, 2.18
LOS ALTOS 0.6 NNW, Santa Clara, CA04, -122.100, 37.378, 156, M, 1.75
SAN JOSE 2.7 SSW, Santa Clara, CA04, -121.876, 37.271, 162, M, 1.36
CAMBRIAN PARK 2.2 SE, Santa Clara, CA04, -121.897, 37.234, 252, M, 1.56
SAN JOSE 2.3 SSW, Santa Clara, CA04, -121.866, 37.273, 161, M, 1.41
PALO ALTO 1.7 NE, Santa Clara, CA04, -122.121, 37.419, 29, M, 1.43
SARATOGA 0.5 N, Santa Clara, CA04, -122.023, 37.275, 373, M, 1.84
PALO ALTO 1.2 NE, Santa Clara, CA04, -122.149, 37.452, 32, M, 1.70
SAN MARCOS 2.5 ENE, San Diego, CA06, -117.132, 33.147, 666, M, 5.00
OCEANSIDE 2.3 WNW, San Diego, CA06, -117.350, 33.233, 260, M, 3.33
IMPERIAL BEACH 3.3 E, San Diego, CA06, -117.062, 32.574, 138, M, 3.22
OCEANSIDE 8.4NE, San Diego, CA06, -117.266, 33.270, 252, M, 3.80
SAN DIEGO 6.6 N, San Diego, CA06, -117.148, 32.911, 434, M, 4.62
EL CAJON 2.3ENE, San Diego, CA06, -116.925, 32.811, 610, M, 4.09
ENCINITAS 3.34ENE, San Diego, CA06, -117.237, 33.050, 193, M, 3.64
ESCONDIDO 5.2NNW, San Diego, CA06, -117.128, 33.185, 1474, M, 4.11
EL CAJON 1.5WSW, San Diego, CA06, -116.987, 32.791, 727, M, 4.45
ESCONDIDO 2.5 SSE, San Diego, CA06, -117.048, 33.106, 690, M, 4.61
JAMUL 9.9ESE, San Diego, CA06, -116.706, 32.680, 2737, M, 7.27
BORREGO SPRINGS 2.4 WSW, San Diego, CA07, -116.390, 33.223, 777, M, 0.02
LA JOLLA 2.5SE, San Diego, CA06, -117.240, 32.825, 508, M, 4.43
CHULA VISTA 2.2 SSE, San Diego, CA06, -117.035, 32.598, 208, M, 0.45
CHULA VISTA 6.3E, San Diego, CA06, -116.975, 32.638, 555, M, 0.37
REDDING 3.6 NNE, Shasta, CA02, -122.351, 40.624, 618, M, 0.55
COTTONWOOD 0.5 NNE, Shasta, CA02, -122.276, 40.397, 452, M, 3.41
PALO CEDRO 2.7 NNE, Shasta, CA02, -122.222, 40.601, 489, M, 3.73
SHINGLETOWN 5.3 ENE, Shasta, CA02, -121.796, 40.524, 3964, M, 4.99
REDDING 2.9 NNE, Shasta, CA02, -122.339, 40.609, 652, M, 2.42
LINDEN 5.8 ENE, San Joaquin, CA05, -121.008, 38.063, 146, M, 2.29
STOCKTON 2.1 NW, San Joaquin, CA05, -121.333, 37.991, 7, M, 1.89
STOCKTON 5.8 NNE, San Joaquin, CA05, -121.255, 38.038, 35, M, 1.98
LODI 1.0 NNW, San Joaquin, CA05, -121.304, 38.136, 43, M, 1.89
STOCKTON 3.3 SE, San Joaquin, CA05, -121.259, 37.942, 23, M, 1.56
TRACY 2.1 W, San Joaquin, CA05, -121.470, 37.735, 52, M, 0.39
GREENVIEW 0.7 SW, Siskiyou, CA01, -122.910, 41.547, 2825, M, 2.27
YREKA 4.5 S, Siskiyou, CA01, -122.621, 41.665, 2937, M, 1.83
WEED 5.4 N, Siskiyou, CA01, -122.370, 41.495, 3064, M, 0.30
ETNA 3.9 NNW, Siskiyou, CA01, -122.923, 41.511, 2966, M, 2.80
ARBUCKLE BASIN CALIFORNIA, Shasta, CA02, -122.833, 40.398, 1900, 43.0, M
ACTON CALIFORNIA, Los Angeles, CA06, -118.200, 34.446, 2600, 46.5, M
ARROYO GRANDE CALIFORNIA, San Luis Obispo, CA04, -120.392, 35.179, 1048, 50.4, M
ALDER SPRINGS CALIFORNIA, Glenn, CA02, -122.724, 39.651, 4300, 40.9, M
ALPINE CALIFORNIA, San Diego, CA06, -116.739, 32.834, 2041, 52.9, M
LOS ALTOS CALIFORNIA, Santa Clara, CA04, -122.147, 37.358, 645, 49.3, M
AMMO DUMP CALIFORNIA, San Diego, CA06, -117.286, 33.381, 1068, 55.0, M
ANZA CALIFORNIA, Riverside, CA06, -116.673, 33.555, 3920, 42.8, M
ALDER POINT CALIFORNIA, Humboldt, CA01, -123.590, 40.187, 923, 41.7, M
ARROYO SECO (MT. DIABLO) CALIF, Monterey, CA04, -121.492, 36.230, 980, 47.7, M
ASH CREEK CALIFORNIA, Siskiyou, CA02, -121.979, 41.277, 3200, 31.5, M
ASH VALLEY CALIFORNIA, Lassen, CA02, -120.686, 41.052, 5100, 29.2, M
BACKBONE CALIFORNIA, Trinity, CA01, -123.142, 40.889, 4700, 37.8, M
BALD MTN LOC CALIFORNIA, El Dorado, CA02, -120.697, 38.906, 4680, 41.5, M
BARNABY CALIFORNIA, Marin, CA01, -122.702, 38.028, 1240, 47.1, M
BATTERSON CALIFORNIA, Madera, CA05, -119.508, 37.232, 3160, 44.3, M
BIG BAR CALIFORNIA, Trinity, CA01, -123.233, 40.733, 1500, 39.0, M
BELL CANYON CALIFORNIA, Orange, CA06, -117.592, 33.542, 700, 55.5, M
BRADLEY CALIFORNIA, Monterey, CA04, -120.803, 35.864, 537, 47.4, M
BEAR PEAK CALIFORNIA, Tulare, CA05, -118.052, 35.884, 8228, 34.5, M
BENTON CALIFORNIA, Mono, CA07, -118.478, 37.843, 5450, 32.7, M
BEAUMONT CALIFORNIA, Riverside, CA06, -116.950, 33.931, 2604, 49.3, M
BEVERLY HILLS CALIFORNIA, Los Angeles, CA06, -118.412, 34.125, 1260, 56.4, M
BEAR VALLEY CALIFORNIA, Kern, CA05, -118.625, 35.140, 4000, 41.6, M
BANGOR CALIFORNIA, Butte, CA02, -121.386, 39.398, 803, 43.1, M
BIG HILL CALIFORNIA, Humboldt, CA01, -123.636, 41.098, 3570, 41.0, M
BIG PINES CALIFORNIA, Los Angeles, CA07, -117.692, 34.379, 6917, 39.3, M
BIG ROCK CALIFORNIA, Marin, CA01, -122.570, 38.039, 1500, 46.8, M
BLACK DIAMOND CALIFORNIA, Contra Costa, CA04, -121.884, 37.950, 1600, 44.4, M
BLUE DOOR CALIFORNIA, Lassen, CA02, -120.337, 41.055, 5615, 29.2, M
BLUE RIDGE (KNF) CALIFORNIA, Siskiyou, CA01, -123.187, 41.269, 5956, 33.5, M
BEN BOLT CALIFORNIA, El Dorado, CA05, -120.934, 38.591, 905, 43.0, M
BEN LOMOND CALIFORNIA, Santa Cruz, CA04, -122.170, 37.132, 2630, 46.0, M
BOGARD R.S. CALIFORNIA, Lassen, CA02, -121.083, 40.598, 5650, 26.4, M
BOONVILLE CALIFORNIA, Mendocino, CA01, -123.349, 38.988, 644, 44.7, M
BIG PINE FLAT CALIFORNIA, San Bernardino, CA07, -117.013, 34.319, 6861, 36.9, M
BRIDGEPORT 4NW CALIFORNIA, Mono, CA03, -119.289, 38.272, 6650, 31.2, M
BRANCH MOUNTAIN CALIFORNIA, San Luis Obispo, CA04, -120.083, 35.189, 3770, 44.5, M
BEAR FLAT CALIFORNIA, Modoc, CA02, -120.313, 41.295, 6200, 29.2, M
BRIONES CALIFORNIA, Contra Costa, CA04, -122.118, 37.944, 1450, 45.1, M
BLACKROCK CALIFORNIA, Tulare, CA05, -118.260, 36.093, 8200, 33.0, M
BROOKS CALIFORNIA, Yolo, CA02, -122.145, 38.738, 354, 44.5, M
BIG SUR CALIFORNIA, Monterey, CA04, -121.785, 36.236, 450, 50.9, M
BUCK MEADOWS CALIFORNIA, Tuolumne, CA05, -120.097, 37.823, 3200, 41.0, M
BULL FLAT CALIFORNIA, Lassen, CA03, -120.114, 40.481, 4395, 29.2, M
BURNS CANYON CALIFORNIA, San Bernardino, CA07, -116.634, 34.210, 6000, 41.9, M
BUTTERCUP CALIFORNIA, Imperial, CA07, -114.884, 32.740, 217, 56.9, M
BEAVER CAMP LOC CALIFORNIA, Amador, CA05, -120.325, 38.488, 5000, 42.0, M
BRAZIE RANCH CALIFORNIA, Siskiyou, CA01, -122.594, 41.685, 3000, 35.0, M
CAHUILLA CALIFORNIA, Imperial, CA07, -115.174, 32.974, 278, 58.0, M
CALLAHAN CALIFORNIA, Siskiyou, CA01, -122.796, 41.308, 3136, 35.4, M
CAMERON FIRE STATION CALIFORNI, San Diego, CA06, -116.463, 32.721, 3443, 46.3, M
CANBY CALIFORNIA, Modoc, CA02, -120.868, 41.434, 4312, 29.1, M
CARRIZO CALIFORNIA, San Luis Obispo, CA05, -119.773, 35.096, 2490, 46.9, M
CASE SPRINGS CALIFORNIA, San Diego, CA06, -117.418, 33.445, 2320, 52.6, M
CATHEYS VALLEY CALIFORNIA, Mariposa, CA05, -120.111, 37.468, 1200, 44.5, M
CEDAR GROVE CALIFORNIA, Fresno, CA05, -118.656, 36.788, 4720, 37.6, M
CHEESEBORO CALIFORNIA, Ventura, CA06, -118.717, 34.185, 1650, 53.4, M
CHICO CALIFORNIA, Butte, CA02, -121.779, 39.712, 230, 43.8, M
CHILAO CALIFORNIA, Los Angeles, CA06, -118.030, 34.332, 5450, 44.9, M
CHUCHUPATE CALIFORNIA, Ventura, CA05, -119.012, 34.808, 4900, 37.0, M
CLAREMONT CALIFORNIA, Los Angeles, CA06, -117.707, 34.137, 1645, 51.3, M
CLEAR CREEK CALIFORNIA, Los Angeles, CA06, -118.152, 34.271, 3000, 48.8, M
CLARK CALIFORNIA, Riverside, CA06, -117.309, 33.877, 1720, 51.4, M
CALAVERAS ROAD CALIFORNIA, Alameda, CA04, -121.844, 37.553, 1230, 46.7, M
CASE MOUNTAIN CALIFORNIA, Tulare, CA05, -118.809, 36.411, 6450, 40.4, M
CORONA CALIFORNIA, Riverside, CA06, -117.549, 33.874, 640, 54.6, M
COHASSET CALIFORNIA, Butte, CA02, -121.769, 39.872, 1733, 45.2, M
COLLINS BALDY CALIFORNIA, Siskiyou, CA01, -122.950, 41.775, 5493, 33.9, M
ADELANTO 3.1 S, San Bernardino, CA07, -117.433, 34.525, 3085, M, 0.29
THOUSAND PALMS 0.7 W, Riverside, CA07, -116.398, 33.821, 254, M, 2.12
CONVERSE CALIFORNIA, San Bernardino, CA06, -116.913, 34.194, 5618, 41.6, M
COOSKIE MOUNTAIN CALIFORNIA, Humboldt, CA01, -124.266, 40.257, 2950, 41.0, M
CORRALITOS CALIFORNIA, Santa Cruz, CA04, -121.798, 36.991, 450, 49.8, M
COUNTY LINE CALIFORNIA, Lake, CA02, -122.412, 39.019, 2085, 44.4, M
CAMP 9 CALIFORNIA, Los Angeles, CA06, -118.422, 34.362, 4000, 46.9, M
CRANE FLAT LOOKOUT CALIFORNIA, Mariposa, CA05, -119.825, 37.762, 6644, 57.0, M
CRESTVIEW CALIFORNIA, Mono, CA07, -118.983, 37.745, 7600, 28.2, M
CORNING CALIFORNIA, Tehama, CA02, -122.170, 39.939, 294, 44.1, M
CARPENTER RIDGE CALIFORNIA, Butte, CA02, -121.582, 40.069, 4812, 36.8, M
CRANSTON CALIFORNIA, Riverside, CA06, -116.841, 33.740, 1950, 55.8, M
CRAZY PEAK CALIFORNIA, Del Norte, CA01, -123.604, 41.992, 3970, 38.0, M
CASHMAN CALIFORNIA, Plumas, CA02, -120.915, 40.002, 4520, 36.1, M
DESCANSO CALIFORNIA, San Diego, CA06, -116.622, 32.857, 3480, 47.6, M
DEVILS GARDEN CALIFORNIA, Modoc, CA02, -120.671, 41.530, 5022, 28.8, M
DIABLO GRANDE CALIFORNIA, Stanislaus, CA05, -121.294, 37.329, 1850, 44.9, M
DEMOCRAT CALIFORNIA, Kern, CA05, -118.630, 35.532, 2356, 46.8, M
DINKEY CALIFORNIA, Fresno, CA05, -119.039, 37.066, 5668, 33.5, M
DOG VALLEY CALIFORNIA, Sierra, CA03, -120.048, 39.562, 5976, 30.4, M
DOYLE CALIFORNIA, Lassen, CA03, -120.106, 40.022, 4240, 33.3, M
DEL VALLE CALIFORNIA, Los Angeles, CA06, -118.683, 34.431, 1278, 52.5, M
DEVORE CALIFORNIA, San Bernardino, CA06, -117.404, 34.221, 2057, 51.4, M
EAGLE PEAK CALIFORNIA, Tehama, CA02, -122.657, 39.928, 3713, 41.5, M
EEL RIVER CAMP CALIFORNIA, Humboldt, CA01, -123.824, 40.138, 446, 45.4, M
EEL RIVER CALIFORNIA, Mendocino, CA01, -123.083, 39.833, 1500, 40.7, M
EL CARISO CALIFORNIA, Riverside, CA06, -117.411, 33.647, 3038, 51.6, M
MOUNT ELIZABETH CALIFORNIA, Tuolumne, CA05, -120.247, 38.063, 4933, 41.1, M
EL MIRAGE CALIFORNIA, San Bernardino, CA07, -117.550, 34.634, 2880, 42.9, M
ESPERANZA CALIFORNIA, Calaveras, CA05, -120.515, 38.243, 2559, 44.0, M
FANCHER CREEK CALIFORNIA, Fresno, CA05, -119.466, 36.884, 920, 44.9, M
FAWNSKIN CALIFORNIA, San Bernardino, CA06, -116.899, 34.266, 6900, 34.2, M
FORT HUNTER LIGGET CALIFORNIA, Monterey, CA04, -121.242, 36.012, 1100, 46.1, M
FIGUEROA CALIFORNIA, Santa Barbara, CA06, -120.007, 34.733, 3200, 49.6, M
FISH CREEK MTN CALIFORNIA, Imperial, CA07, -116.067, 32.990, 760, 60.2, M
FIVE MILE CALIFORNIA, Inyo, CA07, -117.918, 35.872, 4150, 44.5, M
FORT ORD #2 CALIFORNIA, Monterey, CA04, -121.786, 36.627, 490, 49.3, M
FORESTHILL CALIFORNIA, Placer, CA02, -120.732, 39.091, 4355, 41.5, M
FOUNTAIN SPRINGS CALIFORNIA, Tulare, CA05, -118.915, 35.892, 210, 43.7, M
FREMONT CANYON CALIFORNIA, Orange, CA06, -117.711, 33.808, 1781, 54.1, M
FRIEND MOUNTAIN CALIFORNIA, Trinity, CA01, -123.342, 40.505, 4000, 37.2, M
GASQUET CALIFORNIA, Del Norte, CA01, -123.979, 41.846, 500, 41.7, M
GRASSHOPPER CALIFORNIA, Lassen, CA03, -120.784, 40.782, 6158, 28.0, M
GOOSE VALLEY CALIFORNIA, San Diego, CA06, -116.846, 33.074, 1530, 52.3, M
GORDON CALIFORNIA, Lassen, CA03, -120.896, 40.759, 6200, 29.4, M
GREEN SPRING CALIFORNIA, Tuolumne, CA05, -120.500, 37.833, 1020, 43.8, M
HASTINGS CALIFORNIA, Monterey, CA04, -121.552, 36.389, 1885, 48.5, M
HAWKEYE CALIFORNIA, Sonoma, CA01, -122.917, 38.782, 2000, 45.2, M
HAYFORK CALIFORNIA, Trinity, CA01, -123.165, 40.550, 2323, 36.9, M
HELL HOLE CALIFORNIA, Placer, CA02, -120.422, 39.072, 5240, 38.7, M
HERNANDEZ CALIFORNIA, San Benito, CA04, -120.856, 36.383, 3733, 44.1, M
HIGH GLADE LOOKOUT CALIFORNIA, Lake, CA02, -122.808, 39.208, 4840, 44.4, M
HIGH SIERRA CALIFORNIA, Fresno, CA05, -119.038, 37.315, 7403, 31.2, M
HOPLAND CALIFORNIA, Mendocino, CA01, -123.081, 39.031, 2682, 42.7, M
HOLLISTER CALIFORNIA, San Benito, CA04, -121.362, 36.842, 404, 48.8, M
HUNTER MOUNTAIN CALIFORNIA, Inyo, CA07, -117.474, 36.563, 6880, 34.5, M
HORSE LAKE CALIFORNIA, Lassen, CA03, -120.503, 40.631, 5100, 27.5, M
HOOPA CALIFORNIA, Humboldt, CA01, -123.671, 41.048, 375, 42.1, M
HORSE THIEF SPRINGS CALIFORNIA, San Bernardino, CA07, -115.909, 35.771, 5000, 38.3, M
INDIAN WELL CALIFORNIA, Siskiyou, CA01, -121.538, 41.742, 4770, 32.7, M
JARBO GAP CALIFORNIA, Butte, CA02, -121.489, 39.736, 2490, 42.7, M
JERSEYDALE CALIFORNIA, Mariposa, CA05, -119.839, 37.544, 3900, 42.1, M
JOHNSONDALE CALIFORNIA, Tulare, CA05, -118.545, 35.972, 4700, 36.1, M
VISALIA 2.3 N, Tulare, CA05, -119.319, 36.358, 318, M, 0.66
LINDSAY 0.5 N, Tulare, CA05, -119.088, 36.213, 378, M, 1.58
TERRA BELLA 6.3 W, Tulare, CA05, -119.149, 35.950, 374, M, 0.97
VISALIA 0.7 SSE, Tulare, CA05, -119.318, 36.315, 318, M, 1.37
TULARE 2.4 E, Tulare, CA05, -119.300, 36.202, 292, M, 1.02
SONORA 0.4 W, Tuolumne, CA05, -120.388, 37.983, 1771, M, 3.95
DOUGLAS CITY 2.4 SW, Trinity, CA01, -122.978, 40.633, 1689, M, 3.59
HAWKINS BAR 0.6 NW, Trinity, CA01, -123.530, 40.877, 674, M, 7.17
MAD RIVER 7.4 SE, Trinity, CA01, -123.376, 40.321, 2762, M, 8.18
HAYFORK 7.1 SE, Trinity, CA01, -123.030, 40.500, 2917, M, 1.58
THOUSAND OAKS 2.1 WSW, Ventura, CA06, -118.898, 34.177, 692, M, 2.06
FRAZIER PARK 10.7 WSW, Ventura, CA06, -119.110, 34.746, 5274, M, 0.11
DAVIS 1.2 SE, Yolo, CA02, -121.721, 38.543, 36, M, 1.85
DAVIS 0.8 NE, Yolo, CA02, -121.724, 38.562, 41, M, 1.87
DAVIS 5.8 WNW, Yolo, CA02, -121.840, 38.573, 82, M, 1.79
CORONA 12.5 SE, Riverside, CA06, -117.431, 33.735, 1302, M, 5.56
LYONS VALLEY CALIFORNIA, Lake, CA01, -123.074, 39.126, 3200, 41.7, M
LYTLE CREEK CALIFORNIA, San Bernardino, CA06, -117.480, 34.234, 2792, 49.1, M
MAD RIVER CALIFORNIA, Trinity, CA01, -123.524, 40.463, 2775, 40.6, M
MALIBU HILLS CALIFORNIA, Los Angeles, CA06, -118.633, 34.058, 1575, 54.9, M
MANZANITA LAKE CALIFORNIA, Shasta, CA02, -121.580, 40.540, 5660, 31.4, M
MARIPOSA GROVE CALIFORNIA, Mariposa, CA05, -119.605, 37.513, 6400, 39.4, M
MILL CREEK (BDF) CALIFORNIA, San Bernardino, CA06, -117.035, 34.084, 2950, 50.4, M
MCGUIRES CALIFORNIA, Mendocino, CA01, -123.601, 39.353, 593, 44.7, M
MEANS LAKE CALIFORNIA, San Bernardino, CA07, -116.517, 34.391, 2900, 45.3, M
METCALF GAP CALIFORNIA, Madera, CA05, -119.768, 37.409, 3077, 43.3, M
MEYERS CALIFORNIA, El Dorado, CA03, -120.018, 38.849, 6310, 37.5, M
MID HILLS CALIFORNIA, San Bernardino, CA07, -115.411, 35.123, 5413, 39.3, M
MILL CREEK (ANF) CALIFORNIA, Los Angeles, CA06, -118.082, 34.390, 5021, 42.7, M
MILO CALIFORNIA, Tulare, CA05, -118.869, 36.231, 1923, 45.1, M
MALLORY RIDGE CALIFORNIA, Contra Costa, CA05, -121.779, 37.817, 2040, 44.4, M
MONTECITO CALIFORNIA, Santa Barbara, CA06, -119.648, 34.461, 1500, 53.7, M
MODOC NWR CALIFORNIA, Modoc, CA02, -120.354, 41.459, 4380, 29.6, M
MOJAVE RIVER SINK CALIFORNIA, San Bernardino, CA07, -116.079, 35.053, 950, 47.1, M
MOUNTAIN REST CALIFORNIA, Fresno, CA05, -119.371, 37.054, 4100, 42.8, M
MARKLEEVILLE CALIFORNIA, Alpine, CA03, -119.767, 38.683, 5501, 33.2, M
MT. SHASTA CALIFORNIA, Siskiyou, CA02, -122.316, 41.316, -, 33.8, M
MARIPOSA CALIFORNIA, Mariposa, CA05, -119.987, 37.504, 2231, 43.0, M
MT. DIABLO CALIFORNIA, Contra Costa, CA05, -121.914, 37.882, 3849, 41.5, M
MOUNT ZION CALIFORNIA, Amador, CA05, -120.651, 38.389, 2960, 43.1, M
NORTH FORK CALIFORNIA, Madera, CA05, -119.505, 37.233, 2720, 43.4, M
OAK BOTTOM CALIFORNIA, Shasta, CA02, -122.606, 40.651, 1326, 43.9, M
OAK KNOLL CALIFORNIA, Siskiyou, CA01, -122.850, 41.839, 1940, 37.0, M
OAK MOUNTAIN CALIFORNIA, Shasta, CA02, -121.983, 41.006, 1700, 39.9, M
OAK CREEK CALIFORNIA, Inyo, CA07, -118.259, 36.843, 4855, 40.1, M
OJAI CALIFORNIA, Ventura, CA06, -119.230, 34.448, 765, 50.1, M
OAK GROVE CALIFORNIA, San Diego, CA06, -116.795, 33.393, 2752, 49.5, M
OAKLAND NORTH CALIFORNIA, Contra Costa, CA04, -122.221, 37.865, 1403, 46.5, M
OAK OPENING CALIFORNIA, Tulare, CA05, -118.702, 36.175, 3240, 44.1, M
OPAL MOUNTAIN CALIFORNIA, San Bernardino, CA07, -117.176, 35.154, 3240, 45.6, M
OWENS CAMP LOC CALIFORNIA, El Dorado, CA02, -120.245, 38.733, 5240, 37.7, M
OWENS VALLEY CALIFORNIA, Inyo, CA07, -118.551, 37.390, 4640, 38.7, M
OZENA CALIFORNIA, Ventura, CA06, -119.354, 34.682, 3670, 44.9, M
PANAMINT CALIFORNIA, Inyo, CA07, -117.088, 36.120, 6880, 37.6, M
PARKFIELD CALIFORNIA, Monterey, CA04, -120.432, 35.899, 1535, 44.2, M
PATTY MOCUS CALIFORNIA, Tehama, CA02, -122.867, 40.295, 3500, 40.6, M
PINE HILLS CALIFORNIA, San Diego, CA06, -116.634, 33.016, -, 46.7, M
PIERCE CALIFORNIA, Plumas, CA02, -120.642, 40.246, 5700, 33.2, M
PINEHURST CALIFORNIA, Fresno, CA05, -119.000, 36.685, 4060, 42.8, M
PIKE COUNTY LOOKOUT CALIFORNIA, Yuba, CA02, -121.202, 39.475, 3714, 42.1, M
PILOT HILL CALIFORNIA, El Dorado, CA02, -121.009, 38.833, 1200, 42.5, M
PIRU CALIFORNIA, Ventura, CA06, -118.810, 34.404, 614, 52.9, M
PARK RIDGE CALIFORNIA, Tulare, CA05, -118.942, 36.724, 7540, 39.3, M
PINNACLES CALIFORNIA, San Benito, CA04, -121.147, 36.471, 1322, 48.0, M
POPPY PARK CALIFORNIA, Los Angeles, CA07, -118.383, 34.733, 2760, 43.9, M
POTRERO CALIFORNIA, San Diego, CA06, -116.609, 32.606, 2345, 49.9, M
POVERTY CALIFORNIA, Santa Clara, CA04, -121.771, 37.443, 2066, 45.7, M
PANOCHE ROAD CALIFORNIA, Fresno, CA05, -120.766, 36.727, 2032, 45.0, M
PULGAS CALIFORNIA, San Mateo, CA04, -122.298, 37.475, 644, 49.6, M
QUARTZ HILL CALIFORNIA, Siskiyou, CA01, -122.934, 41.599, 4225, 35.2, M
QUINCY RD CALIFORNIA, Plumas, CA02, -120.942, 39.973, 3500, 35.0, M
RAVENDALE CALIFORNIA, Lassen, CA03, -120.316, 40.731, 5298, 28.3, M
RANCHITA CALIFORNIA, San Diego, CA07, -116.497, 33.222, 4415, 44.0, M
READER RANCH CALIFORNIA, Nevada, CA02, -121.117, 39.304, 1968, 44.7, M
REDDING AIRPORT CALIFORNIA, Shasta, CA02, -122.291, 40.516, 500, 43.0, M
RICE VALLEY CALIFORNIA, Riverside, CA07, -114.732, 34.061, 820, 51.5, M
ROCK CREEK, Mono, CA07, -118.667, 37.551, 7040, 31.4, M
JUANITA LAKE CALIFORNIA, Siskiyou, CA01, -122.006, 41.786, 5400, 32.5, M
JULIAN CALIFORNIA, San Diego, CA07, -116.591, 33.076, 4240, 43.0, M
JUNIPER CREEK CALIFORNIA, Modoc, CA02, -120.472, 41.332, 4372, 30.6, M
KEENWILD CALIFORNIA, Riverside, CA06, -116.767, 33.667, 4920, 44.6, M
KETTLEMAN HILLS CALIFORNIA, Kings, CA05, -120.057, 36.033, 810, 45.5, M
KNOXVILLE CREEK CALIFORNIA, Lake, CA02, -122.417, 38.862, 2200, 43.9, M
KONOCTI CALIFORNIA, Lake, CA02, -122.706, 38.912, 2163, 44.8, M
LOS BANOS CALIFORNIA, Merced, CA05, -121.053, 37.055, 350, 46.0, M
MT. LAGUNA CALIFORNIA, San Diego, CA07, -116.420, 32.880, 5760, 39.7, M
LA HONDA CALIFORNIA, San Mateo, CA04, -122.255, 37.305, 872, 46.9, M
LA PANZA CALIFORNIA, San Luis Obispo, CA04, -120.187, 35.381, 1630, 42.7, M
LAURAL MOUNTAIN CALIFORNIA, Kern, CA07, -117.699, 35.478, 4390, 42.7, M
LASSEN LODGE CALIFORNIA, Tehama, CA02, -121.714, 40.344, 4159, 40.6, M
LAUFMAN CALIFORNIA, Lassen, CA03, -120.353, 40.142, 5800, 32.9, M
LAYTONVILLE CALIFORNIA, Mendocino, CA01, -123.485, 39.702, 1820, 41.5, M
LADDER BUTTE CALIFORNIA, Lassen, CA02, -121.297, 40.807, 5750, 33.4, M
LEO CARRILLO CALIFORNIA, Los Angeles, CA06, -118.936, 34.046, 50, 55.9, M
LOS GATOS CALIFORNIA, Santa Clara, CA04, -121.943, 37.203, 2000, 48.4, M
LOST HORSE CALIFORNIA, Riverside, CA07, -116.188, 34.018, 4200, 42.4, M
LINCOLN CALIFORNIA, Placer, CA02, -121.268, 38.883, 200, 43.6, M
LOWER KLAMATH CALIFORNIA, Siskiyou, CA01, -121.700, 41.999, 4098, 28.0, M
LOS PRIETOS CALIFORNIA, Santa Barbara, CA06, -119.783, 34.536, 1020, 49.5, M
LAS FLORES CALIFORNIA, San Diego, CA06, -117.439, 33.289, 100, 56.0, M
LAS TABLAS CALIFORNIA, San Luis Obispo, CA04, -120.924, 35.656, 994, 44.5, M
LITTLE TUJUNGA CALIFORNIA, Los Angeles, CA06, -118.361, 34.294, 1390, 54.3, M
Alturas Area, -, -, -, -, -, 26.2, 1.45
Mount Shasta Area, -, -, -, -, -, 32.1, 1.61
Palmdale Area, -, -, -, -, -, 43.2, 1.43
Lancaster Area, -, -, -, -, -, 43.2, 0.92
SANTA ROSA ISLAND CALIFORNIA, Santa Barbara, CA06, -120.078, 33.978, 1298, 51.3, M
SANTA ROSA PLATEAU CALIFORNIA, Riverside, CA06, -117.231, 33.529, 1980, 51.7, M
SANTA ROSA CALIFORNIA, Sonoma, CA01, -122.712, 38.479, 576, 46.0, M
STAMPEDE CALIFORNIA, Sierra, CA03, -120.075, 39.483, 6867, 31.2, M
STONYFORD CALIFORNIA, Colusa, CA02, -122.575, 39.367, 1200, 43.0, M
SUGARLOAF (SHF) CALIFORNIA, Shasta, CA02, -122.438, 40.917, 4200, 40.9, M
TALEGA CALIFORNIA, San Diego, CA06, -117.486, 33.478, 1203, 55.9, M
TANBARK CALIFORNIA, Los Angeles, CA06, -117.761, 34.207, 2600, 50.6, M
TARGET RANGE CALIFORNIA, San Diego, CA06, -117.359, 33.372, 918, 55.8, M
TEMESCAL (LPF) CALIFORNIA, Ventura, CA06, -118.756, 34.481, 1140, 52.6, M
THOMES CREEK CALIFORNIA, Tehama, CA02, -122.610, 39.864, 1040, 45.3, M
THOUSAND OAKS CALIFORNIA, Ventura, CA06, -118.870, 34.210, 795, 51.6, M
TIMBER MOUNTAIN CALIFORNIA, Modoc, CA01, -121.298, 41.629, 4960, 31.0, M
TEMESCAL (CNF) CALIFORNIA, Riverside, CA06, -117.483, 33.763, 1125, 53.6, M
MOUNT TOM CALIFORNIA, Fresno, CA05, -119.178, 37.376, 9018, 33.8, M
LAS TRAMPAS CALIFORNIA, Contra Costa, CA04, -122.067, 37.834, 1760, 44.2, M
TRINITY CAMP CALIFORNIA, Trinity, CA01, -122.804, 40.786, 3308, 36.1, M
TRIMMER CALIFORNIA, Fresno, CA05, -119.305, 36.911, 1540, 44.8, M
GAYLOR MEADOW CALIFORNIA, Tuolumne, CA05, -119.318, 37.868, 9270, 24.6, M
UHL / HOT SPRINGS, Tulare, CA05, -118.633, 35.889, 3720, 43.2, M
UNDERWOOD CALIFORNIA, Trinity, CA01, -123.495, 40.722, 2600, 38.3, M
VALLEY CENTER CALIFORNIA, San Diego, CA06, -117.009, 33.237, 1483, 52.6, M
VAN BREMMER CALIFORNIA, Siskiyou, CA01, -121.794, 41.643, 4928, 32.7, M
VALYERMO CALIFORNIA, Los Angeles, CA07, -117.851, 34.446, 3780, 42.7, M
VANDENBERG CALIFORNIA, Santa Barbara, CA06, -120.486, 34.759, 1050, 52.0, M
WALKER CALIFORNIA, Mono, CA03, -119.459, 38.565, 5440, 36.0, M
WALKER PASS CALIFORNIA, Kern, CA05, -118.057, 35.665, 5572, 41.0, M
WARM SPRINGS CALIFORNIA, Los Angeles, CA06, -118.579, 34.596, 4930, 44.4, M
WEED AIRPORT CALIFORNIA, Siskiyou, CA01, -122.454, 41.479, 2930, 33.6, M
WESTWOOD CALIFORNIA, Lassen, CA02, -120.900, 40.307, 5800, 31.8, M
WHITE CLOUD CALIFORNIA, Nevada, CA02, -120.837, 39.317, 4320, 42.3, M
WHITTIER HILLS CALIFORNIA, Los Angeles, CA06, -118.010, 33.984, 950, 55.9, M
WHITMORE CALIFORNIA, Shasta, CA02, -121.899, 40.619, 2417, 42.0, M
WILEY RIDGE CALIFORNIA, Ventura, CA06, -118.841, 34.372, 1645, 52.4, M
WOFFORD HEIGHTS CALIFORNIA, Kern, CA05, -118.499, 35.722, 3150, 43.7, M
WOLVERTON CALIFORNIA, Tulare, CA05, -118.703, 36.445, 5240, 43.5, M
WOODACRE CALIFORNIA, Marin, CA01, -122.645, 37.991, 1400, 46.3, M
WHITAKER PEAK CALIFORNIA, Los Angeles, CA06, -118.740, 34.569, 4120, 46.0, M
WHITE WOLF CALIFORNIA, Tuolumne, CA05, -119.650, 37.851, 8025, 32.0, M
YOLLA BOLLA CALIFORNIA, Trinity, CA01, -123.066, 40.338, 4524, 37.5, M
YUCCA VALLEY CALIFORNIA, San Bernardino, CA07, -116.408, 34.123, 3260, 43.8, M
YUROK CALIFORNIA, Humboldt, CA01, -123.857, 41.290, 495, 42.7, M
HAGAN'S MEADOW, El Dorado, CA03, -119.940, 38.850, 7776, 28.9, 4.90
BLUE LAKES, Alpine, CA05, -119.920, 38.610, 8057, 27.0, 6.40
POISON FLAT, Alpine, CA03, -119.630, 38.510, 7736, 28.4, 5.00
SONORA PASS, Mono, CA03, -119.600, 38.310, 8827, 28.6, 4.90
LEAVITT MEADOWS, Mono, CA03, -119.550, 38.300, 7198, 31.1, 3.70
VIRGINIA LAKES RIDGE, Mono, CA03, -119.230, 38.070, 9445, 29.0, 3.00
LOBDELL LAKE, Mono, CA03, -119.370, 38.440, 9233, 26.6, 3.00
EBBETTS PASS, Alpine, CA03, -119.800, 38.550, 8765, 29.3, 9.00
HEAVENLY VALLEY, El Dorado, CA03, -119.920, 38.920, 8582, 28.0, 6.10
LEAVITT LAKE, Mono, CA03, -119.610, 38.280, 9617, 28.0, 8.20
SPRATT CREEK, Alpine, CA03, -119.820, 38.670, 6115, 33.1, 4.00
MONITOR PASS, Alpine, CA03, -119.610, 38.670, 8310, 30.3, 3.80
BURNSIDE LAKE, Alpine, CA03, -119.890, 38.720, 8129, 26.2, 7.00
SUMMIT MEADOW, Mono, CA03, -119.540, 38.400, 9313, 29.0, 3.60
FORESTDALE CREEK, Alpine, CA03, -119.960, 38.680, 8017, 31.0, 7.90
HORSE MEADOW, Alpine, CA03, -119.890, 38.840, 8557, 30.3, 4.60
CARSON PASS, Alpine, CA02, -119.990, 38.690, 8353, 28.4, 5.40
CROWDER FLAT, Modoc, CA01, -120.750, 41.890, 5170, 28.7, 2.50
CEDAR PASS, Modoc, CA02, -120.300, 41.580, 7030, 27.8, 5.10
DISMAL SWAMP, Modoc, CA03, -120.180, 41.990, 7360, 25.4, 7.80
El Cajon Area, -, -, -, -, -, 56.0, 5.38
Hanford Area, -, -, -, -, -, 43.2, 1.39
El Centro Area, -, -, -, -, -, 55.2, 0.98
Madera Area, -, -, -, -, -, 43.7, 1.17
Merced Area, -, -, -, -, -, 44.2, 1.31
Crescent City Area, -, -, -, -, -, 44.3, 13.44
Escondido Area, -, -, -, -, -, M, M
Sacramento Downtown Area, -, -, -, -, -, 45.3, 1.75
Tahoe City Area, -, -, -, -, -, 28.5, 4.58
Ukiah Area, -, -, -, -, -, 43.4, 3.37
San Jose Area, -, -, -, -, -, 48.1, 1.53
RODEO VALLEY, Mendocino, CA01, -123.321, 39.668, 2428, 41.0, M
ROSE VALLEY CALIFORNIA, Ventura, CA06, -119.184, 34.543, 3331, 42.5, M
ROUND MOUNTAIN, Siskiyou, CA02, -121.464, 41.427, 5258, 29.6, M
ROSE PEAK CALIFORNIA, Alameda, CA04, -121.735, 37.502, 3060, 43.8, M
RUSH CREEK CALIFORNIA, Modoc, CA02, -120.864, 41.294, 4800, 32.2, M
RUTH CALIFORNIA, Trinity, CA01, -123.316, 40.251, 2732, 38.1, M
SACRAMENTO NWR CALIFORNIA, Glenn, CA02, -122.182, 39.417, 120, 44.2, M
SADDLEBACK BUTTE CALIFORNIA, Los Angeles, CA07, -117.821, 34.685, 2590, 43.2, M
SAUGUS CALIFORNIA, Los Angeles, CA06, -118.525, 34.425, 1450, 52.8, M
SAWYERS BAR CALIFORNIA, Siskiyou, CA01, -123.132, 41.300, 2192, 37.9, M
SANTA BARBARA ISLAND CALIFORNI, Santa Barbara, CA06, -119.033, 33.483, 176, 55.5, M
SANTA CRUZ ISLAND CALIFORNIA, Santa Barbara, CA06, -119.722, 33.996, 250, 53.5, M
SCORPION CALIFORNIA, Trinity, CA01, -122.697, 41.112, 4400, 37.5, M
SADDLEBACK CALIFORNIA, Sierra, CA02, -120.865, 39.638, 6670, 35.6, M
SECRET TOWN CALIFORNIA, Nevada, CA02, -120.885, 39.184, 2826, 44.2, M
SANTA FE DAM CALIFORNIA, Los Angeles, CA06, -117.946, 34.121, 500, 56.0, M
SHAVER CALIFORNIA, Fresno, CA05, -119.256, 37.135, 5746, 34.3, M
SCHOOL HOUSE CALIFORNIA, Humboldt, CA01, -123.906, 41.138, 2640, 40.0, M
SHIP MTN. CALIFORNIA, Del Norte, CA01, -123.792, 41.736, 5300, 35.5, M
SHADEQUARTER CALIFORNIA, Tulare, CA05, -118.956, 36.567, 4069, 42.1, M
SIMS CALIFORNIA, Shasta, CA02, -122.373, 41.075, 2400, 39.1, M
SIMI VALLEY CALIFORNIA, Ventura, CA06, -118.814, 34.291, 914, 53.6, M
SLATER BUTTE CALIFORNIA, Siskiyou, CA01, -123.352, 41.859, 4670, 37.7, M
SAN MIGUEL CALIFORNIA, San Diego, CA06, -116.974, 32.685, 425, 56.5, M
SAN LUIS NWR CALIFORNIA, Merced, CA05, -120.794, 37.182, 65, 44.4, M
SANTA RITA CALIFORNIA, San Benito, CA05, -120.598, 36.348, 5000, 42.5, M
SOLDIER MOUNTAIN CALIFORNIA, Shasta, CA02, -121.586, 40.926, 3710, 36.5, M
SOMES BAR CALIFORNIA, Siskiyou, CA01, -123.496, 41.390, 920, 40.7, M
SQUAW SPRINGS CALIFORNIA, San Bernardino, CA07, -117.568, 35.370, 3620, 45.2, M
SQUAW LAKE CALIFORNIA, Imperial, CA07, -114.494, 32.908, 300, 56.7, M
ADIN MTN, Modoc, CA02, -120.790, 41.240, 6190, 27.9, 4.80
INDEPENDENCE CREEK, Sierra, CA03, -120.280, 39.490, 6456, 29.1, 4.50
INDEPENDENCE CAMP, Sierra, CA03, -120.290, 39.450, 7003, 31.1, 3.80
INDEPENDENCE LAKE, Nevada, CA03, -120.310, 39.430, 8352, 28.9, 6.60
TRUCKEE #2, Placer, CA03, -120.180, 39.300, 6509, 31.9, 5.70
WARD CREEK #3, Placer, CA03, -120.220, 39.140, 6655, 31.3, 11.60
TAHOE CITY CROSS, Placer, CA03, -120.150, 39.170, 6797, 33.1, 7.00
SQUAW VALLEY G.C., Placer, CA03, -120.260, 39.190, 8029, 30.4, 11.00
CSS LAB, Nevada, CA02, -120.370, 39.330, 6855, 31.8, 10.40
RUBICON #2, El Dorado, CA03, -120.130, 39.000, 7689, 31.4, 6.90
ECHO PEAK, El Dorado, CA03, -120.080, 38.850, 7670, 32.2, 10.60
FALLEN LEAF, El Dorado, CA03, -120.050, 38.930, 6236, 31.0, 4.90
CAMPO ASOS, San Diego, CA07, -116.468, 32.626, 2641, 46.0, 4.63
Burbank Glendale Pasadena Area, -, -, -, -, -, 53.1, 2.18
Camarillo Area, -, -, -, -, -, 51.8, 1.45
Needles Area, -, -, -, -, -, 51.7, 1.12
Oxnard Area, -, -, -, -, -, 53.3, 2.14
Palm Springs Area, -, -, -, -, -, 55.0, 2.53
Riverside Area, -, -, -, -, -, 54.0, 0.00
Ramona Area, -, -, -, -, -, 49.5, 4.99
Northern CA 8 Station Index, -, -, -, -, -, M, 6.08
San Joaquin 5 Station Index, -, -, -, -, -, M, 6.60
LEE VINING 5.9 NW, Mono, CA03, -119.170, 38.034, 7094, M, 1.27
MARIPOSA 3.7 NNW, Mariposa, CA05, -119.988, 37.540, 2942, M, 3.79
WOODACRE 0.6 SW, Marin, CA01, -122.635, 38.005, 439, M, 4.22
SAN ANSELMO 1.2 NNW, Marin, CA01, -122.580, 37.997, 370, M, 3.86
NOVATO 4.8 WNW, Marin, CA01, -122.644, 38.106, 246, M, 2.89
SAN ANSELMO 0.4 NE, Marin, CA01, -122.564, 37.987, 107, M, 4.20
IGNACIO 0.6 SW, Marin, CA01, -122.546, 38.065, 57, M, 2.75
MONTEREY 1.0 W, Monterey, CA04, -121.899, 36.603, 123, M, 3.12
CARMEL VALLEY VILLAGE 0.8 SSW, Monterey, CA04, -121.728, 36.476, 359, M, 2.25
LOCKWOOD 3.6 NW, Monterey, CA04, -121.117, 35.981, 1181, M, 1.20
PACIFIC GROVE 0.7 ESE, Monterey, CA04, -121.913, 36.619, 119, M, 2.51
KING CITY 13.2 S, Monterey, CA04, -121.174, 36.025, 1104, M, 1.33
CASTROVILLE 1.6 ENE, Monterey, CA04, -121.728, 36.776, 18, M, 2.82
MONTEREY 1.5 ESE, Monterey, CA04, -121.856, 36.594, 108, M, 2.67
KING CITY 2.0 SSW, Monterey, CA04, -121.146, 36.187, 371, M, 0.67
PACIFIC GROVE 1.5 SSW, Monterey, CA04, -121.932, 36.602, 280, M, 2.73
BIG SUR 4.0 SE, Monterey, CA04, -121.763, 36.224, 824, M, 1.70
NEVADA CITY 3.4 NNW, Nevada, CA02, -121.040, 39.307, 2390, M, 8.79
KINGVALE 1.3 WSW, Nevada, CA02, -120.452, 39.317, 6035, M, 10.80
GRASS VALLEY 5.5 ESE, Nevada, CA02, -120.963, 39.190, 2763, M, 5.74
GRASS VALLEY 5.0 S, Nevada, CA02, -121.042, 39.149, 2312, M, 7.16
ALTA SIERRA 1.3 S, Nevada, CA02, -121.057, 39.104, 2154, M, 1.18
ROUGH AND READY 0.5 NW, Nevada, CA02, -121.143, 39.234, 2010, M, 4.06
ALTA SIERRA 0.4 WSW, Nevada, CA02, -121.060, 39.120, 2303, M, 3.65
NEVADA CITY 5.4 W, Nevada, CA02, -121.121, 39.268, 1982, M, 3.46
GRASS VALLEY 0.6 NNW, Nevada, CA02, -121.062, 39.229, 2661, M, 0.00
GRASS VALLEY 0.5 NNW, Nevada, CA02, -121.059, 39.229, 2669, M, 0.00
ORANGE 3.5 ENE, Orange, CA06, -117.770, 33.829, 811, M, 2.77
YORBA LINDA 1.9 SSW, Orange, CA06, -117.781, 33.865, 361, M, 3.51
LAGUNA NIGUEL 0.9 W, Orange, CA06, -117.720, 33.528, 477, M, 3.85
SILVERADO 1.0 ESE, Orange, CA06, -117.620, 33.746, 1394, M, 6.60
SODA SPRINGS 1.5 SSW, Placer, CA02, -120.384, 39.302, 6887, M, 10.79
LINCOLN 0.9 SSW, Placer, CA02, -121.322, 38.888, 131, M, 2.23
ROSEVILLE 4.7 WNW, Placer, CA02, -121.377, 38.780, 96, M, 1.79
ROSEVILLE 0.8 ENE, Placer, CA02, -121.279, 38.763, 170, M, 0.10
COLFAX 1.0 WNW, Placer, CA02, -120.970, 39.101, 2260, M, 5.71
IDYLLWILD 1.8 NW, Riverside, CA06, -116.735, 33.763, 6325, M, 7.25
DESERT HOT SPRINGS 3.0 NW, Riverside, CA07, -116.541, 33.985, 1339, M, 2.76
HEMET 4.1 ENE, Riverside, CA06, -116.920, 33.753, 1698, M, 3.32
CORONA 12.8 SE, Riverside, CA06, -117.428, 33.731, 1404, M, 5.83
HOMELAND 1.7 NNE, Riverside, CA06, -117.092, 33.769, 2248, M, 5.48
LAKE ELSINORE 3.5 WSW, Riverside, CA06, -117.381, 33.657, 1356, M, 5.31
CARMICHAEL 1.6 SW, Sacramento, CA02, -121.340, 38.617, 102, M, 2.15
SACRAMENTO 8.0 NE, Sacramento, CA02, -121.361, 38.635, 95, M, 2.42
FOLSOM 3.4 ESE, Sacramento, CA05, -121.091, 38.655, 594, M, 2.67
CARMICHAEL 0.9 NE, Sacramento, CA02, -121.306, 38.643, 130, M, 2.14
CARMICHAEL 1.4 W, Sacramento, CA02, -121.345, 38.638, 109, M, 2.20
FOLSOM 1.2 SSE, Sacramento, CA02, -121.140, 38.660, 362, M, 2.64