Name, County, ClimateDivision, Longitude, Latitude, Elevation, MeanAvgTemperature, TotalPrecipitation
IMPERIAL, Imperial, CA07, -115.567, 32.849, -64, 88.9, T
EL CAPITAN DAM, San Diego, CA06, -116.815, 32.886, 600, 73.1, 0.00
LAKESIDE 2 E, San Diego, CA06, -116.895, 32.854, 690, M, 0.00
POWAY VALLEY, San Diego, CA06, -117.031, 33.020, 648, 73.7, 0.00
JULIAN CDF, San Diego, CA06, -116.592, 33.076, 4215, 72.8, 0.02
SAN PASQUAL ANIMAL PK, San Diego, CA06, -116.997, 33.096, 420, 77.3, 0.00
CARLSBAD MCCLELLAN PALOMAR AP, San Diego, CA06, -117.277, 33.130, 313, 70.3, 0.03
HENSHAW DAM, San Diego, CA06, -116.761, 33.237, 2700, 68.6, 1.40
VISTA, San Diego, CA06, -117.232, 33.235, 430, 74.5, 0.00
OCEANSIDE MARINA, San Diego, CA06, -117.395, 33.210, 10, 69.0, 0.00
BORREGO DESERT PARK, San Diego, CA07, -116.404, 33.256, 810, 88.4, T
PALOMAR MTN OBSERVATORY, San Diego, CA06, -116.840, 33.378, 5550, 71.9, 0.63
MECCA FIRE STATION, Riverside, CA07, -116.073, 33.570, -183, 88.1, 0.00
LAGUNA BEACH, Orange, CA06, -117.781, 33.545, 44, 70.4, 0.00
BLYTHE ASOS, Riverside, CA07, -114.715, 33.619, 395, 90.0, 0.03
DESERT RESORTS REGIONAL AP, Riverside, CA07, -116.164, 33.632, -118, 85.4, 0.10
BARSTOW-DAGGETT AIRPORT, San Bernardino, CA07, -116.787, 34.854, 1919, 83.3, 0.00
MERCED, Merced, CA05, -120.516, 37.289, 154, 76.9, 0.08
SAN DIEGO MONTGOMERY FIELD, San Diego, CA06, -117.137, 32.815, 418, 76.2, 0.00
SAN DIEGO INTERNATIONAL AP, San Diego, CA06, -117.183, 32.734, 15, 72.1, T
SAN DIEGO MIRAMAR NAS, San Diego, CA06, -117.133, 32.867, 477, 73.5, 0.02
NORTH ISLAND NAS, San Diego, CA06, -117.210, 32.692, 14, 74.0, 0.02
SAN FRANCISCO INTERNATIONAL AP, San Mateo, CA04, -122.366, 37.620, 10, 66.2, 0.27
SAN LUIS OBISPO MCCHESNEY FIELD, San Luis Obispo, CA04, -120.644, 35.238, 183, 70.2, 0.02
CEDARVILLE, Modoc, CA03, -120.179, 41.530, 4688, 65.8, 0.00
CHICO UNIVERSITY FARM, Butte, CA02, -121.821, 39.691, 185, 74.0, 0.00
CHULA VISTA, San Diego, CA06, -117.086, 32.640, 56, 72.1, 0.00
COLFAX, Placer, CA02, -120.947, 39.090, 2373, 72.2, 0.12
CUYAMACA, San Diego, CA06, -116.587, 32.990, 4640, 67.3, 0.00
DAVIS 2 WSW EXP FARM, Yolo, CA02, -121.776, 38.535, 60, 73.9, 0.21
DEATH VALLEY NATIONAL PARK, Inyo, CA07, -116.867, 36.463, -194, 94.8, 0.00
FORT BRAGG 5 N, Mendocino, CA01, -123.756, 39.510, 123, 57.0, 0.37
HANFORD 1 S, Kings, CA05, -119.637, 36.316, 237, 76.1, 0.18
HAPPY CAMP RANGER STATION, Siskiyou, CA01, -123.375, 41.796, 1142, 67.6, 0.05
HEALDSBURG, Sonoma, CA01, -122.866, 38.629, 177, 71.8, 0.14
INDIO FIRE STATION, Riverside, CA07, -116.215, 33.709, -21, 91.4, 0.00
LEMON COVE, Tulare, CA05, -119.026, 36.382, 513, 78.4, 0.00
LIVERMORE, Alameda, CA04, -121.751, 37.682, 529, 73.5, 0.31
LODI, San Joaquin, CA05, -121.288, 38.106, 40, 74.4, 0.00
MERCED MUNICIPAL AP, Merced, CA05, -120.518, 37.286, 152, 75.2, 0.17
NAPA STATE HOSPITAL, Napa, CA01, -122.265, 38.278, 35, 71.4, 0.15
OJAI, Ventura, CA06, -119.227, 34.448, 745, 74.3, 0.00
ORLAND, Glenn, CA02, -122.200, 39.746, 254, 76.8, 0.05
ORLEANS, Humboldt, CA01, -123.532, 41.309, 403, 69.3, 0.35
PASADENA, Los Angeles, CA06, -118.145, 34.148, 864, 79.9, 0.00
PASO ROBLES, San Luis Obispo, CA04, -120.685, 35.628, 730, 73.3, 0.05
PETALUMA AIRPORT, Sonoma, CA01, -122.608, 38.258, 20, 68.8, 0.17
QUINCY, Plumas, CA02, -120.947, 39.937, 3420, 66.5, T
REDLANDS, San Bernardino, CA06, -117.195, 34.037, 1410, 78.9, 0.01
SANTA BARBARA, Santa Barbara, CA06, -119.684, 34.417, 16, 72.6, T
SANTA CRUZ, Santa Cruz, CA04, -122.000, 36.988, 70, 65.7, 0.36
SANTA ROSA, Sonoma, CA01, -122.713, 38.456, 166, 69.8, 0.16
TAHOE CITY, Placer, CA03, -120.143, 39.168, 6230, 59.0, T
UKIAH, Mendocino, CA01, -123.210, 39.147, 636, 71.0, 0.02
WASCO, Kern, CA05, -119.352, 35.589, 291, 81.1, 0.14
WEAVERVILLE, Trinity, CA01, -122.940, 40.737, 2058, 68.1, 0.10
WILLOWS 6 W, Glenn, CA02, -122.305, 39.523, 234, 76.5, 0.00
YOSEMITE PARK HEADQUARTERS, Mariposa, CA05, -119.590, 37.750, 4018, 70.1, 0.00
YREKA, Siskiyou, CA01, -122.641, 41.703, 2709, 67.0, 0.05
BERKELEY, Alameda, CA04, -122.260, 37.874, 310, 66.2, 0.44
BLYTHE, Riverside, CA07, -114.597, 33.613, 268, 87.9, 0.00
EUREKA WFO WOODLEY ISLAND, Humboldt, CA01, -124.160, 40.810, 20, 59.5, 1.03
INDEPENDENCE, Inyo, CA07, -118.204, 36.798, 3950, 78.0, 0.02
SAN LUIS OBISPO POLY, San Luis Obispo, CA04, -120.662, 35.306, 308, 67.6, 0.00
BURNEY, Shasta, CA02, -121.655, 40.880, 3198, 62.8, 0.11
IMPERIAL BEACH REAM FIELD NAS, San Diego, CA06, -117.117, 32.568, 24, 67.1, T
CAMPO, San Diego, CA06, -116.470, 32.626, 2630, 71.7, 0.03
CALEXICO 2 NE, Imperial, CA07, -115.464, 32.688, 12, M, T
EL CENTRO 2 SSW, Imperial, CA07, -115.562, 32.767, -30, 90.5, 0.00
IMPERIAL COUNTY AP, Imperial, CA07, -115.577, 32.835, -55, 89.5, T
EL CENTRO NAF, Imperial, CA07, -115.664, 32.832, -46, 89.3, T
ALPINE, San Diego, CA06, -116.777, 32.836, 1695, 76.4, 0.00
ELSINORE, Riverside, CA06, -117.346, 33.686, 1268, 80.1, 0.00
SANTA ANA JOHN WAYNE AP, Orange, CA06, -117.867, 33.680, 43, 73.9, 0.00
HAYFIELD PUMPING PLANT, Riverside, CA07, -115.629, 33.704, 1370, 85.9, 0.30
IDYLLWILD FIRE DEPT, Riverside, CA06, -116.707, 33.757, 5380, 67.6, 0.26
SAN JACINTO, Riverside, CA06, -116.975, 33.797, 1525, 79.4, 0.00
HEMET, Riverside, CA06, -116.894, 33.738, 1811, 79.5, 0.00
SANTA ANA FIRE STATION, Orange, CA06, -117.867, 33.744, 135, 76.3, 0.00
EAGLE MOUNTAIN, Riverside, CA07, -115.451, 33.809, 973, 89.1, 0.19
PALM SPRINGS, Riverside, CA07, -116.510, 33.828, 425, 89.5, 0.00
LONG BEACH DAUGHERTY AP, Los Angeles, CA06, -118.147, 33.812, 34, 75.1, 0.00
PALOS VERDES ES FC43D, Los Angeles, CA06, -118.391, 33.800, 220, M, 0.00
FULLERTON MUNICIPAL AP, Orange, CA06, -117.986, 33.872, 86, 77.0, 0.00
BEAUMONT #2, Riverside, CA07, -116.990, 33.926, 2591, 78.8, 0.00
MARCH AFB, Riverside, CA06, -117.250, 33.900, 1536, 76.2, 0.42
YORBA LINDA, Orange, CA06, -117.819, 33.890, 350, 74.9, 0.00
DOWNEY FIRE DEPT. FC107C, Los Angeles, CA06, -118.145, 33.930, 110, M, 0.00
HAWTHORNE MUNICIPAL AP, Los Angeles, CA06, -118.333, 33.924, 55, 73.6, 0.00
LOS ANGELES INTL AP, Los Angeles, CA06, -118.387, 33.938, 97, 69.9, T
RIVERSIDE MUNICIPAL AP, Riverside, CA06, -117.435, 33.953, 845, 79.5, 0.00
CHINO AP, San Bernardino, CA06, -117.625, 33.976, 636, 77.7, 0.00
WHITTIER CITY YARD FC106C, Los Angeles, CA06, -118.022, 33.976, 446, M, 0.00
RIVERSIDE CITRUS EXP, Riverside, CA06, -117.361, 33.967, 986, 79.4, 0.00
MONTEBELLO, Los Angeles, CA06, -118.105, 34.019, 246, 78.3, 0.00
CULVER CITY, Los Angeles, CA06, -118.414, 34.005, 92, 71.8, 0.00
SANTA MONICA MUNICIPAL AP, Los Angeles, CA06, -118.447, 34.021, 175, 71.4, 0.01
SANTA MONICA PIER, Los Angeles, CA06, -118.500, 34.008, 14, 70.0, 0.00
ONTARIO INTL AP, San Bernardino, CA06, -117.577, 34.053, 924, 79.8, 0.00
POMONA/FAIRPLEX, Los Angeles, CA06, -117.766, 34.082, 999, 77.7, 0.00
COVINA CITY YARD FC387B, Los Angeles, CA06, -117.880, 34.092, 607, M, 0.00
U C L A, Los Angeles, CA06, -118.443, 34.070, 430, 73.3, 0.00
TOPANGA PATROL FC-6, Los Angeles, CA06, -118.599, 34.084, 745, M, 0.00
IRON MOUNTAIN, San Bernardino, CA07, -115.122, 34.147, 922, 91.3, 0.00
TWENTYNINE PALMS, San Bernardino, CA07, -116.037, 34.128, 1975, 84.4, 0.00
JOSHUA TREE, San Bernardino, CA07, -116.275, 34.147, 2563, 80.9, T
SAN DIMAS FIRE FC 95, Los Angeles, CA06, -117.802, 34.105, 958, M, 0.00
SAN GABRIEL FIRE DEPT, Los Angeles, CA06, -118.100, 34.084, 363, 76.4, 0.00
POINT MUGU NF, Ventura, CA06, -119.123, 34.124, 12, 65.5, 0.00
ALTADENA, Los Angeles, CA06, -118.138, 34.182, 1127, M, 0.00
SAN GABRIEL CANYON PH, Los Angeles, CA06, -117.908, 34.155, 744, M, 0.00
WOODLAND HILLS PIERCE COLLEGE, Los Angeles, CA06, -118.574, 34.182, 790, 77.2, 0.00
SAN GABRIEL DAM FC425B-E, Los Angeles, CA06, -117.861, 34.205, 1481, M, 0.00
MT WILSON CBS, Los Angeles, CA06, -118.071, 34.231, 5710, 73.2, 0.00
LA CRESCENTA FC251 C, Los Angeles, CA06, -118.238, 34.222, 1545, M, 0.00
VAN NUYS AP, Los Angeles, CA06, -118.491, 34.212, 785, 78.3, 0.00
CAMARILLO AP, Ventura, CA06, -119.088, 34.211, 71, 69.2, 0.01
OXNARD VENTURA COUNTY AP, Ventura, CA06, -119.204, 34.200, 39, 66.9, 0.05
PARKER RESRVOIR, San Bernardino, CA07, -114.171, 34.290, 738, 89.8, 0.01
TWENTYNINE PALMS MC, San Bernardino, CA07, -116.147, 34.294, 2003, 84.0, 0.00
BIG BEAR LAKE, San Bernardino, CA06, -116.917, 34.243, 6753, 61.1, 0.05
LAKE ARROWHEAD, San Bernardino, CA07, -117.188, 34.247, 5205, 65.8, 0.00
CHATSWORTH FC 24 F, Los Angeles, CA06, -118.600, 34.250, 950, M, 0.02
VENTURA, Ventura, CA06, -119.292, 34.283, 105, M, 0.02
CRYSTAL LAKE FC238C, Los Angeles, CA06, -117.842, 34.318, 5345, M, 0.00
BIG TUJUNGA DAM FC46, Los Angeles, CA06, -118.188, 34.295, 2326, M, 0.00
PACOIMA DAM FC33A-E, Los Angeles, CA06, -118.400, 34.329, 1550, M, 0.00
PIRU 2 ESE, Ventura, CA06, -118.757, 34.406, 712, M, 0.00
SANTA BARBARA MUNI AP, Santa Barbara, CA06, -119.842, 34.424, 8, 67.1, T
JUNCAL DAM, Santa Barbara, CA06, -119.507, 34.491, 2260, M, 0.00
VICTORVILLE, San Bernardino, CA07, -117.293, 34.529, 2880, 78.5, 0.00
ACTON ESCONDIDO FC261, Los Angeles, CA06, -118.271, 34.494, 2833, M, 0.00
GIBRALTAR DAM NO. 2, Santa Barbara, CA06, -119.682, 34.523, 1558, M, 0.00
PALMDALE, Los Angeles, CA07, -118.094, 34.588, 2612, 79.0, 0.00
SAUGUS POWER PLANT 1, Los Angeles, CA06, -118.454, 34.590, 2161, M, 0.00
LOS PRIETOS RS, Santa Barbara, CA06, -119.791, 34.544, 1024, M, 0.00
CACHUMA LAKE, Santa Barbara, CA06, -119.982, 34.582, 789, 73.9, 0.08
SALSIPUEDES GAGING STATION, Santa Barbara, CA06, -120.408, 34.585, 254, M, 0.00
EL MIRAGE, San Bernardino, CA07, -117.630, 34.589, 2950, 75.6, 0.00
PALMDALE AP, Los Angeles, CA07, -118.083, 34.629, 2509, 78.1, T
LOMPOC, Santa Barbara, CA06, -120.451, 34.654, 75, 63.8, 0.00
LANCASTER, Los Angeles, CA06, -118.213, 34.741, 2338, 76.5, 0.00
SANDBERG, Los Angeles, CA06, -118.724, 34.744, 4510, 72.7, 0.00
LEBEC, Kern, CA05, -118.865, 34.833, 3575, 72.6, 0.00
CHUCHUPATE RANGER STN, Ventura, CA05, -119.011, 34.808, 5260, 64.3, 0.00
GAREY SISQUOC RIVER, Santa Barbara, CA06, -120.305, 34.894, 355, M, 0.00
MITCHELL CAVERNS, San Bernardino, CA07, -115.547, 34.944, 4350, 79.2, 0.03
NEW CUYAMA FIRE STATION, Santa Barbara, CA06, -119.683, 34.946, 2160, 73.6, 0.00
TWITCHELL DAM, Santa Barbara, CA06, -120.321, 34.988, 582, 68.4, 0.00
PISMO BEACH, San Luis Obispo, CA04, -120.683, 35.160, 39, 61.6, 0.01
TAFT, Kern, CA05, -119.430, 35.150, 773, 79.6, 0.00
BAKER, San Bernardino, CA07, -116.063, 35.276, 962, 87.3, 0.00
SALINAS DAM, San Luis Obispo, CA04, -120.504, 35.337, 1392, M, T
RANDSBURG, Kern, CA07, -117.652, 35.369, 3570, 78.7, 0.00
SANTA MARGARITA BOOST, San Luis Obispo, CA04, -120.637, 35.374, 1148, M, T
MORRO BAY FIRE DEPT, San Luis Obispo, CA04, -120.845, 35.367, 118, 63.3, 0.16
BAKERSFIELD AP, Kern, CA05, -119.055, 35.434, 490, 80.9, 0.01
BUTTONWILLOW, Kern, CA05, -119.470, 35.403, 225, 78.4, 0.04
GLENNVILLE, Kern, CA05, -118.701, 35.727, 3140, 67.4, 0.00
TRONA, San Bernardino, CA07, -117.391, 35.764, 1695, 84.8, 0.00
DELANO, Kern, CA05, -119.260, 35.768, 302, 78.0, 0.03
BRADLEY TELEMETERING, Monterey, CA04, -120.868, 35.930, 443, M, 0.00
SHOSHONE, Inyo, CA07, -116.271, 35.972, 1546, 85.8, 0.00
PORTERVILLE MUNICIPAL AIRPORT, Tulare, CA05, -119.062, 36.029, 442, 78.6, 0.00
KETTLEMAN CITY, Kings, CA05, -119.960, 36.007, 240, 79.5, 0.52
HAIWEE, Inyo, CA07, -117.953, 36.139, 3825, 80.2, 0.00
CORCORAN IRRIGATION DIST., Kings, CA05, -119.582, 36.098, 200, 76.3, 0.13
COALINGA, Fresno, CA05, -120.361, 36.136, 670, 80.7, 0.03
PRIEST VALLEY, Monterey, CA04, -120.695, 36.188, 2300, 72.1, 0.03
KING CITY, Monterey, CA04, -121.138, 36.207, 320, 70.3, 0.09
LINDSAY, Tulare, CA05, -119.054, 36.203, 435, 76.8, 0.02
BIG SUR STATION, Monterey, CA04, -121.780, 36.247, 200, 65.7, 0.24
VISALIA, Tulare, CA05, -119.300, 36.328, 303, 78.0, 0.02
FIVE POINTS 5 SSW, Fresno, CA05, -120.156, 36.364, 285, 79.7, 0.00
SAN CLEMENTE DAM, Monterey, CA04, -121.709, 36.438, 600, M, 0.06
ASH MOUNTAIN, Tulare, CA05, -118.825, 36.491, 1708, 79.6, 0.00
THREE RIVERS EDISON PH 1, Tulare, CA05, -118.862, 36.465, 1140, 76.8, 0.00
PINNACLES NATIONAL PARK, San Benito, CA04, -121.182, 36.482, 1307, 71.9, 0.22
CARMEL VALLEY, Monterey, CA04, -121.724, 36.481, 480, 68.0, 0.10
LODGEPOLE, Tulare, CA05, -118.732, 36.604, 6735, 57.9, 0.02
PANOCHE 2 W, San Benito, CA05, -120.884, 36.607, 1400, M, 0.01
MONTEREY, Monterey, CA04, -121.855, 36.593, 122, 61.3, 0.27
SALINAS NO. 2, Monterey, CA04, -121.666, 36.659, 45, 63.6, 0.10
SALINAS AP, Monterey, CA04, -121.609, 36.664, 73, 64.5, 0.09
GRANT GROVE, Tulare, CA05, -118.962, 36.738, 6580, 63.8, 0.04
PAICINES 4 W, San Benito, CA04, -121.349, 36.715, 905, 68.8, 0.06
PINE FLAT DAM, Fresno, CA05, -119.337, 36.821, 615, 70.4, 0.00
LOS BANOS ARBURUA RANCH, Merced, CA05, -120.939, 36.875, 843, M, 0.02
HOLLISTER 2, San Benito, CA04, -121.421, 36.848, 275, 70.6, 0.17
BALCH POWER HOUSE, Fresno, CA05, -119.088, 36.909, 1735, 79.8, 0.00
WATSONVILLE WATERWORKS, Santa Cruz, CA04, -121.769, 36.931, 95, 64.6, 0.00
FRIANT GOVERNMENT CAMP, Fresno, CA05, -119.707, 36.997, 410, 77.1, 0.07
MADERA, Madera, CA05, -120.038, 36.954, 270, 76.5, 0.06
WISHON DAM, Fresno, CA05, -118.984, 37.007, 6550, 65.4, 0.00
GILROY, Santa Clara, CA04, -121.561, 37.003, 194, 69.5, 0.00
AUBERRY 2 NW, Fresno, CA05, -119.513, 37.092, 2090, 77.9, 0.04
LOS BANOS, Merced, CA05, -120.867, 37.056, 120, 78.9, 0.01
BEN LOMOND NO. 4, Santa Cruz, CA04, -122.080, 37.086, 420, 69.2, 0.24
MORGAN HILL, Santa Clara, CA04, -121.602, 37.136, 375, 72.1, 0.19
SOUTH LAKE, Inyo, CA07, -118.570, 37.168, 9580, M, M
ASPENDELL, Inyo, CA01, -118.599, 37.232, 8470, 59.6, 0.00
LAKE SABRINA, Inyo, CA07, -118.614, 37.213, 9065, M, M
HUNTINGTON LAKE, Fresno, CA05, -119.221, 37.228, 7020, 59.3, 0.00
BIG CREEK PH 1, Fresno, CA05, -119.242, 37.206, 4878, 70.2, 0.00
NORTH FORK RS, Madera, CA05, -119.510, 37.233, 2645, 75.6, 0.01
LOS GATOS, Santa Clara, CA04, -121.959, 37.232, 365, 69.8, 0.00
BISHOP CREEK INTAKE 2, Inyo, CA07, -118.581, 37.248, 8154, M, M
NEWMAN, Stanislaus, CA05, -121.018, 37.281, 90, 78.4, 0.08
MOUNT HAMILTON, Santa Clara, CA04, -121.635, 37.343, 4220, 69.4, 0.40
BISHOP AIRPORT, Inyo, CA07, -118.359, 37.371, 4110, 70.1, 0.01
MOFFETT FEDERAL AIRFIELD, Santa Clara, CA04, -122.048, 37.406, 39, 69.8, 0.22
WOODSIDE FIRE STATION 1, San Mateo, CA04, -122.256, 37.429, 380, 73.1, 0.00
TURLOCK #2, Stanislaus, CA05, -120.846, 37.502, 103, 77.3, 0.17
PALO ALTO, Santa Clara, CA04, -122.140, 37.444, 25, 67.9, 0.00
REDWOOD CITY, San Mateo, CA04, -122.239, 37.477, 31, 68.3, 0.24
HALF MOON BAY, San Mateo, CA04, -122.443, 37.473, 27, 58.7, 0.53
SO ENTRANCE YOSEMITE N.P., Mariposa, CA05, -119.633, 37.512, 5047, 64.3, 0.02
MARIPOSA R S, Mariposa, CA05, -119.986, 37.495, 2100, M, 0.16
NEWARK, Alameda, CA04, -122.032, 37.515, 10, 68.8, 0.29
MODESTO AP, Stanislaus, CA05, -120.955, 37.625, 87, 76.3, 0.23
HAYWARD AIR TERMINAL, Alameda, CA04, -122.121, 37.659, 31, 68.4, 0.47
TRACY CARBONA, San Joaquin, CA05, -121.347, 37.682, 135, 74.0, 0.28
LIVERMORE MUNICIPAL AP, Alameda, CA04, -121.815, 37.693, 393, 73.1, 0.19
OAKLAND INTERNATIONAL AIRPORT, Alameda, CA04, -122.233, 37.718, 5, 65.5, 0.22
GEM LAKE, Mono, CA03, -119.140, 37.752, 8970, M, 0.00
UPPER SAN LEANDRO FILTERS, Alameda, CA04, -122.167, 37.772, 394, M, 0.40
SAN FRANCISCO DOWNTOWN, San Francisco, CA04, -122.427, 37.771, 150, 63.4, 0.28
SAN FRANCISCO OCEANSIDE, San Francisco, CA04, -122.505, 37.728, 8, 57.1, 0.38
GROVELAND 2, Tuolumne, CA05, -120.226, 37.844, 2800, 70.0, 0.07
TRACY PUMPING PLANT, Alameda, CA05, -121.583, 37.796, 61, 77.2, 0.18
OAKLAND MUSEUM, Alameda, CA04, -122.264, 37.798, 30, 67.3, 0.38
TUOLUMNE MEADOWS R.S., Tuolumne, CA05, -119.344, 37.877, 8694, 50.6, T
MATHER, Tuolumne, CA05, -119.856, 37.885, 4510, M, 0.06
MOUNT DIABLO JUNCTION, Contra Costa, CA04, -121.930, 37.879, 2170, 72.7, 0.32
ELLERY LAKE, Mono, CA03, -119.230, 37.936, 9645, M, M
STOCKTON AP, San Joaquin, CA05, -121.226, 37.890, 27, 74.9, 0.28
RICHMOND, Contra Costa, CA04, -122.377, 37.919, 20, 67.3, 0.00
MUIR WOODS, Marin, CA01, -122.569, 37.898, 220, M, 0.54
HETCH HETCHY, Tuolumne, CA05, -119.783, 37.961, 3870, 69.8, 0.04
CHERRY VALLEY DAM, Tuolumne, CA05, -119.916, 37.975, 4765, 70.6, 0.08
SONORA, Tuolumne, CA05, -120.387, 37.967, 1675, 71.6, 0.16
STOCKTON FIRE STA 4, San Joaquin, CA05, -121.318, 37.999, 12, 76.2, 0.35
ANTIOCH PUMPING PLANT #3, Contra Costa, CA05, -121.752, 37.983, 60, 75.0, 0.00
CONCORD BUCHANAN FIELD, Contra Costa, CA04, -122.053, 37.992, 23, 73.5, 0.07
CONCORD WASTEWATER PLANT, Contra Costa, CA04, -122.069, 37.983, 40, 73.6, 0.06
SAN RAFAEL-CIVIC CENTER, Marin, CA01, -122.537, 37.998, 120, 69.3, 0.31
KENTFIELD, Marin, CA01, -122.545, 37.957, 145, 69.5, 0.37
MARTINEZ WATER PLANT, Contra Costa, CA04, -122.114, 38.013, 40, 71.3, 0.11
BODIE CALIFORNIA STATE HISTORIC PARK, Mono, CA03, -119.014, 38.212, 8370, 53.1, 0.02
ACAMPO 5NE, San Joaquin, CA05, -121.201, 38.218, 87, M, 0.12
NAPA COUNTY AIRPORT, Napa, CA04, -122.280, 38.208, 16, 67.1, 0.11
BRIDGEPORT, Mono, CA03, -119.229, 38.258, 6470, 56.8, 0.25
CAMP PARDEE, Calaveras, CA05, -120.843, 38.249, 658, 76.8, 0.13
TRAVIS FIELD AFB, Solano, CA02, -121.933, 38.267, 62, M, 2.62
FAIRFIELD, Solano, CA02, -122.068, 38.274, 40, 74.2, 0.04
SONOMA, Sonoma, CA01, -122.462, 38.299, 97, 70.3, 0.15
WEST POINT, Calaveras, CA05, -120.545, 38.378, 2775, M, 0.19
ATLAS ROAD BROWN, Napa, CA01, -122.248, 38.427, 1680, M, 0.08
GRATON, Sonoma, CA01, -122.865, 38.431, 200, 67.5, 0.18
OCCIDENTAL, Sonoma, CA01, -122.966, 38.386, 865, 67.5, 0.29
FIDDLETOWN DEXTER RCH, Amador, CA05, -120.698, 38.525, 2170, M, 0.08
SACRAMENTO AP ASOS, Sacramento, CA02, -121.496, 38.507, 19, 74.8, 0.14
WINTERS, Yolo, CA02, -121.978, 38.525, 135, 78.5, 0.10
LAKE SOLANO, Solano, CA02, -122.004, 38.492, 187, 74.5, 0.05
SAINT HELENA 4 WSW, Napa, CA01, -122.538, 38.493, 1780, M, 0.20
FORT ROSS, Sonoma, CA01, -123.245, 38.515, 112, 58.3, 0.38
SACRAMENTO 5 ESE, Sacramento, CA02, -121.418, 38.555, 38, 75.8, 0.19
ANGWIN PACIFIC UNION COLLEGE, Napa, CA01, -122.440, 38.573, 1715, 69.0, 0.03
CALISTOGA, Napa, CA01, -122.578, 38.577, 350, 71.6, 0.03
VENADO, Sonoma, CA01, -123.018, 38.609, 1260, M, 0.28
WOODLAND 1 WNW, Yolo, CA02, -121.794, 38.683, 67, 76.8, 0.26
PLACERVILLE, El Dorado, CA02, -120.824, 38.696, 1850, 75.5, 0.09
REPRESA, Sacramento, CA02, -121.161, 38.694, 295, M, 0.00
SACRAMENTO METROPOLITAN AP, Sacramento, CA02, -121.595, 38.701, 24, 73.9, 0.14
PACIFIC HOUSE, El Dorado, CA02, -120.503, 38.758, 3450, 59.3, 0.16
MIDDLETOWN, Lake, CA02, -122.626, 38.748, 1121, M, 0.07
CLOVERDALE, Sonoma, CA01, -123.026, 38.793, 400, 73.5, T
KELSEY 1 N, El Dorado, CA02, -120.821, 38.809, 2000, M, 0.10
SOUTH LAKE TAHOE AP, El Dorado, CA03, -119.996, 38.898, 6257, 58.4, 0.06
GEORGETOWN RS, El Dorado, CA02, -120.801, 38.933, 3001, M, 0.00
AUBURN, Placer, CA02, -121.084, 38.907, 1292, 76.2, 0.00
NICOLAUS #2, Sutter, CA02, -121.545, 38.926, 43, M, 0.16
YORKVILLE, Mendocino, CA01, -123.231, 38.905, 1100, M, 0.08
CLEARLAKE 4 SE, Lake, CA02, -122.567, 38.924, 1349, 72.4, 0.03
FORESTHILL RANGER STATION, Placer, CA02, -120.845, 39.010, 3015, M, 0.16
MARYSVILLE AIRPORT (ASOS), Yuba, CA02, -121.569, 39.102, 62, 75.4, 0.26
UKIAH MUNICIPAL AP, Mendocino, CA01, -123.200, 39.128, 603, 71.7, 0.01
UKIAH 4 WSW, Mendocino, CA01, -123.272, 39.127, 1328, M, 0.05
GOLD RUN 4 SW, Placer, CA02, -120.900, 39.150, 3220, M, 0.08
WILLIAMS, Colusa, CA02, -122.150, 39.150, 85, M, 0.16
GRASS VALLEY NO. 2, Nevada, CA02, -121.068, 39.204, 2400, 70.2, 0.13
HARRY L. ENGLEBRIGHT DAM, Nevada, CA02, -121.267, 39.237, 800, M, 0.00
COLUSA 2 SSW, Colusa, CA02, -122.027, 39.188, 50, 75.1, 0.14
BLUE CANYON NYACK AP, Placer, CA02, -120.709, 39.276, 5286, 68.6, 0.11
NEVADA CITY, Nevada, CA02, -121.001, 39.247, 2781, 71.6, 0.11
TRUCKEE AIRPORT, Nevada, CA03, -120.139, 39.320, 5900, 56.8, 0.00
DONNER MEMORIAL ST PARK, Nevada, CA03, -120.233, 39.324, 5937, 57.4, 0.02
COLGATE POWERHOUSE, Yuba, CA02, -121.192, 39.331, 595, M, 0.34
MOULTON WEIR, Colusa, CA02, -122.017, 39.333, 76, M, 0.12
BOCA, Nevada, CA03, -120.094, 39.389, 5575, 57.8, 0.02
POTTER VALLEY POWERHOUSE, Mendocino, CA01, -123.129, 39.362, 1018, 71.0, 0.00
FARAD, Nevada, CA03, -120.033, 39.428, 5153, M, 0.11
WILLITS 1 NE, Mendocino, CA01, -123.342, 39.419, 1353, 63.0, 0.12
BOWMAN DAM, Nevada, CA02, -120.656, 39.454, 5385, 67.5, 0.00
OROVILLE, Butte, CA02, -121.553, 39.518, 171, 74.9, 0.81
OROVILLE MUNICIPAL AP, Butte, CA02, -121.622, 39.494, 187, 75.8, 0.59
SIERRAVILLE RS, Sierra, CA02, -120.370, 39.583, 4975, 60.5, 0.00
DOWNIEVILLE, Sierra, CA02, -120.824, 39.563, 2915, 66.7, 0.03
STRAWBERRY VALLEY, Yuba, CA02, -121.108, 39.563, 3808, 66.8, 0.18
STONY GORGE RESERVOIR, Glenn, CA02, -122.534, 39.586, 800, 74.4, 0.07
BRUSH CREEK RANGER STATION, Butte, CA02, -121.345, 39.695, 3560, M, 0.23
PARADISE, Butte, CA02, -121.624, 39.754, 1750, 75.0, 1.49
COVELO, Mendocino, CA01, -123.244, 39.816, 1413, 68.5, 0.00
VINTON, Plumas, CA02, -120.186, 39.806, 4950, 60.6, 0.00
PORTOLA, Plumas, CA02, -120.472, 39.805, 4850, 61.6, T
DE SABLA, Butte, CA02, -121.611, 39.872, 2710, 70.8, 0.96
LEGGETT, Mendocino, CA01, -123.720, 39.874, 703, M, 0.44
STANDISH HICKEY ST PK, Mendocino, CA01, -123.727, 39.878, 853, 66.1, 0.51
DOYLE 4 SSE, Lassen, CA03, -120.083, 39.972, 4390, 63.9, 0.00
DOYLE, Lassen, CA03, -120.105, 40.027, 4293, M, 0.00
RICHARDSON GR ST PK, Humboldt, CA01, -123.793, 40.026, 503, 66.7, 0.48
CANYON DAM, Plumas, CA02, -121.089, 40.171, 4560, 62.7, 0.01
MIRANDA 4 SE, Humboldt, CA01, -123.776, 40.182, 266, M, 0.24
FORT SEWARD, Humboldt, CA01, -123.632, 40.218, 220, M, 0.32
HONEYDEW 1 SW, Humboldt, CA01, -124.132, 40.238, 373, M, 0.44
CHESTER, Plumas, CA02, -121.242, 40.303, 4530, 62.8, 0.00
MINERAL, Tehama, CA02, -121.609, 40.346, 4875, 60.9, 0.12
COLEMAN FISHERIES STATION, Shasta, CA02, -122.143, 40.400, 420, M, 0.35
VOLTA PH, Shasta, CA02, -121.866, 40.458, 2220, M, 0.80
GRIZZLY CREEK STATE PARK, Humboldt, CA01, -123.909, 40.486, 413, M, 0.00
SCOTIA, Humboldt, CA01, -124.104, 40.483, 136, 64.6, 0.45
MANZANITA LAKE, Shasta, CA02, -121.577, 40.541, 5750, 60.7, 0.24
SHASTA DAM, Shasta, CA02, -122.416, 40.714, 1075, 78.5, 0.02
TRINITY RIVER HATCHERY, Trinity, CA01, -122.795, 40.726, 1861, 68.7, 0.03
BIG BAR 4 E, Trinity, CA01, -123.208, 40.741, 1253, 70.2, 0.33
ROUND MOUNTAIN, Shasta, CA02, -121.935, 40.796, 2100, M, 0.25
BUCKHORN, Shasta, CA02, -121.932, 40.880, 3700, M, 0.14
HAT CREEK, Shasta, CA02, -121.543, 40.932, 3015, 63.5, 0.01
PIT RIVER PH 5, Shasta, CA02, -121.977, 40.987, 1458, M, 0.17
WILLOW CREEK 1 NW, Humboldt, CA01, -123.636, 40.947, 464, 69.6, T
FALL RIVER MILLS, Shasta, CA02, -121.435, 41.008, 3300, M, T
ADIN RANGER STATION, Modoc, CA02, -120.945, 41.193, 4202, M, 0.00
DUNSMUIR TREATMENT PL, Siskiyou, CA02, -122.282, 41.183, 2169, 67.2, 0.14
JESS VALLEY, Modoc, CA02, -120.295, 41.268, 5400, 61.7, 0.00
MCCLOUD, Siskiyou, CA02, -122.138, 41.252, 3233, 66.0, 0.00
ORICK, Humboldt, CA01, -124.067, 41.283, 5, M, 0.24
CALLAHAN, Siskiyou, CA01, -122.825, 41.338, 3085, 63.9, 0.12
SAWYERS BAR RS, Siskiyou, CA01, -123.133, 41.301, 2255, 71.2, 0.05
ORLEANS RS, Humboldt, CA01, -123.534, 41.303, 433, M, 0.32
ORICK PRAIRIE CREEK PARK, Humboldt, CA01, -124.019, 41.362, 160, 59.6, 0.70
ALTURAS, Modoc, CA02, -120.544, 41.490, 4378, 60.6, 0.00
FORT JONES RS, Siskiyou, CA01, -122.848, 41.601, 2729, 63.5, 0.00
LAVA BEDS NAT MON, Siskiyou, CA01, -121.501, 41.702, 4770, 64.6, 0.03
MOUNT HEBRON RS, Siskiyou, CA01, -122.045, 41.783, 4265, 58.7, 0.00
CRESCENT CITY 3 NNW, Del Norte, CA01, -124.215, 41.796, 43, 57.2, 0.99
CRESCENT CITY MCNAMARA AP, Del Norte, CA01, -124.238, 41.784, 56, 59.0, 0.70
OAK KNOLL W. C., Siskiyou, CA01, -122.850, 41.839, 1980, M, 0.03
FORT BIDWELL, Modoc, CA03, -120.157, 41.872, 4739, 67.2, 0.00
GASQUET RS, Del Norte, CA01, -123.965, 41.845, 387, M, 0.53
FORT DICK RIVER, Del Norte, CA01, -124.135, 41.881, -, M, 0.56
TULELAKE, Siskiyou, CA01, -121.474, 41.960, 4038, 61.9, 0.02
COPCO NO 1 DAM, Siskiyou, CA01, -122.338, 41.980, 2665, 69.4, T
ELK VALLEY, Del Norte, CA01, -123.718, 41.988, 1708, M, 0.28
BARSTOW, San Bernardino, CA07, -117.022, 34.893, 2220, 80.5, 0.00
INYOKERN, Kern, CA07, -117.821, 35.651, 2430, 79.2, 0.00
PEARBLOSSOM, Los Angeles, CA07, -117.897, 34.503, 3101, 79.1, 0.00
EL CAJON, San Diego, CA06, -116.928, 32.801, 495, 76.9, 0.00
MARKLEY COVE, Napa, CA02, -122.124, 38.492, 480, 74.9, 0.08
LORAINE 5 NNE, Kern, CA05, -118.412, 35.384, 4235, 71.1, 0.00
CORONADO FIRE DEPT, San Diego, CA06, -117.177, 32.692, 18, 72.0, 0.00
DEL MAR FIRE DEPT, San Diego, CA06, -117.262, 32.972, 12, 71.2, 0.00
IMPERIAL BEACH FIRE DEPT, San Diego, CA06, -117.114, 32.576, 22, 68.2, 0.00
LEMON GROVE FIRE DEPARTMENT, San Diego, CA06, -117.030, 32.738, 427, 74.5, 0.00
SPRING VALLEY FIRE DEPT, San Diego, CA06, -117.006, 32.710, 270, 76.5, 0.00
SANTEE FIRE DEPT, San Diego, CA06, -116.973, 32.841, 340, 76.6, 0.00
LEE VINING, Mono, CA07, -119.119, 37.957, 6797, 63.4, T
ANAHEIM, Orange, CA06, -117.842, 33.865, 235, 78.1, 0.00
RED BLUFF TREATMENT PLANT, Tehama, CA02, -122.220, 40.162, 265, M, 0.04
NEW MELONES DAM HQ, Tuolumne, CA05, -120.486, 38.005, 960, 78.4, 0.43
MAMMOTH LAKES RS, Mono, CA07, -118.962, 37.648, 7804, 57.8, 0.22
FRAZIER PARK 9 SW, Ventura, CA05, -119.104, 34.733, 5169, M, 0.23
MONTEREY WFO, Monterey, CA04, -121.855, 36.593, 122, 60.3, 0.15
SKYLINE RIDGE PRESERVE, San Mateo, CA04, -122.185, 37.313, 2270, 70.5, 0.46
FREMONT, Alameda, CA04, -122.016, 37.542, 38, 69.3, 0.33
MAD RIVER 12 SE, Trinity, CA01, -123.374, 40.319, 2763, M, 0.16
NEWHALL 5NW, Los Angeles, CA06, -118.594, 34.393, 1765, 80.7, T
TEHACHAPI 4 SE, Kern, CA05, -118.422, 35.101, 4220, 68.7, 0.00
WRIGHTWOOD, San Bernardino, CA07, -117.639, 34.362, 6000, 66.5, 0.00
REDDING CDF, Shasta, CA02, -122.299, 40.519, 502, M, T
NORTHRIDGE CAL STATE, Los Angeles, CA06, -118.525, 34.245, 904, 78.7, 0.00
OXNARD WFO, Ventura, CA06, -119.137, 34.207, 52, 69.4, 0.00
HANFORD MUNICIPAL AP, Kings, CA05, -119.623, 36.311, 249, 75.3, 0.02
RAMONA AIRPORT, San Diego, CA06, -116.916, 33.038, 1385, 74.0, 0.04
VACAVILLE/NUT TREE AP ASOS, Solano, CA02, -121.959, 38.378, 104, 77.4, 0.04
ALTURAS MUNICIPAL AP, Modoc, CA02, -120.561, 41.484, 4383, 60.7, 0.00
MADERA MUNICIPAL AP, Madera, CA05, -120.111, 36.985, 251, 76.3, 0.04
BAKERSFIELD 5 NW, Kern, CA05, -119.051, 35.419, 470, 80.7, 0.00
FRESNO 5 NE, Fresno, CA05, -119.709, 36.767, 338, 79.6, 0.03
OCEANSIDE MUNICIPAL AP, San Diego, CA06, -117.350, 33.219, 30, 69.0, 0.02
SAN DIEGO SEAWORLD, San Diego, CA06, -117.231, 32.765, 14, 69.2, 0.02
ARCATA EUREKA AP, Humboldt, CA01, -124.105, 40.978, 211, 57.7, 0.63
CHICO ARMY FLYING SCH, Butte, CA02, -121.850, 39.800, 272, 75.5, 0.35
NEWPORT BEACH HARBOR, Orange, CA06, -117.884, 33.603, 10, 70.0, 0.00
REDDING AP, Shasta, CA02, -122.298, 40.515, 501, 76.6, 0.12
AVALON CATALINA AP, Los Angeles, CA06, -118.415, 33.404, 1565, 73.5, 0.02
SANTA MARIA PUBLIC AP, Santa Barbara, CA06, -120.452, 34.894, 243, 63.9, 0.01
MOUNT SHASTA, Siskiyou, CA02, -122.333, 41.333, 3535, 63.9, 0.29
RED BLUFF MUNI AP, Tehama, CA02, -122.255, 40.152, 354, 77.4, 0.07
NEEDLES AIRPORT, San Bernardino, CA07, -114.618, 34.768, 888, 90.4, T
CHINA LAKE NAF, Kern, CA07, -117.693, 35.688, 2230, 80.0, 0.00
SUSANVILLE 2SW, Lassen, CA03, -120.663, 40.417, 4212, 65.7, 0.00
TEJON RANCHO, Kern, CA05, -118.750, 35.023, 1425, 81.4, 0.00
SAN NICOLAS IS, Ventura, CA06, -119.458, 33.240, 568, 70.5, 0.00
BURBANK GLENDALE PASADENA AP, Los Angeles, CA06, -118.365, 34.200, 731, 77.6, 0.00
ENCINITAS 2.7N, San Diego, CA06, -117.292, 33.076, 188, M, 0.00
MOUNT SHASTA, Siskiyou, CA02, -122.317, 41.322, 3613, 65.8, 0.23
WATSONVILLE MUNICIPAL AIRPORT, Santa Cruz, CA04, -121.790, 36.939, 162, 65.1, 0.05
SANTA ROSA SONOMA CO AP, Sonoma, CA04, -122.811, 38.504, 119, 67.5, 0.17
TWENTYNINE PALMS 12E - WONDER VALLEY, San Bernardino, CA07, -115.850, 34.121, 1376, 85.7, 0.00
MORONGO VALLEY NORTH, San Bernardino, CA07, -116.562, 34.086, 3145, 80.2, 0.00
AMBOY ROAD EAST, San Bernardino, CA06, -115.804, 34.161, 1272, 83.3, 0.05
NILAND 4NE, Imperial, CA07, -115.477, 33.272, 75, 90.7, 0.35
SHAFTER 6E, Kern, CA05, -119.146, 35.487, 404, 76.3, 0.00
TRUCKEE-TAHOE AP, Nevada, CA03, -120.145, 39.318, 5900, 56.3, T
HEARST CASTLE, San Luis Obispo, CA04, -121.168, 35.684, 1526, 75.3, 0.00
GETTY CENTER, Los Angeles, CA06, -118.479, 34.087, 1117, 75.3, 0.00
HESPERIA 2E, San Bernardino, CA07, -117.266, 34.421, 3055, 82.8, 0.00
RANCHO BERNARDO, San Diego, CA06, -117.081, 33.022, 690, 74.9, T
SAN JUAN CANYON, Orange, CA06, -117.552, 33.532, 375, 71.6, 0.00
YOUNTVILLE, Napa, CA01, -122.357, 38.395, 95, 71.0, M
APPLE VALLEY #2, San Bernardino, CA07, -117.279, 34.536, 2780, 74.9, 0.00
OCOTILLO WELLS 2W, San Diego, CA07, -116.169, 33.155, 390, 91.6, 0.00
IRVINE RANCH, Orange, CA06, -117.723, 33.720, 540, 75.9, 0.00
MT. LAGUNA #3, San Diego, CA07, -116.419, 32.867, 5920, 68.2, 0.01
AVALON INLAND, Los Angeles, CA06, -118.330, 33.338, 90, 64.0, 0.00
DESERT CENTER 2 NNE, Riverside, CA07, -115.392, 33.738, 747, 88.9, 0.20
TORRANCE AP, Los Angeles, CA06, -118.342, 33.802, 90, 71.0, 0.00
MERCED 23 WSW, Merced, CA05, -120.882, 37.238, 78, 72.1, 0.04
REDDING 12 WNW, Shasta, CA02, -122.607, 40.651, 1418, 75.6, 0.01
STOVEPIPE WELLS 1 SW, Inyo, CA07, -117.145, 36.602, 84, 93.8, 0.00
LOS ANGELES DOWNTOWN/USC, Los Angeles, CA06, -118.291, 34.024, 179, 76.2, 0.00
FRESNO YOSEMITE INT'L, Fresno, CA05, -119.720, 36.780, 334, 79.7, 0.01
MONTEREY PENINSUL AP, Monterey, CA04, -121.849, 36.590, 160, 60.5, 0.22
PASO ROBLES MUNICIPAL AP, San Luis Obispo, CA04, -120.629, 35.669, 820, 73.1, 0.06
MONTAGUE SISKIYOU AIRPORT, Siskiyou, CA01, -122.468, 41.774, 2645, 67.0, T
SAN JOSE, Santa Clara, CA04, -121.924, 37.359, 49, 70.6, 0.21
PALM SPRINGS ASOS, Riverside, CA07, -116.504, 33.822, 409, 89.3, 0.00
THOUSAND OAKS 1 SW, Ventura, CA06, -118.899, 34.182, 783, 74.9, 0.00
FILLMORE 2 W, Ventura, CA06, -118.945, 34.409, 495, 71.9, 0.00
SAN DIEGO BROWN FIELD, San Diego, CA06, -116.994, 32.576, 521, 72.5, 0.01
Bakersfield Area, -, -, -, -, -, 80.9, 0.01
Bishop Area, -, -, -, -, -, 70.1, 0.01
Los Angeles Downtown Area, -, -, -, -, -, 76.2, 0.00
Eureka Area, -, -, -, -, -, 59.5, 1.03
Fresno Area, -, -, -, -, -, 79.7, 0.01
Los Angeles Airport Area, -, -, -, -, -, 69.9, T
Long Beach Area, -, -, -, -, -, 75.1, 0.00
Redding Area, -, -, -, -, -, 76.6, 0.12
Sacramento Area, -, -, -, -, -, 74.8, 0.14
San Diego Area, -, -, -, -, -, 72.1, T
Stockton Area, -, -, -, -, -, 74.9, 0.28
San Francisco Airport Area, -, -, -, -, -, 66.2, 0.27
Santa Maria Area, -, -, -, -, -, 63.9, 0.01
CAMP PENDLETON MCAS, San Diego, CA06, -117.355, 33.304, 70, 71.7, 0.00
LEMOORE REEVES NAS, Fresno, CA05, -119.950, 36.333, 232, 77.9, 0.03
MOUNTAIN PASS 1SE, San Bernardino, CA07, -115.531, 35.459, 4777, 72.8, 0.13
ARVIN, Kern, CA05, -118.834, 35.211, 450, 80.2, 0.00
FRAZIER PARK, Kern, CA06, -118.965, 34.827, 4972, 64.8, 0.00
CHIRIACO SUMMIT, Riverside, CA07, -115.721, 33.662, 1706, 83.7, 0.32
EDWARDS AFB NORTH AUXILIARY AIRFIELD, Kern, CA07, -117.865, 34.988, 2283, 76.5, 0.00
FALLBROOK 5 NE, San Diego, CA06, -117.190, 33.439, 1140, 76.8, 0.07
SANTA BARBARA 11 W, Santa Barbara, CA06, -119.880, 34.414, 18, 64.7, 0.03
BODEGA 6 WSW, Sonoma, CA01, -123.075, 38.321, 63, 56.5, 0.08
YOSEMITE VILLAGE 12 W, Mariposa, CA05, -119.821, 37.759, 6620, 64.7, 0.11
YUCCA MESA, San Bernardino, CA07, -116.407, 34.218, 3445, 80.3, 0.00
YUCCA VALLEY, San Bernardino, CA07, -116.388, 34.129, 3249, 78.8, 0.07
JOHNSON VALLEY, San Bernardino, CA07, -116.538, 34.359, 3167, 79.6, 0.00
REDONDO BEACH, Los Angeles, CA06, -118.376, 33.834, 142, 69.9, 0.00
BURBANK VALLEY PUMP PLANT, Los Angeles, CA06, -118.348, 34.187, 655, 76.5, 0.00
PIEDMONT 1.0 SE, Alameda, CA04, -122.216, 37.812, 372, M, 0.35
CASTRO VALLEY 0.5 WSW, Alameda, CA04, -122.069, 37.708, 287, M, 0.52
CASTRO VALLEY 0.4 NNE, Alameda, CA04, -122.059, 37.717, 536, M, 0.49
PLEASANTON 1.8 SSE, Alameda, CA04, -121.875, 37.648, 351, M, 0.15
VOLCANO 5.4 NE, Amador, CA05, -120.560, 38.497, 3488, M, 0.26
MARTINEZ 0.8 SSE, Contra Costa, CA04, -122.108, 37.990, 252, M, 0.07
PLEASANT HILL 1.2 ESE, Contra Costa, CA04, -122.054, 37.949, 57, M, 0.16
WALNUT CREEK 1.7 SSE, Contra Costa, CA04, -122.034, 37.878, 243, M, 0.20
LAFAYETTE 0.7 E, Contra Costa, CA04, -122.104, 37.894, 248, M, 0.05
LAFAYETTE 2.3 WNW, Contra Costa, CA04, -122.155, 37.909, 822, M, 0.11
CROCKETT 0.7 WNW, Contra Costa, CA04, -122.233, 38.054, 213, M, 0.28
LAFAYETTE 1.9 WSW, Contra Costa, CA04, -122.153, 37.888, 518, M, 0.10
MARTINEZ 2.2 SW, Contra Costa, CA04, -122.138, 37.974, 692, M, 0.10
ANTIOCH 2.2 WSW, Contra Costa, CA05, -121.838, 37.979, 178, M, 0.11
OAKLEY 1.7 W, Contra Costa, CA05, -121.748, 37.988, 73, M, 0.00
WALLACE 0.3 NE, Calaveras, CA05, -120.973, 38.197, 298, M, 0.17
MURPHYS 2.8 ENE, Calaveras, CA05, -120.412, 38.165, 3352, M, 0.16
CRESCENT CITY 5.5 NNE, Del Norte, CA01, -124.148, 41.824, 65, M, 0.73
DIAMOND SPRINGS 0.1 W, El Dorado, CA05, -120.824, 38.686, 1778, M, 0.08
PLACERVILLE 2.9 WNW, El Dorado, CA02, -120.840, 38.753, 1800, M, 0.10
PLACERVILLE 3.7 SW, El Dorado, CA02, -120.849, 38.695, 1755, M, 0.07
CAMERON PARK 0.9 SE, El Dorado, CA05, -120.976, 38.672, 1414, M, M
FAIR PLAY 2.8 ESE, El Dorado, CA05, -120.609, 38.592, 3390, M, 0.13
FRESNO 3.4 SSE, Fresno, CA05, -119.811, 36.780, 303, M, 0.00
CLOVIS 2.9 N, Fresno, CA05, -119.693, 36.861, 382, M, 0.02
TOLLHOUSE 2.0 SSE, Fresno, CA05, -119.397, 36.990, 1673, M, T
TOLLHOUSE 6.2 SSE, Fresno, CA05, -119.359, 36.934, 1397, M, 0.01
ARCATA 1.1 NE, Humboldt, CA01, -124.069, 40.881, 420, M, 0.46
BAYSIDE 1.8 SE, Humboldt, CA01, -124.038, 40.825, 77, M, 0.55
ORICK 5.9 SSW, Humboldt, CA01, -124.103, 41.208, 567, M, 0.40
MCKINLEYVILLE 2.7 SE, Humboldt, CA01, -124.084, 40.923, 325, M, 0.41
MCKINLEYVILLE 7.3 ESE, Humboldt, CA01, -123.998, 40.896, 366, M, 0.54
TRINIDAD 1.5 NNW, Humboldt, CA01, -124.152, 41.078, 201, M, 0.59
MCKINLEYVILLE 2.3 NE, Humboldt, CA01, -124.086, 40.978, 270, M, 0.58
REDWAY 4.3 W, Humboldt, CA01, -123.901, 40.108, 612, M, 0.39
FORTUNA 0.9 SSW, Humboldt, CA01, -124.144, 40.573, 128, M, 0.58
FORTUNA 1.5 NW, Humboldt, CA01, -124.161, 40.600, 98, M, 0.61
REDWAY 4.8 WNW, Humboldt, CA01, -123.906, 40.139, 1820, M, 0.32
MIRANDA 4.1 SW, Humboldt, CA01, -123.894, 40.209, 539, M, 0.35
BAYVIEW 0.8 SE, Humboldt, CA01, -124.166, 40.756, 176, M, 1.11
ARCATA 1.1 NW, Humboldt, CA01, -124.097, 40.877, 17, M, 0.76
FORTUNA 1.3 S, Humboldt, CA01, -124.136, 40.567, 195, M, 0.67
ARCATA 1.4 NNE, Humboldt, CA01, -124.072, 40.887, 289, M, 0.39
WILLOW CREEK 4.5 NNE, Humboldt, CA01, -123.624, 40.939, 655, M, 0.22
EUREKA 0.4 NW, Humboldt, CA01, -124.162, 40.800, 61, M, 0.00
LEMOORE 0.9 ESE, Kings, CA05, -119.772, 36.293, 223, M, 0.02
LEMOORE 4.4 SSE, Kings, CA05, -119.756, 36.240, 213, M, 0.00
HANFORD 3.6 N, Kings, CA05, -119.653, 36.377, 258, M, 0.14
HANFORD 1.7 WNW, Kings, CA05, -119.674, 36.335, 245, M, 0.15
INYOKERN 9.4 WSW, Kern, CA07, -117.978, 35.635, 4319, M, 0.00
GLENDALE 2.4 WSW, Los Angeles, CA06, -118.295, 34.169, 511, M, T
WHITTIER 3.6 ESE, Los Angeles, CA06, -117.984, 33.937, 289, M, 0.00
TORRANCE 2.8 SW, Los Angeles, CA06, -118.337, 33.790, 200, M, 0.00
ALTADENA 0.7 ESE, Los Angeles, CA06, -118.124, 34.187, 1323, M, 0.00
SANTA MONICA 1.9 E, Los Angeles, CA06, -118.460, 34.017, 148, M, 0.00
WOODLAND HILLS 2.6 WNW, Los Angeles, CA06, -118.650, 34.181, 894, M, 0.00
MONTE NIDO 0.2 SSW, Los Angeles, CA06, -118.687, 34.079, 682, M, 0.00
SHERMAN OAKS 1.7 ENE, Los Angeles, CA06, -118.420, 34.154, 638, M, 0.00
WHITTIER 2.9 WNW, Los Angeles, CA06, -118.066, 33.986, 171, M, 0.00
WINNETKA 0.7 SSE, Los Angeles, CA06, -118.568, 34.203, 768, M, 0.00
SOUTH GATE 1.1 WNW, Los Angeles, CA06, -118.209, 33.951, 108, M, 0.00
LAKEPORT 4.5 N, Lake, CA02, -122.909, 39.107, 1437, M, 0.00
MIDDLETOWN 3.3 SSE, Lake, CA02, -122.603, 38.706, 1273, M, 0.02
LOWER LAKE 4.0 SE, Lake, CA02, -122.564, 38.865, 1585, M, 0.04
SUSANVILLE 3.2 SSW, Lassen, CA03, -120.674, 40.368, 4353, M, 0.02
UKIAH 8.4 NW, Mendocino, CA01, -123.331, 39.221, 2492, M, 0.12
BOONVILLE 2.2 WSW, Mendocino, CA01, -123.408, 39.006, 1061, M, 0.13
REDWOOD VALLEY 1.1 NW, Mendocino, CA01, -123.220, 39.275, 771, M, 0.02
ELK 1.8 NNE, Mendocino, CA01, -123.706, 39.105, 147, M, 0.66
POINT ARENA 5.5 ESE, Mendocino, CA01, -123.600, 38.875, 973, M, 0.69
UKIAH 1.2 NW, Mendocino, CA01, -123.225, 39.158, 746, M, T
UKIAH 0.6 ESE, Mendocino, CA01, -123.199, 39.141, 601, M, 0.01
WILLITS 6.0 WSW, Mendocino, CA01, -123.450, 39.370, 1873, M, 0.24
REDWOOD VALLEY 1.3 WNW, Mendocino, CA01, -123.227, 39.272, 810, M, 0.04
REDWOOD VALLEY 1.5 ENE, Mendocino, CA01, -123.178, 39.272, 912, M, 0.02
LEE VINING 5.9 NW, Mono, CA03, -119.170, 38.034, 7094, M, 0.07
MARIPOSA 3.7 NNW, Mariposa, CA05, -119.988, 37.540, 2942, M, 0.27
NOVATO 1.1 SSW, Marin, CA01, -122.564, 38.077, 296, M, 0.09
WOODACRE 0.6 SW, Marin, CA01, -122.635, 38.005, 439, M, 0.32
SAN ANSELMO 1.2 NNW, Marin, CA01, -122.580, 37.997, 370, M, 0.28
NOVATO 4.8 WNW, Marin, CA01, -122.644, 38.106, 246, M, 0.28
SAN ANSELMO 0.4 NE, Marin, CA01, -122.564, 37.987, 107, M, 0.30
IGNACIO 0.6 SW, Marin, CA01, -122.546, 38.065, 57, M, 0.25
NOVATO 1.4 WNW, Marin, CA01, -122.580, 38.102, 23, M, 0.24
PETALUMA 10.1 W, Marin, CA01, -122.812, 38.248, 119, M, 0.13
DILLON BEACH 0.3 NNE, Marin, CA01, -122.963, 38.256, 366, M, 0.14
CARMEL VALLEY VILLAGE 0.8 SSW, Monterey, CA04, -121.728, 36.476, 359, M, 0.10
LOCKWOOD 3.6 NW, Monterey, CA04, -121.117, 35.981, 1181, M, 0.00
PACIFIC GROVE 0.7 ESE, Monterey, CA04, -121.913, 36.619, 119, M, 0.19
KING CITY 13.2 S, Monterey, CA04, -121.174, 36.025, 1104, M, T
CASTROVILLE 1.6 ENE, Monterey, CA04, -121.728, 36.776, 18, M, 0.24
MONTEREY 1.5 ESE, Monterey, CA04, -121.856, 36.594, 108, M, 0.17
KING CITY 2.0 SSW, Monterey, CA04, -121.146, 36.187, 371, M, 0.00
BIG SUR 4.0 SE, Monterey, CA04, -121.763, 36.224, 824, M, 0.24
BIG SUR 3.2 SE, Monterey, CA04, -121.769, 36.236, 739, M, 0.25
AROMAS 2.0 SSW, Monterey, CA04, -121.650, 36.850, 344, M, 0.34
CALISTOGA 0.4 SSE, Napa, CA01, -122.578, 38.576, 348, M, 0.12
NEVADA CITY 3.4 NNW, Nevada, CA02, -121.040, 39.307, 2390, M, 0.10
KINGVALE 1.3 WSW, Nevada, CA02, -120.452, 39.317, 6035, M, 0.08
GRASS VALLEY 5.5 ESE, Nevada, CA02, -120.963, 39.190, 2763, M, 0.13
GRASS VALLEY 5.0 S, Nevada, CA02, -121.042, 39.149, 2312, M, 0.11
LAKE OF THE PINES 1.0 WSW, Nevada, CA02, -121.077, 39.032, 1576, M, 0.08
ROUGH AND READY 0.5 NW, Nevada, CA02, -121.143, 39.234, 2010, M, 0.00
ALTA SIERRA 0.4 WSW, Nevada, CA02, -121.060, 39.120, 2303, M, 0.12
LAKE OF THE PINES 1.3 NNW, Nevada, CA02, -121.070, 39.056, 1528, M, 0.12
GRASS VALLEY 5.7 S, Nevada, CA02, -121.055, 39.139, 2169, M, 0.13
NEVADA CITY 5.4 W, Nevada, CA02, -121.121, 39.268, 1982, M, 0.24
ALTA SIERRA 1.4 SSW, Nevada, CA02, -121.058, 39.103, 2057, M, 0.10
GRASS VALLEY 0.6 NNW, Nevada, CA02, -121.062, 39.229, 2661, M, 0.14
GRASS VALLEY 0.5 NNW, Nevada, CA02, -121.059, 39.229, 2669, M, 0.14
LAKE OF THE PINES 4.7 WNW, Nevada, CA02, -121.146, 39.054, 1480, M, 0.23
ORANGE 3.5 ENE, Orange, CA06, -117.770, 33.829, 811, M, 0.00
SILVERADO 1.0 ESE, Orange, CA06, -117.620, 33.746, 1394, M, 0.00
LAGUNA NIGUEL 1.8 SW, Orange, CA06, -117.728, 33.509, 856, M, 0.00
SANTA ANA 0.7 ESE, Orange, CA06, -117.871, 33.731, 81, M, 0.00
PLACENTIA 2.1 ESE, Orange, CA06, -117.822, 33.868, 256, M, 0.00
COSTA MESA 1.6 SE, Orange, CA06, -117.892, 33.652, 71, M, T
SODA SPRINGS 1.5 SSW, Placer, CA02, -120.384, 39.302, 6887, M, 0.06
LINCOLN 0.9 SSW, Placer, CA02, -121.322, 38.888, 131, M, 0.00
ROSEVILLE 4.7 WNW, Placer, CA02, -121.377, 38.780, 96, M, 0.28
COLFAX 1.0 WNW, Placer, CA02, -120.970, 39.101, 2260, M, 0.08
PENRYN 0.4 SE, Placer, CA02, -121.158, 38.847, 610, M, 0.27
COLFAX 3.1 SW, Placer, CA02, -120.991, 39.061, 2077, M, 0.09
AUBURN 3.1 N, Placer, CA02, -121.068, 38.936, 1528, M, 0.19
NEWCASTLE 1.6 SSE, Placer, CA02, -121.123, 38.851, 800, M, 0.35
IDYLLWILD 1.8 NW, Riverside, CA06, -116.735, 33.763, 6325, M, 0.31
DESERT HOT SPRINGS 3.0 NW, Riverside, CA07, -116.541, 33.985, 1339, M, 0.00
HEMET 4.1 ENE, Riverside, CA06, -116.920, 33.753, 1698, M, 0.02
CORONA 12.8 SE, Riverside, CA06, -117.428, 33.731, 1404, M, 0.00
LAKE ELSINORE 3.5 WSW, Riverside, CA06, -117.381, 33.657, 1356, M, 0.00
PERRIS 8.5 WNW, Riverside, CA06, -117.365, 33.826, 1639, M, 0.02
BEAUMONT 2.5 NW, Riverside, CA06, -117.012, 33.954, 2532, M, 0.00
RIVERSIDE 3.8 NW, Riverside, CA06, -117.454, 33.979, 841, M, 0.00
CARMICHAEL 1.6 SW, Sacramento, CA02, -121.340, 38.617, 102, M, 0.26
SACRAMENTO 8.0 NE, Sacramento, CA02, -121.361, 38.635, 95, M, 0.34
FOLSOM 3.4 ESE, Sacramento, CA05, -121.091, 38.655, 594, M, 0.28
CARMICHAEL 0.9 NE, Sacramento, CA02, -121.306, 38.643, 130, M, 0.26
CARMICHAEL 1.4 W, Sacramento, CA02, -121.345, 38.638, 109, M, 0.29
FOLSOM 1.2 SSE, Sacramento, CA02, -121.140, 38.660, 362, M, 0.26
CARMICHAEL 0.9 S, Sacramento, CA02, -121.319, 38.621, 108, M, 0.23
FOLSOM 2.4 SW, Sacramento, CA02, -121.176, 38.651, 194, M, 0.18
SACRAMENTO 13.7 SE, Sacramento, CA05, -121.283, 38.456, 97, M, 0.25
SACRAMENTO 2.0 SE, Sacramento, CA02, -121.437, 38.550, 34, M, 0.13
ANTELOPE 3.5 W, Sacramento, CA02, -121.392, 38.707, 79, M, 0.22
SACRAMENTO 4.1 NE, Sacramento, CA02, -121.412, 38.609, 46, M, 0.18
SACRAMENTO 0.6 ENE, Sacramento, CA02, -121.458, 38.572, 26, M, T
SACRAMENTO 5.7 SSE, Sacramento, CA02, -121.419, 38.493, 28, M, 0.00
GOLETA 3.7 WNW, Santa Barbara, CA06, -119.896, 34.440, 158, M, 0.00
MOUNTAIN VIEW 1.2 S, Santa Clara, CA04, -122.075, 37.385, 109, M, 0.24
SAN JOSE 4.6 S, Santa Clara, CA04, -121.836, 37.238, 158, M, 0.22
SUNNYVALE 1.9 SE, Santa Clara, CA04, -122.004, 37.365, 85, M, 0.19
SAN JOSE 5.4 SW, Santa Clara, CA04, -121.775, 37.305, 223, M, 0.39
MONTE SERENO 0.4 SSW, Santa Clara, CA04, -121.990, 37.232, 467, M, 0.06
SAN JOSE 4.6 NE, Santa Clara, CA04, -121.795, 37.354, 318, M, 0.58
LOS ALTOS 0.6 NNW, Santa Clara, CA04, -122.100, 37.378, 156, M, 0.25
SAN JOSE 2.7 SSW, Santa Clara, CA04, -121.876, 37.271, 162, M, 0.36
CAMBRIAN PARK 2.2 SE, Santa Clara, CA04, -121.897, 37.234, 252, M, 0.23
SAN JOSE 3.5 ENE, Santa Clara, CA04, -121.789, 37.319, 200, M, 0.41
SAN JOSE 2.3 SSW, Santa Clara, CA04, -121.866, 37.273, 161, M, 0.31
PALO ALTO 1.7 NE, Santa Clara, CA04, -122.121, 37.419, 29, M, 0.26
SARATOGA 0.5 N, Santa Clara, CA04, -122.023, 37.275, 373, M, 0.16
PALO ALTO 1.2 NE, Santa Clara, CA04, -122.149, 37.452, 32, M, 0.24
SAN JOSE 3.0 WSW, Santa Clara, CA04, -121.927, 37.309, 159, M, 0.21
PALO ALTO 0.8 NNE, Santa Clara, CA04, -122.135, 37.410, 60, M, 0.00
SAN JOSE 6.2 W, Santa Clara, CA04, -121.961, 37.319, 139, M, 0.25
SAN MARCOS 2.5 ENE, San Diego, CA06, -117.132, 33.147, 666, M, T
OCEANSIDE 2.3 WNW, San Diego, CA06, -117.350, 33.233, 260, M, 0.00
IMPERIAL BEACH 3.3 E, San Diego, CA06, -117.062, 32.574, 138, M, 0.02
OCEANSIDE 8.4NE, San Diego, CA06, -117.266, 33.270, 252, M, 0.00
EL CAJON 2.3ENE, San Diego, CA06, -116.925, 32.811, 610, M, 0.00
ENCINITAS 3.34ENE, San Diego, CA06, -117.237, 33.050, 193, M, 0.05
ESCONDIDO 5.2NNW, San Diego, CA06, -117.128, 33.185, 1474, M, 0.00
EL CAJON 1.5WSW, San Diego, CA06, -116.987, 32.791, 727, M, T
ESCONDIDO 2.5 SSE, San Diego, CA06, -117.048, 33.106, 690, M, 0.00
JAMUL 9.9ESE, San Diego, CA06, -116.706, 32.680, 2737, M, 0.15
BORREGO SPRINGS 2.4 WSW, San Diego, CA07, -116.390, 33.223, 777, M, 0.00
LA JOLLA 2.5SE, San Diego, CA06, -117.240, 32.825, 508, M, 0.00
CHULA VISTA 6.3E, San Diego, CA06, -116.975, 32.638, 555, M, 0.00
OCEANSIDE 5.6NE, San Diego, CA06, -117.313, 33.254, 60, M, T
POWAY 1.4SW, San Diego, CA06, -117.059, 32.949, 444, M, 0.00
CARDIFF BY THE SEA 0.2 E, San Diego, CA06, -117.271, 33.027, 266, M, 0.00
CHULA VISTA 2.5SE, San Diego, CA06, -117.052, 32.617, 266, M, 0.01
PAUMA VALLEY 1.7 SE, San Diego, CA06, -116.957, 33.290, 1132, M, T
FALLBROOK 6.5 NE, San Diego, CA06, -117.160, 33.436, 1377, M, 0.00
SAN DIEGO 3.5NE, San Diego, CA06, -117.110, 32.747, 344, M, 0.00
SANTEE 1.8NW, San Diego, CA06, -116.996, 32.856, 470, M, T
SAN DIEGO 7.9NE, San Diego, CA06, -117.073, 32.806, 242, M, 0.00
LA JOLLA 2.1 SE, San Diego, CA06, -117.250, 32.826, 491, M, 0.04
SAN DIEGO 3.2 WNW, San Diego, CA06, -117.186, 32.835, 374, M, 0.01
RANCHO BERNARDO 0.5SE, San Diego, CA06, -117.067, 33.018, 483, M, 0.00
EL CAJON 0.7 S, San Diego, CA06, -116.959, 32.792, 444, M, 0.00
SAN FRANCISCO 2.8 WNW, San Francisco, CA04, -122.470, 37.783, 173, M, 0.25
SAN FRANCISCO 1.1 SW, San Francisco, CA04, -122.435, 37.765, 194, M, 0.26
REDDING 3.6 NNE, Shasta, CA02, -122.351, 40.624, 618, M, T
COTTONWOOD 0.5 NNE, Shasta, CA02, -122.276, 40.397, 452, M, 0.05
SHINGLETOWN 5.3 ENE, Shasta, CA02, -121.796, 40.524, 3964, M, 0.45
REDDING 2.9 NNE, Shasta, CA02, -122.339, 40.609, 652, M, 0.04
REDDING 2.7 NNW, Shasta, CA02, -122.380, 40.610, 708, M, 0.01
REDDING 7.9 NNE, Shasta, CA02, -122.291, 40.672, 681, M, 0.36
REDDING 3.7 N, Shasta, CA02, -122.358, 40.626, 618, M, T
REDDING 3.8 N, Shasta, CA02, -122.356, 40.627, 609, M, T
REDDING 3.6 N, Shasta, CA02, -122.354, 40.623, 604, M, 0.00
REDDING 0.6 NW, Shasta, CA02, -122.373, 40.580, 475, M, T
REDDING 2.6 NNE, Shasta, CA02, -122.347, 40.607, 590, M, 0.02
REDDING 4.1 N, Shasta, CA02, -122.358, 40.631, 616, M, 0.01
LINDEN 5.8 ENE, San Joaquin, CA05, -121.008, 38.063, 146, M, 0.23
STOCKTON 2.1 NW, San Joaquin, CA05, -121.333, 37.991, 7, M, 0.32
STOCKTON 5.8 NNE, San Joaquin, CA05, -121.255, 38.038, 35, M, 0.23
LODI 1.0 NNW, San Joaquin, CA05, -121.304, 38.136, 43, M, 0.24
STOCKTON 3.3 SE, San Joaquin, CA05, -121.259, 37.942, 23, M, 0.28
TRACY 2.1 W, San Joaquin, CA05, -121.470, 37.735, 52, M, 0.14
GREENVIEW 0.7 SW, Siskiyou, CA01, -122.910, 41.547, 2825, M, T
YREKA 4.5 S, Siskiyou, CA01, -122.621, 41.665, 2937, M, 0.03
WEED 5.4 N, Siskiyou, CA01, -122.370, 41.495, 3064, M, 0.07
YREKA 0.9 WNW, Siskiyou, CA01, -122.649, 41.733, 2692, M, 0.10
SANTA MARGARITA 8.9 ESE, San Luis Obispo, CA04, -120.453, 35.381, 2005, M, T
PACIFICA 0.3 W, San Mateo, CA04, -122.483, 37.612, 227, M, 0.21
HALF MOON BAY 4.1 SE, San Mateo, CA04, -122.394, 37.420, 339, M, 0.00
FOSTER CITY 1.3 SW, San Mateo, CA04, -122.259, 37.549, 7, M, 0.35
HALF MOON BAY 0.5 SSW, San Mateo, CA04, -122.441, 37.463, 54, M, 0.46
REDWOOD CITY 2.5 SW, San Mateo, CA04, -122.240, 37.493, 17, M, 0.31
PORTOLA VALLEY 1.3 ENE, San Mateo, CA04, -122.198, 37.382, 531, M, 0.10
ROHNERT PARK 1.6 WNW, Sonoma, CA01, -122.727, 38.352, 93, M, 0.17
OCCIDENTAL 1.9 WSW, Sonoma, CA01, -122.968, 38.380, 810, M, 0.35
HEALDSBURG 4.2 NW, Sonoma, CA01, -122.923, 38.656, 155, M, 0.08
GEYSERVILLE 10.6 WNW, Sonoma, CA01, -123.098, 38.737, 1328, M, 0.06
SANTA ROSA 3.1 W, Sonoma, CA01, -122.758, 38.451, 107, M, 0.10
SEBASTOPOL 3.7 WSW, Sonoma, CA01, -122.893, 38.385, 383, M, 0.26
GUERNEVILLE 0.6 SW, Sonoma, CA01, -122.992, 38.501, 72, M, 0.09
SANTA ROSA 3.0 NE, Sonoma, CA01, -122.656, 38.474, 294, M, 0.22
SANTA ROSA 2.7 WSW, Sonoma, CA01, -122.745, 38.432, 123, M, 0.13
CALISTOGA 4.6 WNW, Sonoma, CA01, -122.658, 38.612, 497, M, 0.21
SEBASTOPOL 4.5 WSW, Sonoma, CA01, -122.904, 38.375, 423, M, 0.28
SEBASTOPOL 0.3 WNW, Sonoma, CA01, -122.830, 38.401, 122, M, 0.22
PETALUMA 1.0 N, Sonoma, CA01, -122.623, 38.256, 52, M, 0.18
GRATON 2.7 NNE, Sonoma, CA01, -122.840, 38.472, 69, M, 0.18
WINDSOR 1.5 WNW, Sonoma, CA01, -122.823, 38.555, 123, M, 0.84
CLOVERDALE 0.8 SSW, Sonoma, CA01, -123.022, 38.789, 365, M, 0.90
WINDSOR 1.4 SE, Sonoma, CA01, -122.780, 38.532, 140, M, 0.14
SANTA ROSA 4.7 S, Sonoma, CA01, -122.725, 38.378, 94, M, 0.14
SANTA ROSA 3.1 NW, Sonoma, CA01, -122.744, 38.479, 140, M, 0.12
CLOVERDALE 3.2 ESE, Sonoma, CA01, -122.963, 38.781, 797, M, 0.08
SEBASTOPOL 2.6 SSE, Sonoma, CA01, -122.804, 38.366, 214, M, 0.32
DUNCAN MILLS 1.4 NNE, Sonoma, CA01, -123.052, 38.473, 409, M, 0.34
SANTA ROSA 2.9 W, Sonoma, CA01, -122.755, 38.448, 114, M, 0.21
SEBASTOPOL 3.8 WNW, Sonoma, CA01, -122.893, 38.415, 364, M, 3.01
BODEGA BAY 4.8 NNW, Sonoma, CA01, -123.078, 38.381, 91, M, 0.40
SANTA ROSA 3.8 W, Sonoma, CA01, -122.771, 38.441, 95, M, 0.13
SANTA ROSA 2.9 WSW, Sonoma, CA01, -122.750, 38.430, 116, M, 0.16
MONTE RIO 1.6 W, Sonoma, CA01, -123.042, 38.464, 20, M, 0.24
SEBASTOPOL 3.0 SW, Sonoma, CA01, -122.869, 38.372, 539, M, 0.25
SANTA ROSA 4.4 NNW, Sonoma, CA01, -122.719, 38.511, 392, M, 0.12
SEBASTOPOL 1.1 SSE, Sonoma, CA01, -122.819, 38.384, 168, M, 0.27
WINDSOR 1.2 NNW, Sonoma, CA01, -122.805, 38.562, 155, M, 0.21
HEALDSBURG 7.5 NW, Sonoma, CA01, -122.963, 38.693, 203, M, 0.05
SANTA ROSA 2.6 NE, Sonoma, CA01, -122.664, 38.473, 273, M, 0.18
WINDSOR 0.3 E, Sonoma, CA01, -122.792, 38.545, 141, M, 0.00
SONOMA 1.9 E, Sonoma, CA01, -122.425, 38.290, 124, M, 0.18
PETALUMA 3.7 W, Sonoma, CA01, -122.693, 38.249, 112, M, 0.12
SANTA ROSA 1.3 NW, Sonoma, CA01, -122.715, 38.464, 173, M, 0.13
PETALUMA 1.3 SW, Sonoma, CA01, -122.639, 38.226, 36, M, 0.18
WINDSOR 0.6 NNE, Sonoma, CA01, -122.793, 38.553, 157, M, 0.17
CLOVERDALE 0.9 S, Sonoma, CA01, -123.017, 38.786, 347, M, 0.07
SANTA ROSA 0.4 NW, Sonoma, CA01, -122.705, 38.453, 181, M, 0.13
SEBASTOPOL 0.9 WNW, Sonoma, CA01, -122.841, 38.407, 213, M, 0.25
OCCIDENTAL 1.8 WSW, Sonoma, CA01, -122.970, 38.389, 943, M, 0.41
GLEN ELLEN 1.9 WNW, Sonoma, CA01, -122.572, 38.365, 956, M, 0.20
ROHNERT PARK 0.9 SW, Sonoma, CA01, -122.711, 38.339, 96, M, 0.16
SANTA ROSA 0.6 N, Sonoma, CA01, -122.703, 38.457, 177, M, 0.14
HEALDSBURG 3.7 WNW, Sonoma, CA01, -122.921, 38.648, 142, M, 0.10
CLOVERDALE 0.6 W, Sonoma, CA01, -123.028, 38.799, 382, M, 0.08
ROHNERT PARK 0.9 ESE, Sonoma, CA01, -122.681, 38.345, 125, M, 0.17
GLEN ELLEN 1.5 N, Sonoma, CA01, -122.534, 38.378, 337, M, 0.18
APPLE VALLEY 2.6 SSW, San Bernardino, CA07, -117.235, 34.496, 2881, M, 0.00
WRIGHTWOOD 1.2 WNW, San Bernardino, CA07, -117.651, 34.365, 6148, M, M
UPLAND 0.5 ESE, San Bernardino, CA06, -117.650, 34.115, 1415, M, 0.00
APPLE VALLEY 2.6 SE, San Bernardino, CA07, -117.181, 34.504, 2941, M, 0.00
ALTA LOMA 2.7 ENE, San Bernardino, CA06, -117.551, 34.138, 1535, M, 0.00
RED BLUFF 4.3 W, Tehama, CA02, -122.322, 40.179, 396, M, 0.00
VISALIA 2.3 N, Tulare, CA05, -119.319, 36.358, 318, M, 0.02
LINDSAY 0.5 N, Tulare, CA05, -119.088, 36.213, 378, M, 0.02
TERRA BELLA 6.3 W, Tulare, CA05, -119.149, 35.950, 374, M, T
VISALIA 0.7 SSE, Tulare, CA05, -119.318, 36.315, 318, M, 0.03
TULARE 2.4 E, Tulare, CA05, -119.300, 36.202, 292, M, 0.12
THREE RIVERS 3.5 NE, Tulare, CA05, -118.854, 36.468, 1430, M, T
DOUGLAS CITY 2.4 SW, Trinity, CA01, -122.978, 40.633, 1689, M, 0.09
HAWKINS BAR 0.6 NW, Trinity, CA01, -123.530, 40.877, 674, M, 0.23
MAD RIVER 7.4 SE, Trinity, CA01, -123.376, 40.321, 2762, M, 0.16
HAYFORK 7.1 SE, Trinity, CA01, -123.030, 40.500, 2917, M, 0.24
TRINITY CENTER 0.6 ESE, Trinity, CA01, -122.696, 40.983, 2427, M, T
SALYER 1.4 ESE, Trinity, CA01, -123.559, 40.887, 696, M, 0.27
THOUSAND OAKS 2.1 WSW, Ventura, CA06, -118.898, 34.177, 692, M, 0.00
SIMI VALLEY 3.8 SW, Ventura, CA06, -118.805, 34.231, 1081, M, 0.00
NEWBURY PARK 0.4 SE, Ventura, CA06, -118.909, 34.179, 709, M, T
VENTURA 0.5 WNW, Ventura, CA06, -119.276, 34.273, 56, M, 0.00
DAVIS 1.2 SE, Yolo, CA02, -121.721, 38.543, 36, M, 0.16
DAVIS 0.8 NE, Yolo, CA02, -121.724, 38.562, 41, M, 0.15
DAVIS 5.8 WNW, Yolo, CA02, -121.840, 38.573, 82, M, 0.00
DAVIS 1.1 SE, Yolo, CA02, -121.723, 38.543, 39, M, 0.15
CORONA MUNICIPAL AIRPORT, Riverside, -, -117.602, 33.898, 533, 73.6, 0.00
CORONA 12.5 SE, Riverside, CA06, -117.431, 33.735, 1302, M, T
CARLSBAD 2.2SE, San Diego, CA06, -117.321, 33.143, 22, M, 0.00
JOSHUA TREE 2.0 S, San Bernardino, CA07, -116.318, 34.097, 3409, M, 0.04
LANDERS 3.4 SW, San Bernardino, CA07, -116.407, 34.217, 3447, M, 0.00
KNIGHTS FERRY 5.2 WSW, Stanislaus, CA05, -120.752, 37.789, 144, M, 0.13
SAN JUAN BAUTISTA 0.5 S, San Benito, CA04, -121.537, 36.839, 252, M, 0.30
HOLLISTER 5.4 NNE, San Benito, CA04, -121.370, 36.931, 247, M, 0.23
BEN LOMOND 1.2 SSE, Santa Cruz, CA04, -122.073, 37.088, 397, M, 0.24
DAVENPORT 4.2 NW, Santa Cruz, CA04, -122.218, 37.065, 495, M, 0.79
DAVENPORT 3.1 NW, Santa Cruz, CA04, -122.229, 37.044, 47, M, 0.01
BOULDER CREEK 3.6 NE, Santa Cruz, CA04, -122.091, 37.181, 1724, M, 0.33
SCOTTS VALLEY 1.7 SW, Santa Cruz, CA04, -122.029, 37.040, 573, M, 0.33
APTOS 2.6 E, Santa Cruz, CA04, -121.854, 36.996, 383, M, 0.31
SCOTTS VALLEY 1.4 W, Santa Cruz, CA04, -122.033, 37.055, 362, M, 0.28
FELTON 0.1 SE, Santa Cruz, CA04, -122.071, 37.042, 238, M, 0.00
SOQUEL 1.8 N, Santa Cruz, CA04, -121.950, 37.019, 152, M, 0.00
ARBUCKLE BASIN CALIFORNIA, Shasta, CA02, -122.833, 40.398, 1900, 75.7, M
ACTON CALIFORNIA, Los Angeles, CA06, -118.200, 34.446, 2600, 76.4, M
ARROYO GRANDE CALIFORNIA, San Luis Obispo, CA04, -120.392, 35.179, 1048, 73.7, M
ALDER SPRINGS CALIFORNIA, Glenn, CA02, -122.724, 39.651, 4300, 71.1, M
ALPINE CALIFORNIA, San Diego, CA06, -116.739, 32.834, 2041, 79.1, M
LOS ALTOS CALIFORNIA, Santa Clara, CA04, -122.147, 37.358, 645, 72.0, M
AMMO DUMP CALIFORNIA, San Diego, CA06, -117.286, 33.381, 1068, 75.2, M
ANZA CALIFORNIA, Riverside, CA06, -116.673, 33.555, 3920, 71.0, M
ALDER POINT CALIFORNIA, Humboldt, CA01, -123.590, 40.187, 923, 70.5, M
ARROYO SECO (MT. DIABLO) CALIF, Monterey, CA04, -121.492, 36.230, 980, 74.1, M
ASH CREEK CALIFORNIA, Siskiyou, CA02, -121.979, 41.277, 3200, 60.0, M
ASH VALLEY CALIFORNIA, Lassen, CA02, -120.686, 41.052, 5100, 59.8, M
BACKBONE CALIFORNIA, Trinity, CA01, -123.142, 40.889, 4700, 68.9, M
BALD MTN LOC CALIFORNIA, El Dorado, CA02, -120.697, 38.906, 4680, 73.7, M
BARNABY CALIFORNIA, Marin, CA01, -122.702, 38.028, 1240, 67.5, M
BATTERSON CALIFORNIA, Madera, CA05, -119.508, 37.232, 3160, 77.9, M
BIG BAR CALIFORNIA, Trinity, CA01, -123.233, 40.733, 1500, 72.8, M
BELL CANYON CALIFORNIA, Orange, CA06, -117.592, 33.542, 700, 76.0, M
BRADLEY CALIFORNIA, Monterey, CA04, -120.803, 35.864, 537, 74.3, M
BEAR PEAK CALIFORNIA, Tulare, CA05, -118.052, 35.884, 8228, 62.3, M
BENTON CALIFORNIA, Mono, CA07, -118.478, 37.843, 5450, 67.4, M
BEAUMONT CALIFORNIA, Riverside, CA06, -116.950, 33.931, 2604, 78.5, M
BANGOR CALIFORNIA, Butte, CA02, -121.386, 39.398, 803, 75.9, M
BIG HILL CALIFORNIA, Humboldt, CA01, -123.636, 41.098, 3570, 66.7, M
BIG PINES CALIFORNIA, Los Angeles, CA07, -117.692, 34.379, 6917, 67.2, M
BIG ROCK CALIFORNIA, Marin, CA01, -122.570, 38.039, 1500, 70.5, M
BLACK DIAMOND CALIFORNIA, Contra Costa, CA04, -121.884, 37.950, 1600, 74.3, M
BLUE DOOR CALIFORNIA, Lassen, CA02, -120.337, 41.055, 5615, 61.7, M
BLUE RIDGE (KNF) CALIFORNIA, Siskiyou, CA01, -123.187, 41.269, 5956, 63.4, M
BEN BOLT CALIFORNIA, El Dorado, CA05, -120.934, 38.591, 905, 75.0, M
BEN LOMOND CALIFORNIA, Santa Cruz, CA04, -122.170, 37.132, 2630, 71.8, M
BOGARD R.S. CALIFORNIA, Lassen, CA02, -121.083, 40.598, 5650, 56.7, M
BOONVILLE CALIFORNIA, Mendocino, CA01, -123.349, 38.988, 644, 70.0, M
BIG PINE FLAT CALIFORNIA, San Bernardino, CA07, -117.013, 34.319, 6861, 64.4, M
BRIDGEPORT 4NW CALIFORNIA, Mono, CA03, -119.289, 38.272, 6650, 61.9, M
BRANCH MOUNTAIN CALIFORNIA, San Luis Obispo, CA04, -120.083, 35.189, 3770, 75.5, M
BEAR FLAT CALIFORNIA, Modoc, CA02, -120.313, 41.295, 6200, 61.4, M
BRIONES CALIFORNIA, Contra Costa, CA04, -122.118, 37.944, 1450, 72.7, M
BLACKROCK CALIFORNIA, Tulare, CA05, -118.260, 36.093, 8200, 60.0, M
BROOKS CALIFORNIA, Yolo, CA02, -122.145, 38.738, 354, 77.9, M
BIG SUR CALIFORNIA, Monterey, CA04, -121.785, 36.236, 450, 66.8, M
BUCK MEADOWS CALIFORNIA, Tuolumne, CA05, -120.097, 37.823, 3200, 69.9, M
BULL FLAT CALIFORNIA, Lassen, CA03, -120.114, 40.481, 4395, 63.6, M
BURNS CANYON CALIFORNIA, San Bernardino, CA07, -116.634, 34.210, 6000, 71.2, M
BUTTERCUP CALIFORNIA, Imperial, CA07, -114.884, 32.740, 217, 91.8, M
BEAVER CAMP LOC CALIFORNIA, Amador, CA05, -120.325, 38.488, 5000, 74.0, M
BRAZIE RANCH CALIFORNIA, Siskiyou, CA01, -122.594, 41.685, 3000, 70.3, M
CAHUILLA CALIFORNIA, Imperial, CA07, -115.174, 32.974, 278, 91.9, M
CALLAHAN CALIFORNIA, Siskiyou, CA01, -122.796, 41.308, 3136, 69.3, M
CAMERON FIRE STATION CALIFORNI, San Diego, CA06, -116.463, 32.721, 3443, 71.4, M
CANBY CALIFORNIA, Modoc, CA02, -120.868, 41.434, 4312, 62.3, M
CARRIZO CALIFORNIA, San Luis Obispo, CA05, -119.773, 35.096, 2490, 78.1, M
CASE SPRINGS CALIFORNIA, San Diego, CA06, -117.418, 33.445, 2320, 77.4, M
CATHEYS VALLEY CALIFORNIA, Mariposa, CA05, -120.111, 37.468, 1200, 78.3, M
CEDAR GROVE CALIFORNIA, Fresno, CA05, -118.656, 36.788, 4720, 67.4, M
CHEESEBORO CALIFORNIA, Ventura, CA06, -118.717, 34.185, 1650, 80.0, M
CHICO CALIFORNIA, Butte, CA02, -121.779, 39.712, 230, 75.6, M
CHILAO CALIFORNIA, Los Angeles, CA06, -118.030, 34.332, 5450, 73.5, M
CHUCHUPATE CALIFORNIA, Ventura, CA05, -119.012, 34.808, 4900, 62.6, M
CLAREMONT CALIFORNIA, Los Angeles, CA06, -117.707, 34.137, 1645, 77.2, M
CLEAR CREEK CALIFORNIA, Los Angeles, CA06, -118.152, 34.271, 3000, 79.3, M
CLARK CALIFORNIA, Riverside, CA06, -117.309, 33.877, 1720, 77.4, M
CALAVERAS ROAD CALIFORNIA, Alameda, CA04, -121.844, 37.553, 1230, 72.1, M
CASE MOUNTAIN CALIFORNIA, Tulare, CA05, -118.809, 36.411, 6450, 67.3, M
CORONA CALIFORNIA, Riverside, CA06, -117.549, 33.874, 640, 79.5, M
COHASSET CALIFORNIA, Butte, CA02, -121.769, 39.872, 1733, 78.8, M
COLLINS BALDY CALIFORNIA, Siskiyou, CA01, -122.950, 41.775, 5493, 63.0, M
CONVERSE CALIFORNIA, San Bernardino, CA06, -116.913, 34.194, 5618, 68.1, M
COOSKIE MOUNTAIN CALIFORNIA, Humboldt, CA01, -124.266, 40.257, 2950, 66.6, M
CORRALITOS CALIFORNIA, Santa Cruz, CA04, -121.798, 36.991, 450, 67.8, M
COUNTY LINE CALIFORNIA, Lake, CA02, -122.412, 39.019, 2085, 77.6, M
CAMP 9 CALIFORNIA, Los Angeles, CA06, -118.422, 34.362, 4000, 75.9, M
CRANE FLAT LOOKOUT CALIFORNIA, Mariposa, CA05, -119.825, 37.762, 6644, 69.8, M
CRESTVIEW CALIFORNIA, Mono, CA07, -118.983, 37.745, 7600, 56.4, M
CORNING CALIFORNIA, Tehama, CA02, -122.170, 39.939, 294, 77.0, M
CARPENTER RIDGE CALIFORNIA, Butte, CA02, -121.582, 40.069, 4812, 69.5, M
CRANSTON CALIFORNIA, Riverside, CA06, -116.841, 33.740, 1950, 82.3, M
CRAZY PEAK CALIFORNIA, Del Norte, CA01, -123.604, 41.992, 3970, 65.2, M
CASHMAN CALIFORNIA, Plumas, CA02, -120.915, 40.002, 4520, 71.0, M
DESCANSO CALIFORNIA, San Diego, CA06, -116.622, 32.857, 3480, 73.6, M
DEVILS GARDEN CALIFORNIA, Modoc, CA02, -120.671, 41.530, 5022, 65.4, M
DIABLO GRANDE CALIFORNIA, Stanislaus, CA05, -121.294, 37.329, 1850, 76.7, M
DEMOCRAT CALIFORNIA, Kern, CA05, -118.630, 35.532, 2356, 76.7, M
DINKEY CALIFORNIA, Fresno, CA05, -119.039, 37.066, 5668, 60.0, M
DELNORTE CALIFORNIA, Santa Barbara, CA06, -119.654, 34.009, 800, M, M
DOG VALLEY CALIFORNIA, Sierra, CA03, -120.048, 39.562, 5976, 62.6, M
DOYLE CALIFORNIA, Lassen, CA03, -120.106, 40.022, 4240, 68.3, M
DUNCAN CALIFORNIA, Placer, CA02, -120.509, 39.144, 7100, 64.3, M
DEL VALLE CALIFORNIA, Los Angeles, CA06, -118.683, 34.431, 1278, 78.4, M
DEVORE CALIFORNIA, San Bernardino, CA06, -117.404, 34.221, 2057, 79.2, M
EAGLE PEAK CALIFORNIA, Tehama, CA02, -122.657, 39.928, 3713, 73.8, M
EEL RIVER CAMP CALIFORNIA, Humboldt, CA01, -123.824, 40.138, 446, 68.5, M
EEL RIVER CALIFORNIA, Mendocino, CA01, -123.083, 39.833, 1500, 73.0, M
EL CARISO CALIFORNIA, Riverside, CA06, -117.411, 33.647, 3038, 81.3, M
MOUNT ELIZABETH CALIFORNIA, Tuolumne, CA05, -120.247, 38.063, 4933, 72.1, M
EL MIRAGE CALIFORNIA, San Bernardino, CA07, -117.550, 34.634, 2880, 76.6, M
ESPERANZA CALIFORNIA, Calaveras, CA05, -120.515, 38.243, 2559, 72.7, M
FANCHER CREEK CALIFORNIA, Fresno, CA05, -119.466, 36.884, 920, 81.7, M
FAWNSKIN CALIFORNIA, San Bernardino, CA06, -116.899, 34.266, 6900, 59.8, M
FENCE MEADOW CALIFORNIA, Fresno, CA05, -119.175, 36.961, 5048, 73.0, M
FORT HUNTER LIGGET CALIFORNIA, Monterey, CA04, -121.242, 36.012, 1100, 74.5, M
FIGUEROA CALIFORNIA, Santa Barbara, CA06, -120.007, 34.733, 3200, 78.1, M
FISH CREEK MTN CALIFORNIA, Imperial, CA07, -116.067, 32.990, 760, 93.4, M
FIVE MILE CALIFORNIA, Inyo, CA07, -117.918, 35.872, 4150, 82.1, M
FORT ORD #2 CALIFORNIA, Monterey, CA04, -121.786, 36.627, 490, 60.8, M
FORESTHILL CALIFORNIA, Placer, CA02, -120.732, 39.091, 4355, 72.0, M
FOUNTAIN SPRINGS CALIFORNIA, Tulare, CA05, -118.915, 35.892, 210, 78.3, M
FREMONT CANYON CALIFORNIA, Orange, CA06, -117.711, 33.808, 1781, 78.7, M
FRIEND MOUNTAIN CALIFORNIA, Trinity, CA01, -123.342, 40.505, 4000, 67.6, M
GASQUET CALIFORNIA, Del Norte, CA01, -123.979, 41.846, 500, 68.3, M
GRASSHOPPER CALIFORNIA, Lassen, CA03, -120.784, 40.782, 6158, 60.8, M
GOOSE VALLEY CALIFORNIA, San Diego, CA06, -116.846, 33.074, 1530, 76.1, M
GORDON CALIFORNIA, Lassen, CA03, -120.896, 40.759, 6200, 61.2, M
GREEN SPRING CALIFORNIA, Tuolumne, CA05, -120.500, 37.833, 1020, 77.3, M
GRIZZLY FLAT CALIFORNIA, El Dorado, CA05, -120.561, 38.620, 3740, 71.4, M
HASTINGS CALIFORNIA, Monterey, CA04, -121.552, 36.389, 1885, 73.0, M
HAWKEYE CALIFORNIA, Sonoma, CA01, -122.917, 38.782, 2000, 73.6, M
HAYFORK CALIFORNIA, Trinity, CA01, -123.165, 40.550, 2323, 66.6, M
HELL HOLE CALIFORNIA, Placer, CA02, -120.422, 39.072, 5240, 69.6, M
HERNANDEZ CALIFORNIA, San Benito, CA04, -120.856, 36.383, 3733, 74.4, M
HIGH GLADE LOOKOUT CALIFORNIA, Lake, CA02, -122.808, 39.208, 4840, 69.5, M
HIGH SIERRA CALIFORNIA, Fresno, CA05, -119.038, 37.315, 7403, 61.8, M
HOPLAND CALIFORNIA, Mendocino, CA01, -123.081, 39.031, 2682, 73.7, M
HOLLISTER CALIFORNIA, San Benito, CA04, -121.362, 36.842, 404, 69.4, M
HUNTER MOUNTAIN CALIFORNIA, Inyo, CA07, -117.474, 36.563, 6880, 66.3, M
HORSE LAKE CALIFORNIA, Lassen, CA03, -120.503, 40.631, 5100, 61.7, M
HOOPA CALIFORNIA, Humboldt, CA01, -123.671, 41.048, 375, 69.3, M
HORSE THIEF SPRINGS CALIFORNIA, San Bernardino, CA07, -115.909, 35.771, 5000, 76.6, M
HURLEY CALIFORNIA, Fresno, CA05, -119.568, 37.015, 1201, 73.9, M
INDIAN WELL CALIFORNIA, Siskiyou, CA01, -121.538, 41.742, 4770, 65.5, M
JARBO GAP CALIFORNIA, Butte, CA02, -121.489, 39.736, 2490, 75.6, M
JERSEYDALE CALIFORNIA, Mariposa, CA05, -119.839, 37.544, 3900, 75.8, M
JOHNSONDALE CALIFORNIA, Tulare, CA05, -118.545, 35.972, 4700, 65.1, M
JUANITA LAKE CALIFORNIA, Siskiyou, CA01, -122.006, 41.786, 5400, 64.4, M
JULIAN CALIFORNIA, San Diego, CA07, -116.591, 33.076, 4240, 72.9, M
JUNIPER CREEK CALIFORNIA, Modoc, CA02, -120.472, 41.332, 4372, 64.5, M
KEENWILD CALIFORNIA, Riverside, CA06, -116.767, 33.667, 4920, 72.5, M
KETTLEMAN HILLS CALIFORNIA, Kings, CA05, -120.057, 36.033, 810, 81.7, M
KNOXVILLE CREEK CALIFORNIA, Lake, CA02, -122.417, 38.862, 2200, 73.3, M
KONOCTI CALIFORNIA, Lake, CA02, -122.706, 38.912, 2163, 75.8, M
LOS BANOS CALIFORNIA, Merced, CA05, -121.053, 37.055, 350, 78.4, M
MT. LAGUNA CALIFORNIA, San Diego, CA07, -116.420, 32.880, 5760, 65.6, M
LA HONDA CALIFORNIA, San Mateo, CA04, -122.255, 37.305, 872, 65.3, M
LA PANZA CALIFORNIA, San Luis Obispo, CA04, -120.187, 35.381, 1630, 71.8, M
LAURAL MOUNTAIN CALIFORNIA, Kern, CA07, -117.699, 35.478, 4390, 78.2, M
LASSEN LODGE CALIFORNIA, Tehama, CA02, -121.714, 40.344, 4159, 73.3, M
LAUFMAN CALIFORNIA, Lassen, CA03, -120.353, 40.142, 5800, 68.6, M
LAYTONVILLE CALIFORNIA, Mendocino, CA01, -123.485, 39.702, 1820, 69.7, M
LADDER BUTTE CALIFORNIA, Lassen, CA02, -121.297, 40.807, 5750, 65.8, M
LEO CARRILLO CALIFORNIA, Los Angeles, CA06, -118.936, 34.046, 50, 69.3, M
LOS GATOS CALIFORNIA, Santa Clara, CA04, -121.943, 37.203, 2000, 74.2, M
LOST HORSE CALIFORNIA, Riverside, CA07, -116.188, 34.018, 4200, 74.0, M
LINCOLN CALIFORNIA, Placer, CA02, -121.268, 38.883, 200, 75.2, M
LOWER KLAMATH CALIFORNIA, Siskiyou, CA01, -121.700, 41.999, 4098, 61.9, M
LOS PRIETOS CALIFORNIA, Santa Barbara, CA06, -119.783, 34.536, 1020, 75.7, M
LAS FLORES CALIFORNIA, San Diego, CA06, -117.439, 33.289, 100, 72.5, M
LAS TABLAS CALIFORNIA, San Luis Obispo, CA04, -120.924, 35.656, 994, 71.8, M
LITTLE TUJUNGA CALIFORNIA, Los Angeles, CA06, -118.361, 34.294, 1390, 76.2, M
LYONS VALLEY CALIFORNIA, Lake, CA01, -123.074, 39.126, 3200, 71.0, M
LYTLE CREEK CALIFORNIA, San Bernardino, CA06, -117.480, 34.234, 2792, 77.0, M
MAD RIVER CALIFORNIA, Trinity, CA01, -123.524, 40.463, 2775, 67.5, M
MALIBU HILLS CALIFORNIA, Los Angeles, CA06, -118.633, 34.058, 1575, 78.0, M
MANZANITA LAKE CALIFORNIA, Shasta, CA02, -121.580, 40.540, 5660, 59.5, M
MARIPOSA GROVE CALIFORNIA, Mariposa, CA05, -119.605, 37.513, 6400, 68.3, M
MILL CREEK (BDF) CALIFORNIA, San Bernardino, CA06, -117.035, 34.084, 2950, 79.9, M
MCGUIRES CALIFORNIA, Mendocino, CA01, -123.601, 39.353, 593, 65.9, M
MEANS LAKE CALIFORNIA, San Bernardino, CA07, -116.517, 34.391, 2900, 80.8, M
MENDOCINO PASS CALIFORNIA, Mendocino, CA01, -122.945, 39.808, 5420, 66.5, M
METCALF GAP CALIFORNIA, Madera, CA05, -119.768, 37.409, 3077, 78.4, M
MEYERS CALIFORNIA, El Dorado, CA03, -120.018, 38.849, 6310, 58.4, M
MID HILLS CALIFORNIA, San Bernardino, CA07, -115.411, 35.123, 5413, 71.8, M
MILO CALIFORNIA, Tulare, CA05, -118.869, 36.231, 1923, 80.1, M
MALLORY RIDGE CALIFORNIA, Contra Costa, CA05, -121.779, 37.817, 2040, 74.8, M
MONTECITO CALIFORNIA, Santa Barbara, CA06, -119.648, 34.461, 1500, 76.5, M
MODOC NWR CALIFORNIA, Modoc, CA02, -120.354, 41.459, 4380, 61.8, M
MOJAVE RIVER SINK CALIFORNIA, San Bernardino, CA07, -116.079, 35.053, 950, 86.3, M
MORMON ROCK CALIFORNIA, San Bernardino, CA06, -117.502, 34.318, 3300, 76.7, M
MOUNTAIN REST CALIFORNIA, Fresno, CA05, -119.371, 37.054, 4100, 74.5, M
MARKLEEVILLE CALIFORNIA, Alpine, CA03, -119.767, 38.683, 5501, 63.8, M
MT. SHASTA CALIFORNIA, Siskiyou, CA02, -122.316, 41.316, -, 65.2, M
MARIPOSA CALIFORNIA, Mariposa, CA05, -119.987, 37.504, 2231, 74.5, M
MT. DIABLO CALIFORNIA, Contra Costa, CA05, -121.914, 37.882, 3849, 70.7, M
MOUNT ZION CALIFORNIA, Amador, CA05, -120.651, 38.389, 2960, 76.3, M
NORTH FORK CALIFORNIA, Madera, CA05, -119.505, 37.233, 2720, 76.2, M
OAK BOTTOM CALIFORNIA, Shasta, CA02, -122.606, 40.651, 1326, 77.7, M
OAK KNOLL CALIFORNIA, Siskiyou, CA01, -122.850, 41.839, 1940, 69.0, M
OAK MOUNTAIN CALIFORNIA, Shasta, CA02, -121.983, 41.006, 1700, 75.1, M
OAK CREEK CALIFORNIA, Inyo, CA07, -118.259, 36.843, 4855, 76.6, M
OJAI CALIFORNIA, Ventura, CA06, -119.230, 34.448, 765, 72.9, M
OAK GROVE CALIFORNIA, San Diego, CA06, -116.795, 33.393, 2752, 76.5, M
OAKLAND NORTH CALIFORNIA, Contra Costa, CA04, -122.221, 37.865, 1403, 69.0, M
OAK OPENING CALIFORNIA, Tulare, CA05, -118.702, 36.175, 3240, 77.6, M
OPAL MOUNTAIN CALIFORNIA, San Bernardino, CA07, -117.176, 35.154, 3240, 80.5, M
OWENS CAMP LOC CALIFORNIA, El Dorado, CA02, -120.245, 38.733, 5240, 66.6, M
OWENS VALLEY CALIFORNIA, Inyo, CA07, -118.551, 37.390, 4640, 75.0, M
OZENA CALIFORNIA, Ventura, CA06, -119.354, 34.682, 3670, 72.6, M
PANAMINT CALIFORNIA, Inyo, CA07, -117.088, 36.120, 6880, 69.2, M
PARKFIELD CALIFORNIA, Monterey, CA04, -120.432, 35.899, 1535, 74.3, M
PATTY MOCUS CALIFORNIA, Tehama, CA02, -122.867, 40.295, 3500, 72.3, M
PINE HILLS CALIFORNIA, San Diego, CA06, -116.634, 33.016, -, 74.2, M
PIERCE CALIFORNIA, Plumas, CA02, -120.642, 40.246, 5700, 64.9, M
PINEHURST CALIFORNIA, Fresno, CA05, -119.000, 36.685, 4060, 73.7, M
PIKE COUNTY LOOKOUT CALIFORNIA, Yuba, CA02, -121.202, 39.475, 3714, 72.9, M
PILOT HILL CALIFORNIA, El Dorado, CA02, -121.009, 38.833, 1200, 73.6, M
PIRU CALIFORNIA, Ventura, CA06, -118.810, 34.404, 614, 74.0, M
PARK RIDGE CALIFORNIA, Tulare, CA05, -118.942, 36.724, 7540, 73.6, M
PINNACLES CALIFORNIA, San Benito, CA04, -121.147, 36.471, 1322, 75.4, M
POPPY PARK CALIFORNIA, Los Angeles, CA07, -118.383, 34.733, 2760, 78.7, M
POTRERO CALIFORNIA, San Diego, CA06, -116.609, 32.606, 2345, 74.2, M
POVERTY CALIFORNIA, Santa Clara, CA04, -121.771, 37.443, 2066, 72.4, M
PANOCHE ROAD CALIFORNIA, Fresno, CA05, -120.766, 36.727, 2032, 78.0, M
PULGAS CALIFORNIA, San Mateo, CA04, -122.298, 37.475, 644, 71.1, M
QUARTZ HILL CALIFORNIA, Siskiyou, CA01, -122.934, 41.599, 4225, 69.3, M
QUINCY RD CALIFORNIA, Plumas, CA02, -120.942, 39.973, 3500, 68.1, M
RAVENDALE CALIFORNIA, Lassen, CA03, -120.316, 40.731, 5298, 63.2, M
RANCHITA CALIFORNIA, San Diego, CA07, -116.497, 33.222, 4415, 75.4, M
READER RANCH CALIFORNIA, Nevada, CA02, -121.117, 39.304, 1968, 75.4, M
REDDING AIRPORT CALIFORNIA, Shasta, CA02, -122.291, 40.516, 500, 76.6, M
RICE VALLEY CALIFORNIA, Riverside, CA07, -114.732, 34.061, 820, 88.7, M
WOODSIDE 3.4 S, San Mateo, CA04, -122.264, 37.375, 1592, M, 0.00
ROCK CREEK, Mono, CA07, -118.667, 37.551, 7040, 62.2, M
RODEO VALLEY, Mendocino, CA01, -123.321, 39.668, 2428, 70.5, M
ROSE VALLEY CALIFORNIA, Ventura, CA06, -119.184, 34.543, 3331, 66.5, M
ROUND MOUNTAIN, Siskiyou, CA02, -121.464, 41.427, 5258, 65.7, M
ROSE PEAK CALIFORNIA, Alameda, CA04, -121.735, 37.502, 3060, 70.6, M
RATTLESNAKE CALIFORNIA, Tulare, CA05, -118.422, 36.407, 8600, 60.6, M
RUSH CREEK CALIFORNIA, Modoc, CA02, -120.864, 41.294, 4800, 67.0, M
RUTH CALIFORNIA, Trinity, CA01, -123.316, 40.251, 2732, 64.9, M
SACRAMENTO NWR CALIFORNIA, Glenn, CA02, -122.182, 39.417, 120, 75.0, M
SADDLEBACK BUTTE CALIFORNIA, Los Angeles, CA07, -117.821, 34.685, 2590, 76.3, M
SAUGUS CALIFORNIA, Los Angeles, CA06, -118.525, 34.425, 1450, 79.1, M
SAWYERS BAR CALIFORNIA, Siskiyou, CA01, -123.132, 41.300, 2192, 70.8, M
SANTA BARBARA ISLAND CALIFORNI, Santa Barbara, CA06, -119.033, 33.483, 176, 63.2, M
SANTA CRUZ ISLAND CALIFORNIA, Santa Barbara, CA06, -119.722, 33.996, 250, 69.0, M
SCORPION CALIFORNIA, Trinity, CA01, -122.697, 41.112, 4400, 72.0, M
SODA CREEK CALIFORNIA, Lake, CA01, -122.977, 39.425, 1773, 68.7, M
SADDLEBACK CALIFORNIA, Sierra, CA02, -120.865, 39.638, 6670, 65.4, M
SECRET TOWN CALIFORNIA, Nevada, CA02, -120.885, 39.184, 2826, 73.1, M
SANTA FE DAM CALIFORNIA, Los Angeles, CA06, -117.946, 34.121, 500, 78.8, M
SHAVER CALIFORNIA, Fresno, CA05, -119.256, 37.135, 5746, 61.5, M
SCHOOL HOUSE CALIFORNIA, Humboldt, CA01, -123.906, 41.138, 2640, 64.6, M
SHIP MTN. CALIFORNIA, Del Norte, CA01, -123.792, 41.736, 5300, 60.9, M
SHADEQUARTER CALIFORNIA, Tulare, CA05, -118.956, 36.567, 4069, 74.7, M
SIMS CALIFORNIA, Shasta, CA02, -122.373, 41.075, 2400, 75.6, M
SIMI VALLEY CALIFORNIA, Ventura, CA06, -118.814, 34.291, 914, 74.4, M
SLATER BUTTE CALIFORNIA, Siskiyou, CA01, -123.352, 41.859, 4670, 67.3, M
SAN MIGUEL CALIFORNIA, San Diego, CA06, -116.974, 32.685, 425, 74.0, M
SAN LUIS NWR CALIFORNIA, Merced, CA05, -120.794, 37.182, 65, 74.6, M
SANTA RITA CALIFORNIA, San Benito, CA05, -120.598, 36.348, 5000, 70.9, M
SOLDIER MOUNTAIN CALIFORNIA, Shasta, CA02, -121.586, 40.926, 3710, 69.8, M
SOMES BAR CALIFORNIA, Siskiyou, CA01, -123.496, 41.390, 920, 71.4, M
SQUAW SPRINGS CALIFORNIA, San Bernardino, CA07, -117.568, 35.370, 3620, 80.5, M
SQUAW LAKE CALIFORNIA, Imperial, CA07, -114.494, 32.908, 300, 91.7, M
SANTA ROSA ISLAND CALIFORNIA, Santa Barbara, CA06, -120.078, 33.978, 1298, 66.7, M
SANTA ROSA PLATEAU CALIFORNIA, Riverside, CA06, -117.231, 33.529, 1980, 76.8, M
SANTA ROSA CALIFORNIA, Sonoma, CA01, -122.712, 38.479, 576, 69.1, M
STAMPEDE CALIFORNIA, Sierra, CA03, -120.075, 39.483, 6867, 60.9, M
STONYFORD CALIFORNIA, Colusa, CA02, -122.575, 39.367, 1200, 73.5, M
SUGARLOAF (SHF) CALIFORNIA, Shasta, CA02, -122.438, 40.917, 4200, 76.8, M
SUGARLOAF CALIFORNIA, Tulare, CA05, -118.675, 36.727, 8120, 62.6, M
SPRING VALLEY CALIFORNIA, San Mateo, CA04, -122.436, 37.563, 1075, 68.9, M
TALEGA CALIFORNIA, San Diego, CA06, -117.486, 33.478, 1203, 76.8, M
TANBARK CALIFORNIA, Los Angeles, CA06, -117.761, 34.207, 2600, 78.7, M
TARGET RANGE CALIFORNIA, San Diego, CA06, -117.359, 33.372, 918, 74.2, M
TEMESCAL (LPF) CALIFORNIA, Ventura, CA06, -118.756, 34.481, 1140, 77.6, M
THOMES CREEK CALIFORNIA, Tehama, CA02, -122.610, 39.864, 1040, 79.1, M
THOUSAND OAKS CALIFORNIA, Ventura, CA06, -118.870, 34.210, 795, 72.1, M
TIMBER MOUNTAIN CALIFORNIA, Modoc, CA01, -121.298, 41.629, 4960, 65.7, M
TEMESCAL (CNF) CALIFORNIA, Riverside, CA06, -117.483, 33.763, 1125, 79.5, M
MOUNT TOM CALIFORNIA, Fresno, CA05, -119.178, 37.376, 9018, 56.7, M
LAS TRAMPAS CALIFORNIA, Contra Costa, CA04, -122.067, 37.834, 1760, 73.0, M
TRINITY CAMP CALIFORNIA, Trinity, CA01, -122.804, 40.786, 3308, 69.5, M
TRIMMER CALIFORNIA, Fresno, CA05, -119.305, 36.911, 1540, 78.4, M
GAYLOR MEADOW CALIFORNIA, Tuolumne, CA05, -119.318, 37.868, 9270, 50.7, M
UHL / HOT SPRINGS, Tulare, CA05, -118.633, 35.889, 3720, 73.1, M
UNDERWOOD CALIFORNIA, Trinity, CA01, -123.495, 40.722, 2600, 69.2, M
VALLEY CENTER CALIFORNIA, San Diego, CA06, -117.009, 33.237, 1483, 75.9, M
VAN BREMMER CALIFORNIA, Siskiyou, CA01, -121.794, 41.643, 4928, 64.7, M
VALYERMO CALIFORNIA, Los Angeles, CA07, -117.851, 34.446, 3780, 73.7, M
VANDENBERG CALIFORNIA, Santa Barbara, CA06, -120.486, 34.759, 1050, 67.8, M
WALKER CALIFORNIA, Mono, CA03, -119.459, 38.565, 5440, 70.1, M
WALKER PASS CALIFORNIA, Kern, CA05, -118.057, 35.665, 5572, 74.0, M
WARM SPRINGS CALIFORNIA, Los Angeles, CA06, -118.579, 34.596, 4930, 77.6, M
WEED AIRPORT CALIFORNIA, Siskiyou, CA01, -122.454, 41.479, 2930, 67.7, M
WESTWOOD CALIFORNIA, Lassen, CA02, -120.900, 40.307, 5800, 65.6, M
WHITE CLOUD CALIFORNIA, Nevada, CA02, -120.837, 39.317, 4320, 73.5, M
WHITTIER HILLS CALIFORNIA, Los Angeles, CA06, -118.010, 33.984, 950, 77.3, M
WHITMORE CALIFORNIA, Shasta, CA02, -121.899, 40.619, 2417, 75.1, M
WILEY RIDGE CALIFORNIA, Ventura, CA06, -118.841, 34.372, 1645, 77.5, M
WOFFORD HEIGHTS CALIFORNIA, Kern, CA05, -118.499, 35.722, 3150, 75.5, M
WOLVERTON CALIFORNIA, Tulare, CA05, -118.703, 36.445, 5240, 74.1, M
WOODACRE CALIFORNIA, Marin, CA01, -122.645, 37.991, 1400, 72.3, M
WHITAKER PEAK CALIFORNIA, Los Angeles, CA06, -118.740, 34.569, 4120, 77.0, M
WHITE WOLF CALIFORNIA, Tuolumne, CA05, -119.650, 37.851, 8025, 57.9, M
YOLLA BOLLA CALIFORNIA, Trinity, CA01, -123.066, 40.338, 4524, 68.7, M
YUCCA VALLEY CALIFORNIA, San Bernardino, CA07, -116.408, 34.123, 3260, 77.5, M
YUROK CALIFORNIA, Humboldt, CA01, -123.857, 41.290, 495, 70.0, M
HAGAN'S MEADOW, El Dorado, CA03, -119.940, 38.850, 7776, 54.2, 0.10
BLUE LAKES, Alpine, CA05, -119.920, 38.610, 8057, 56.3, 0.30
POISON FLAT, Alpine, CA03, -119.630, 38.510, 7736, 53.6, 0.20
SONORA PASS, Mono, CA03, -119.600, 38.310, 8827, 54.8, 0.10
LEAVITT MEADOWS, Mono, CA03, -119.550, 38.300, 7198, 57.6, 0.20
VIRGINIA LAKES RIDGE, Mono, CA03, -119.230, 38.070, 9445, 55.5, 0.20
LOBDELL LAKE, Mono, CA03, -119.370, 38.440, 9233, 53.3, 0.10
EBBETTS PASS, Alpine, CA03, -119.800, 38.550, 8765, 57.1, 0.10
HEAVENLY VALLEY, El Dorado, CA03, -119.920, 38.920, 8582, 55.1, 0.00
LEAVITT LAKE, Mono, CA03, -119.610, 38.280, 9617, 54.4, 0.00
SPRATT CREEK, Alpine, CA03, -119.820, 38.670, 6115, 61.4, 0.20
MONITOR PASS, Alpine, CA03, -119.610, 38.670, 8310, 56.8, 0.20
BURNSIDE LAKE, Alpine, CA03, -119.890, 38.720, 8129, 52.2, 0.10
SUMMIT MEADOW, Mono, CA03, -119.540, 38.400, 9313, 54.8, 0.40
FORESTDALE CREEK, Alpine, CA03, -119.960, 38.680, 8017, 59.0, 0.20
HORSE MEADOW, Alpine, CA03, -119.890, 38.840, 8557, 56.8, 0.10
CARSON PASS, Alpine, CA02, -119.990, 38.690, 8353, 56.7, 0.00
CROWDER FLAT, Modoc, CA01, -120.750, 41.890, 5170, 60.5, 0.00
THOUSAND PALMS 0.7 W, Riverside, CA07, -116.398, 33.821, 254, M, T
PETALUMA 1.8 WSW, Sonoma, CA01, -122.656, 38.233, 157, M, 0.26
CEDAR PASS, Modoc, CA02, -120.300, 41.580, 7030, 61.0, 0.30
DISMAL SWAMP, Modoc, CA03, -120.180, 41.990, 7360, 55.5, 0.10
ADIN MTN, Modoc, CA02, -120.790, 41.240, 6190, 56.6, 0.00
INDEPENDENCE CREEK, Sierra, CA03, -120.280, 39.490, 6456, 57.0, 0.10
INDEPENDENCE CAMP, Sierra, CA03, -120.290, 39.450, 7003, 57.3, 0.00
INDEPENDENCE LAKE, Nevada, CA03, -120.310, 39.430, 8352, 58.5, 0.10
TRUCKEE #2, Placer, CA03, -120.180, 39.300, 6509, 61.6, 0.00
WARD CREEK #3, Placer, CA03, -120.220, 39.140, 6655, 57.2, 0.10
TAHOE CITY CROSS, Placer, CA03, -120.150, 39.170, 6797, 59.9, 0.00
SQUAW VALLEY G.C., Placer, CA03, -120.260, 39.190, 8029, 58.1, 0.00
CSS LAB, Nevada, CA02, -120.370, 39.330, 6855, 59.5, 0.10
RUBICON #2, El Dorado, CA03, -120.130, 39.000, 7689, 59.9, 0.20
ECHO PEAK, El Dorado, CA03, -120.080, 38.850, 7670, 60.0, 0.10
FALLEN LEAF, El Dorado, CA03, -120.050, 38.930, 6236, 55.8, 0.00
CAMPO ASOS, San Diego, CA07, -116.468, 32.626, 2641, 71.1, 0.02
Burbank Glendale Pasadena Area, -, -, -, -, -, 77.6, 0.00
Camarillo Area, -, -, -, -, -, 69.2, 0.01
Needles Area, -, -, -, -, -, 90.4, T
Oxnard Area, -, -, -, -, -, 69.4, 0.00
Palm Springs Area, -, -, -, -, -, 89.3, 0.00
Riverside Area, -, -, -, -, -, 79.5, 0.00
Ramona Area, -, -, -, -, -, 74.0, 0.04
Northern CA 8 Station Index, -, -, -, -, -, M, 0.15
San Joaquin 5 Station Index, -, -, -, -, -, M, 0.02
Crescent City Area, -, -, -, -, -, 59.0, 0.70
Escondido Area, -, -, -, -, -, M, M
Sacramento Downtown Area, -, -, -, -, -, 75.8, 0.19
Tahoe City Area, -, -, -, -, -, 59.0, T
Ukiah Area, -, -, -, -, -, 71.7, 0.01
Alturas Area, -, -, -, -, -, 60.7, 0.00
Mount Shasta Area, -, -, -, -, -, 63.9, 0.29
Palmdale Area, -, -, -, -, -, 78.1, T
Lancaster Area, -, -, -, -, -, 76.5, 0.00
El Cajon Area, -, -, -, -, -, 76.9, 0.00
Hanford Area, -, -, -, -, -, 75.3, 0.02
El Centro Area, -, -, -, -, -, 89.5, T
Madera Area, -, -, -, -, -, 76.3, 0.04
Merced Area, -, -, -, -, -, 75.2, 0.17
San Jose Area, -, -, -, -, -, 70.6, 0.21