Name, County, ClimateDivision, Longitude, Latitude, Elevation, MeanAvgTemperature, TotalPrecipitation
IMPERIAL, Imperial, CA07, -115.567, 32.849, -64, 57.3, 0.66
LAKESIDE 2 E, San Diego, CA06, -116.895, 32.854, 690, M, 8.48
POWAY VALLEY, San Diego, CA06, -117.031, 33.020, 648, 55.0, 8.97
JULIAN CDF, San Diego, CA06, -116.592, 33.076, 4215, 48.3, 11.43
CARLSBAD MCCLELLAN PALOMAR AP, San Diego, CA06, -117.277, 33.130, 313, 57.7, 7.14
HENSHAW DAM, San Diego, CA06, -116.761, 33.237, 2700, 45.8, 15.25
VISTA, San Diego, CA06, -117.232, 33.235, 430, 56.4, 8.12
OCEANSIDE MARINA, San Diego, CA06, -117.395, 33.210, 10, 54.3, 7.22
NILAND, Imperial, CA07, -115.524, 33.278, -60, M, 0.67
BORREGO DESERT PARK, San Diego, CA07, -116.404, 33.256, 810, 59.4, 2.65
PALOMAR MTN OBSERVATORY, San Diego, CA06, -116.840, 33.378, 5550, 47.4, 21.97
MECCA FIRE STATION, Riverside, CA07, -116.073, 33.570, -183, 58.3, 1.20
LAGUNA BEACH, Orange, CA06, -117.781, 33.545, 44, M, 11.05
BLYTHE ASOS, Riverside, CA07, -114.715, 33.619, 395, 56.7, 0.54
DESERT RESORTS REGIONAL AP, Riverside, CA07, -116.164, 33.632, -118, 56.4, 0.52
DEEP CANYON LAB, Riverside, CA07, -116.376, 33.651, 1200, M, 1.90
ELSINORE, Riverside, CA06, -117.346, 33.686, 1268, 55.0, 11.67
SANTA ANA JOHN WAYNE AP, Orange, CA06, -117.867, 33.680, 43, 59.3, 9.19
HAYFIELD PUMPING PLANT, Riverside, CA07, -115.629, 33.704, 1370, 55.5, 2.21
IDYLLWILD FIRE DEPT, Riverside, CA06, -116.707, 33.757, 5380, 45.1, 11.85
SAN JACINTO, Riverside, CA06, -116.975, 33.797, 1525, 53.1, 7.17
HEMET, Riverside, CA06, -116.894, 33.738, 1811, 55.0, 7.13
SANTA ANA FIRE STATION, Orange, CA06, -117.867, 33.744, 135, 58.7, 10.83
EAGLE MOUNTAIN, Riverside, CA07, -115.451, 33.809, 973, 56.7, 1.17
PALM SPRINGS, Riverside, CA07, -116.510, 33.828, 425, 59.5, 6.71
LONG BEACH DAUGHERTY AP, Los Angeles, CA06, -118.147, 33.812, 34, 56.2, 10.41
PALOS VERDES ES FC43D, Los Angeles, CA06, -118.391, 33.800, 220, M, 7.69
FULLERTON MUNICIPAL AP, Orange, CA06, -117.986, 33.872, 86, 56.4, 9.22
BEAUMONT #2, Riverside, CA07, -116.990, 33.926, 2591, M, 5.77
MARCH AFB, Riverside, CA06, -117.250, 33.900, 1536, 52.2, 7.70
DOWNEY FIRE DEPT. FC107C, Los Angeles, CA06, -118.145, 33.930, 110, M, 10.33
HAWTHORNE MUNICIPAL AP, Los Angeles, CA06, -118.333, 33.924, 55, 58.0, 8.82
LOS ANGELES INTL AP, Los Angeles, CA06, -118.387, 33.938, 97, 58.2, 8.83
RIVERSIDE FIRE STATION 3, Riverside, CA06, -117.388, 33.951, 840, 53.7, 0.22
RIVERSIDE MUNICIPAL AP, Riverside, CA06, -117.435, 33.953, 845, 56.7, 6.88
CHINO AP, San Bernardino, CA06, -117.625, 33.976, 636, 54.7, 5.05
WHITTIER CITY YARD FC106C, Los Angeles, CA06, -118.022, 33.976, 446, M, 12.45
BARSTOW-DAGGETT AIRPORT, San Bernardino, CA07, -116.787, 34.854, 1919, 50.8, 2.52
MERCED, Merced, CA05, -120.516, 37.289, 154, 49.9, 3.62
SAN DIEGO MONTGOMERY FIELD, San Diego, CA06, -117.137, 32.815, 418, 56.2, 6.49
SAN DIEGO INTERNATIONAL AP, San Diego, CA06, -117.183, 32.734, 15, 58.8, 5.00
SAN DIEGO MIRAMAR NAS, San Diego, CA06, -117.133, 32.867, 477, 56.2, 6.69
NORTH ISLAND NAS, San Diego, CA06, -117.210, 32.692, 14, 58.3, 5.25
SAN FRANCISCO INTERNATIONAL AP, San Mateo, CA04, -122.366, 37.620, 10, 52.1, 6.00
SAN LUIS OBISPO MCCHESNEY FIELD, San Luis Obispo, CA04, -120.644, 35.238, 183, 54.0, 12.97
CEDARVILLE, Modoc, CA03, -120.179, 41.530, 4688, 35.2, 3.88
CHICO UNIVERSITY FARM, Butte, CA02, -121.821, 39.691, 185, 50.5, 1.68
CHULA VISTA, San Diego, CA06, -117.086, 32.640, 56, 57.4, 4.92
COLFAX, Placer, CA02, -120.947, 39.090, 2373, 44.2, 13.11
CUYAMACA, San Diego, CA06, -116.587, 32.990, 4640, 43.4, 13.66
DAVIS 2 WSW EXP FARM, Yolo, CA02, -121.776, 38.535, 60, 50.3, 5.49
DEATH VALLEY NATIONAL PARK, Inyo, CA07, -116.867, 36.463, -194, 54.2, 0.47
FAIRMONT, Los Angeles, CA07, -118.430, 34.705, 3060, 46.7, 6.80
FORT BRAGG 5 N, Mendocino, CA01, -123.756, 39.510, 123, 48.5, 11.52
HANFORD 1 S, Kings, CA05, -119.637, 36.316, 237, 50.2, 6.46
HAPPY CAMP RANGER STATION, Siskiyou, CA01, -123.375, 41.796, 1142, 39.3, 8.03
HEALDSBURG, Sonoma, CA01, -122.866, 38.629, 177, 50.2, 10.79
INDIO FIRE STATION, Riverside, CA07, -116.215, 33.709, -21, 61.3, 2.62
LEMON COVE, Tulare, CA05, -119.026, 36.382, 513, 49.5, 8.74
LIVERMORE, Alameda, CA04, -121.751, 37.682, 529, 50.3, 3.87
LODI, San Joaquin, CA05, -121.288, 38.106, 40, 51.7, 2.63
MERCED MUNICIPAL AP, Merced, CA05, -120.518, 37.286, 152, 49.4, 3.41
NAPA STATE HOSPITAL, Napa, CA01, -122.265, 38.278, 35, 50.8, 8.64
OJAI, Ventura, CA06, -119.227, 34.448, 745, 51.5, 8.63
ORLAND, Glenn, CA02, -122.200, 39.746, 254, 48.2, 4.93
ORLEANS, Humboldt, CA01, -123.532, 41.309, 403, 44.9, 13.34
PASADENA, Los Angeles, CA06, -118.145, 34.148, 864, 58.2, 15.10
PASO ROBLES, San Luis Obispo, CA04, -120.685, 35.628, 730, 49.7, 7.14
PETALUMA AIRPORT, Sonoma, CA01, -122.608, 38.258, 20, 49.6, 8.35
QUINCY, Plumas, CA02, -120.947, 39.937, 3420, 37.6, 13.82
REDLANDS, San Bernardino, CA06, -117.195, 34.037, 1410, 54.1, 12.60
SANTA CRUZ, Santa Cruz, CA04, -122.000, 36.988, 70, 50.9, 9.40
SANTA ROSA, Sonoma, CA01, -122.713, 38.456, 166, 49.5, 8.38
TAHOE CITY, Placer, CA03, -120.143, 39.168, 6230, 32.5, 11.40
UKIAH, Mendocino, CA01, -123.210, 39.147, 636, 48.3, 9.12
WASCO, Kern, CA05, -119.352, 35.589, 291, 51.5, 5.76
WEAVERVILLE, Trinity, CA01, -122.940, 40.737, 2058, 41.9, 9.44
WILLOWS 6 W, Glenn, CA02, -122.305, 39.523, 234, 49.0, 1.32
YOSEMITE PARK HEADQUARTERS, Mariposa, CA05, -119.590, 37.750, 4018, 39.6, 2.20
YREKA, Siskiyou, CA01, -122.641, 41.703, 2709, 38.2, 4.19
BERKELEY, Alameda, CA04, -122.260, 37.874, 310, 51.9, 7.88
BLYTHE, Riverside, CA07, -114.597, 33.613, 268, 57.0, 0.80
EUREKA WFO WOODLEY ISLAND, Humboldt, CA01, -124.160, 40.810, 20, 49.6, 10.08
INDEPENDENCE, Inyo, CA07, -118.204, 36.798, 3950, 44.3, 7.70
SAN LUIS OBISPO POLY, San Luis Obispo, CA04, -120.662, 35.306, 308, 53.5, 9.67
BURNEY, Shasta, CA02, -121.655, 40.880, 3198, 36.5, 7.29
IMPERIAL BEACH REAM FIELD NAS, San Diego, CA06, -117.117, 32.568, 24, M, 1.94
CAMPO, San Diego, CA06, -116.470, 32.626, 2630, 50.4, 8.22
EL CENTRO 2 SSW, Imperial, CA07, -115.562, 32.767, -30, 60.2, 0.42
IMPERIAL COUNTY AP, Imperial, CA07, -115.577, 32.835, -55, 58.6, 0.47
EL CENTRO NAF, Imperial, CA07, -115.664, 32.832, -46, 55.2, 0.24
ALPINE, San Diego, CA06, -116.777, 32.836, 1695, 53.8, 7.74
CULVER CITY, Los Angeles, CA06, -118.414, 34.005, 92, 53.4, 10.01
SANTA MONICA MUNICIPAL AP, Los Angeles, CA06, -118.447, 34.021, 175, 56.7, 9.57
SANTA MONICA PIER, Los Angeles, CA06, -118.500, 34.008, 14, M, 0.14
ONTARIO INTL AP, San Bernardino, CA06, -117.577, 34.053, 924, 55.1, 7.82
POMONA/FAIRPLEX, Los Angeles, CA06, -117.766, 34.082, 999, 55.0, 9.86
COVINA CITY YARD FC387B, Los Angeles, CA06, -117.880, 34.092, 607, M, 12.49
U C L A, Los Angeles, CA06, -118.443, 34.070, 430, 59.2, 11.23
TOPANGA PATROL FC-6, Los Angeles, CA06, -118.599, 34.084, 745, M, 15.43
IRON MOUNTAIN, San Bernardino, CA07, -115.122, 34.147, 922, 58.1, 1.42
TWENTYNINE PALMS, San Bernardino, CA07, -116.037, 34.128, 1975, 53.6, 0.77
JOSHUA TREE, San Bernardino, CA07, -116.275, 34.147, 2563, 51.2, 2.37
SAN DIMAS FIRE FC 95, Los Angeles, CA06, -117.802, 34.105, 958, M, 12.27
GLENDORA FC 287B, Los Angeles, CA06, -117.847, 34.147, 933, M, 17.71
SAN GABRIEL FIRE DEPT, Los Angeles, CA06, -118.100, 34.084, 363, M, 4.98
POINT MUGU NF, Ventura, CA06, -119.123, 34.124, 12, 53.9, 0.22
ALTADENA, Los Angeles, CA06, -118.138, 34.182, 1127, M, 12.25
SAN GABRIEL CANYON PH, Los Angeles, CA06, -117.908, 34.155, 744, M, 16.19
WOODLAND HILLS PIERCE COLLEGE, Los Angeles, CA06, -118.574, 34.182, 790, 54.9, 6.37
LYTLE CREEK R S, San Bernardino, CA06, -117.471, 34.238, 2730, M, 8.16
MT WILSON CBS, Los Angeles, CA06, -118.071, 34.231, 5710, 47.1, 11.67
LA CRESCENTA FC251 C, Los Angeles, CA06, -118.238, 34.222, 1545, M, 13.64
VAN NUYS AP, Los Angeles, CA06, -118.491, 34.212, 785, 56.0, 7.55
CAMARILLO AP, Ventura, CA06, -119.088, 34.211, 71, 55.5, 7.63
OXNARD VENTURA COUNTY AP, Ventura, CA06, -119.204, 34.200, 39, 56.5, 9.61
PARKER RESRVOIR, San Bernardino, CA07, -114.171, 34.290, 738, 57.5, 1.64
TWENTYNINE PALMS MC, San Bernardino, CA07, -116.147, 34.294, 2003, M, 2.22
BIG BEAR LAKE, San Bernardino, CA06, -116.917, 34.243, 6753, 38.6, 16.30
LAKE ARROWHEAD, San Bernardino, CA07, -117.188, 34.247, 5205, M, 8.86
CHATSWORTH FC 24 F, Los Angeles, CA06, -118.600, 34.250, 950, M, 7.47
VENTURA, Ventura, CA06, -119.292, 34.283, 105, M, 7.99
CRYSTAL LAKE FC238C, Los Angeles, CA06, -117.842, 34.318, 5345, M, 21.79
BIG TUJUNGA DAM FC46, Los Angeles, CA06, -118.188, 34.295, 2326, M, 17.03
PACOIMA DAM FC33A-E, Los Angeles, CA06, -118.400, 34.329, 1550, M, 8.90
PIRU 2 ESE, Ventura, CA06, -118.757, 34.406, 712, M, 8.90
SANTA BARBARA MUNI AP, Santa Barbara, CA06, -119.842, 34.424, 8, 53.3, 10.15
JUNCAL DAM, Santa Barbara, CA06, -119.507, 34.491, 2260, M, 14.01
VICTORVILLE, San Bernardino, CA07, -117.293, 34.529, 2880, 48.4, 5.35
ACTON ESCONDIDO FC261, Los Angeles, CA06, -118.271, 34.494, 2833, M, 7.08
GIBRALTAR DAM NO. 2, Santa Barbara, CA06, -119.682, 34.523, 1558, M, 10.74
AMBOY, San Bernardino, CA07, -115.744, 34.559, 648, 54.8, 1.57
PALMDALE, Los Angeles, CA07, -118.094, 34.588, 2612, 49.5, 4.15
SAUGUS POWER PLANT 1, Los Angeles, CA06, -118.454, 34.590, 2161, M, 10.50
LOS PRIETOS RS, Santa Barbara, CA06, -119.791, 34.544, 1024, M, 10.85
CACHUMA LAKE, Santa Barbara, CA06, -119.982, 34.582, 789, 53.1, 9.48
SALSIPUEDES GAGING STATION, Santa Barbara, CA06, -120.408, 34.585, 254, M, 10.17
PALMDALE AP, Los Angeles, CA07, -118.083, 34.629, 2509, 48.0, 3.30
LOMPOC, Santa Barbara, CA06, -120.451, 34.654, 75, 54.5, 8.88
LANCASTER, Los Angeles, CA06, -118.213, 34.741, 2338, 47.5, 3.97
SANDBERG, Los Angeles, CA06, -118.724, 34.744, 4510, 44.6, 4.83
LEBEC, Kern, CA05, -118.865, 34.833, 3575, 46.8, 2.72
CHUCHUPATE RANGER STN, Ventura, CA05, -119.011, 34.808, 5260, M, 0.00
MITCHELL CAVERNS, San Bernardino, CA07, -115.547, 34.944, 4350, 48.4, 5.14
NEW CUYAMA FIRE STATION, Santa Barbara, CA06, -119.683, 34.946, 2160, 51.5, 4.14
TWITCHELL DAM, Santa Barbara, CA06, -120.321, 34.988, 582, 52.4, 12.63
TEHACHAPI AP, Kern, CA05, -118.432, 35.131, 3960, 44.9, 4.09
PISMO BEACH, San Luis Obispo, CA04, -120.683, 35.160, 39, 52.8, 11.75
TAFT, Kern, CA05, -119.430, 35.150, 773, 50.1, 0.11
BAKER, San Bernardino, CA07, -116.063, 35.276, 962, 50.7, 3.40
SALINAS DAM, San Luis Obispo, CA04, -120.504, 35.337, 1392, M, 12.31
RANDSBURG, Kern, CA07, -117.652, 35.369, 3570, 46.6, 4.11
SANTA MARGARITA BOOST, San Luis Obispo, CA04, -120.637, 35.374, 1148, 50.6, 16.67
MORRO BAY FIRE DEPT, San Luis Obispo, CA04, -120.845, 35.367, 118, 53.9, 10.56
BAKERSFIELD AP, Kern, CA05, -119.055, 35.434, 490, 52.5, 5.82
BUTTONWILLOW, Kern, CA05, -119.470, 35.403, 225, 50.7, 5.93
GLENNVILLE, Kern, CA05, -118.701, 35.727, 3140, 44.8, 8.02
TRONA, San Bernardino, CA07, -117.391, 35.764, 1695, 48.9, 2.57
DELANO, Kern, CA05, -119.260, 35.768, 302, 51.3, 6.10
BRADLEY TELEMETERING, Monterey, CA04, -120.868, 35.930, 443, M, 0.16
SHOSHONE, Inyo, CA07, -116.271, 35.972, 1546, 51.0, 1.36
PORTERVILLE MUNICIPAL AIRPORT, Tulare, CA05, -119.062, 36.029, 442, 50.8, 0.00
KETTLEMAN CITY, Kings, CA05, -119.960, 36.007, 240, 50.8, 4.19
HAIWEE, Inyo, CA07, -117.953, 36.139, 3825, 45.9, 4.92
CORCORAN IRRIGATION DIST., Kings, CA05, -119.582, 36.098, 200, 49.5, 4.15
COALINGA, Fresno, CA05, -120.361, 36.136, 670, 51.5, 4.43
PRIEST VALLEY, Monterey, CA04, -120.695, 36.188, 2300, 45.3, 8.76
KING CITY, Monterey, CA04, -121.138, 36.207, 320, 52.4, 2.93
LINDSAY, Tulare, CA05, -119.054, 36.203, 435, 49.2, 7.99
BIG SUR STATION, Monterey, CA04, -121.780, 36.247, 200, 51.9, 6.66
VISALIA, Tulare, CA05, -119.300, 36.328, 303, 50.2, 6.33
FIVE POINTS 5 SSW, Fresno, CA05, -120.156, 36.364, 285, 50.5, 3.19
SAN CLEMENTE DAM, Monterey, CA04, -121.709, 36.438, 600, M, 5.47
ASH MOUNTAIN, Tulare, CA05, -118.825, 36.491, 1708, 46.7, 12.68
THREE RIVERS EDISON PH 1, Tulare, CA05, -118.862, 36.465, 1140, 47.4, 11.23
PINNACLES NATIONAL PARK, San Benito, CA04, -121.182, 36.482, 1307, 48.7, 5.27
CARMEL VALLEY, Monterey, CA04, -121.724, 36.481, 480, 51.3, 4.15
LODGEPOLE, Tulare, CA05, -118.732, 36.604, 6735, 28.5, 26.71
PANOCHE 2 W, San Benito, CA05, -120.884, 36.607, 1400, M, 3.72
MONTEREY, Monterey, CA04, -121.855, 36.593, 122, 51.7, 4.75
SALINAS NO. 2, Monterey, CA04, -121.666, 36.659, 45, 52.9, 3.53
SALINAS AP, Monterey, CA04, -121.609, 36.664, 73, 52.9, 3.03
GRANT GROVE, Tulare, CA05, -118.962, 36.738, 6580, 35.9, 21.14
PINE FLAT DAM, Fresno, CA05, -119.337, 36.821, 615, 50.9, 12.13
LOS BANOS ARBURUA RANCH, Merced, CA05, -120.939, 36.875, 843, M, 2.58
HOLLISTER 2, San Benito, CA04, -121.421, 36.848, 275, 50.0, 2.02
BALCH POWER HOUSE, Fresno, CA05, -119.088, 36.909, 1735, 46.3, 13.62
WATSONVILLE WATERWORKS, Santa Cruz, CA04, -121.769, 36.931, 95, 51.6, 6.67
FRIANT GOVERNMENT CAMP, Fresno, CA05, -119.707, 36.997, 410, 49.9, 6.91
MADERA, Madera, CA05, -120.038, 36.954, 270, 49.4, 5.40
WISHON DAM, Fresno, CA05, -118.984, 37.007, 6550, 38.4, 5.17
GILROY, Santa Clara, CA04, -121.561, 37.003, 194, 51.5, 4.71
AUBERRY 2 NW, Fresno, CA05, -119.513, 37.092, 2090, 46.9, 12.59
LOS BANOS, Merced, CA05, -120.867, 37.056, 120, 50.3, 3.92
BEN LOMOND NO. 4, Santa Cruz, CA04, -122.080, 37.086, 420, 49.8, 16.39
MORGAN HILL, Santa Clara, CA04, -121.602, 37.136, 375, M, M
SOUTH LAKE, Inyo, CA07, -118.570, 37.168, 9580, M, 9.26
LAKE SABRINA, Inyo, CA07, -118.614, 37.213, 9065, M, 7.13
HUNTINGTON LAKE, Fresno, CA05, -119.221, 37.228, 7020, M, 17.70
NORTH FORK RS, Madera, CA05, -119.510, 37.233, 2645, 43.4, 5.42
LOS GATOS, Santa Clara, CA04, -121.959, 37.232, 365, 50.8, 7.18
BISHOP CREEK INTAKE 2, Inyo, CA07, -118.581, 37.248, 8154, M, 6.54
NEWMAN, Stanislaus, CA05, -121.018, 37.281, 90, 52.4, 3.32
MOUNT HAMILTON, Santa Clara, CA04, -121.635, 37.343, 4220, 42.8, 6.90
BISHOP AIRPORT, Inyo, CA07, -118.359, 37.371, 4110, 40.4, 5.37
MOFFETT FEDERAL AIRFIELD, Santa Clara, CA04, -122.048, 37.406, 39, 53.7, 3.47
WOODSIDE FIRE STATION 1, San Mateo, CA04, -122.256, 37.429, 380, 50.3, 9.48
TURLOCK #2, Stanislaus, CA05, -120.846, 37.502, 103, 49.5, 3.87
PALO ALTO, Santa Clara, CA04, -122.140, 37.444, 25, 49.8, 3.81
REDWOOD CITY, San Mateo, CA04, -122.239, 37.477, 31, 51.8, 1.75
HALF MOON BAY, San Mateo, CA04, -122.443, 37.473, 27, 51.9, 7.71
SO ENTRANCE YOSEMITE N.P., Mariposa, CA05, -119.633, 37.512, 5047, 35.1, 14.27
MARIPOSA R S, Mariposa, CA05, -119.986, 37.495, 2100, M, 11.62
NEWARK, Alameda, CA04, -122.032, 37.515, 10, 52.3, 3.64
EXCHEQUER DAM, Mariposa, CA05, -120.267, 37.585, 442, M, 7.61
MODESTO AP, Stanislaus, CA05, -120.955, 37.625, 87, 50.4, 3.54
HAYWARD AIR TERMINAL, Alameda, CA04, -122.121, 37.659, 31, 53.1, 5.14
TRACY CARBONA, San Joaquin, CA05, -121.347, 37.682, 135, 48.0, 1.19
LIVERMORE MUNICIPAL AP, Alameda, CA04, -121.815, 37.693, 393, 50.3, 3.98
OAKLAND INTERNATIONAL AIRPORT, Alameda, CA04, -122.233, 37.718, 5, 51.6, 6.63
UPPER SAN LEANDRO FILTERS, Alameda, CA04, -122.167, 37.772, 394, M, 7.52
SAN FRANCISCO DOWNTOWN, San Francisco, CA04, -122.427, 37.771, 150, 53.1, 6.71
SAN FRANCISCO OCEANSIDE, San Francisco, CA04, -122.505, 37.728, 8, 51.5, 7.36
GROVELAND 2, Tuolumne, CA05, -120.226, 37.844, 2800, 43.6, 13.23
TRACY PUMPING PLANT, Alameda, CA05, -121.583, 37.796, 61, 50.9, 3.29
OAKLAND MUSEUM, Alameda, CA04, -122.264, 37.798, 30, 53.4, 8.67
TUOLUMNE MEADOWS R.S., Tuolumne, CA05, -119.344, 37.877, 8694, 31.2, 6.53
MATHER, Tuolumne, CA05, -119.856, 37.885, 4510, M, 10.86
MOUNT DIABLO JUNCTION, Contra Costa, CA04, -121.930, 37.879, 2170, 46.8, 8.05
ELLERY LAKE, Mono, CA03, -119.230, 37.936, 9645, M, 5.47
STOCKTON AP, San Joaquin, CA05, -121.226, 37.890, 27, 50.0, 4.24
RICHMOND, Contra Costa, CA04, -122.377, 37.919, 20, 52.7, 5.50
MUIR WOODS, Marin, CA01, -122.569, 37.898, 220, M, 11.62
HETCH HETCHY, Tuolumne, CA05, -119.783, 37.961, 3870, 38.3, 14.04
CHERRY VALLEY DAM, Tuolumne, CA05, -119.916, 37.975, 4765, 38.7, 21.05
SONORA, Tuolumne, CA05, -120.387, 37.967, 1675, 45.8, 10.37
STOCKTON FIRE STA 4, San Joaquin, CA05, -121.318, 37.999, 12, 51.0, 6.01
ANTIOCH PUMPING PLANT #3, Contra Costa, CA05, -121.752, 37.983, 60, 52.0, M
CONCORD BUCHANAN FIELD, Contra Costa, CA04, -122.053, 37.992, 23, 50.8, 4.98
CONCORD WASTEWATER PLANT, Contra Costa, CA04, -122.069, 37.983, 40, 51.0, 5.58
SAN RAFAEL-CIVIC CENTER, Marin, CA01, -122.537, 37.998, 120, 50.0, 8.12
KENTFIELD, Marin, CA01, -122.545, 37.957, 145, 50.6, 12.46
MARTINEZ WATER PLANT, Contra Costa, CA04, -122.114, 38.013, 40, 48.3, 5.50
SAN ANDREAS 2, Calaveras, CA05, -120.671, 38.191, 1100, M, 0.00
BODIE CALIFORNIA STATE HISTORIC PARK, Mono, CA03, -119.014, 38.212, 8370, 29.4, 2.26
ACAMPO 5NE, San Joaquin, CA05, -121.201, 38.218, 87, M, 5.22
NAPA COUNTY AIRPORT, Napa, CA04, -122.280, 38.208, 16, 49.4, 7.46
BRIDGEPORT, Mono, CA03, -119.229, 38.258, 6470, 30.7, 4.52
CALAVERAS BIG TREES, Calaveras, CA05, -120.311, 38.277, 4695, 35.8, 18.25
CAMP PARDEE, Calaveras, CA05, -120.843, 38.249, 658, 50.3, 6.53
TRAVIS FIELD AFB, Solano, CA02, -121.933, 38.267, 62, 43.0, 3.69
FAIRFIELD, Solano, CA02, -122.068, 38.274, 40, 49.5, 7.13
SONOMA, Sonoma, CA01, -122.462, 38.299, 97, 49.5, 8.97
SUTTER HILL CDF, Amador, CA05, -120.801, 38.377, 1586, 48.1, 10.42
WEST POINT, Calaveras, CA05, -120.545, 38.378, 2775, M, 16.91
ATLAS ROAD BROWN, Napa, CA01, -122.248, 38.427, 1680, M, 13.27
GRATON, Sonoma, CA01, -122.865, 38.431, 200, 49.0, 12.05
OCCIDENTAL, Sonoma, CA01, -122.966, 38.386, 865, 47.6, 14.69
FIDDLETOWN DEXTER RCH, Amador, CA05, -120.698, 38.525, 2170, M, 12.72
SACRAMENTO AP ASOS, Sacramento, CA02, -121.496, 38.507, 19, 49.9, 5.55
WINTERS, Yolo, CA02, -121.978, 38.525, 135, 50.2, 6.79
LAKE SOLANO, Solano, CA02, -122.004, 38.492, 187, 49.6, 7.48
SAINT HELENA, Napa, CA01, -122.471, 38.507, 225, 49.8, 11.32
SAINT HELENA 4 WSW, Napa, CA01, -122.538, 38.493, 1780, M, 12.52
SACRAMENTO 5 ESE, Sacramento, CA02, -121.418, 38.555, 38, 51.1, 5.52
ANGWIN PACIFIC UNION COLLEGE, Napa, CA01, -122.440, 38.573, 1715, 45.0, 11.31
CALISTOGA, Napa, CA01, -122.578, 38.577, 350, 48.9, 10.15
VENADO, Sonoma, CA01, -123.018, 38.609, 1260, M, 15.75
WOODLAND 1 WNW, Yolo, CA02, -121.794, 38.683, 67, 50.7, 6.49
PLACERVILLE, El Dorado, CA02, -120.824, 38.696, 1850, 47.1, 12.92
REPRESA, Sacramento, CA02, -121.161, 38.694, 295, M, 5.04
SACRAMENTO METROPOLITAN AP, Sacramento, CA02, -121.595, 38.701, 24, 49.3, 5.64
PACIFIC HOUSE, El Dorado, CA02, -120.503, 38.758, 3450, 37.0, 17.43
MIDDLETOWN, Lake, CA02, -122.626, 38.748, 1121, M, 12.01
CLOVERDALE, Sonoma, CA01, -123.026, 38.793, 400, 50.5, 9.75
KELSEY 1 N, El Dorado, CA02, -120.821, 38.809, 2000, M, 12.60
SOUTH LAKE TAHOE AP, El Dorado, CA03, -119.996, 38.898, 6257, 35.1, 6.43
GEORGETOWN RS, El Dorado, CA02, -120.801, 38.933, 3001, 43.6, 9.44
AUBURN, Placer, CA02, -121.084, 38.907, 1292, 47.2, 5.84
NICOLAUS #2, Sutter, CA02, -121.545, 38.926, 43, M, 6.38
YORKVILLE, Mendocino, CA01, -123.231, 38.905, 1100, M, 8.45
CLEARLAKE 4 SE, Lake, CA02, -122.567, 38.924, 1349, 46.5, 1.25
FORESTHILL RANGER STATION, Placer, CA02, -120.845, 39.010, 3015, M, 20.93
MARYSVILLE AIRPORT (ASOS), Yuba, CA02, -121.569, 39.102, 62, 50.3, 6.15
UKIAH MUNICIPAL AP, Mendocino, CA01, -123.200, 39.128, 603, 48.2, 9.20
UKIAH 4 WSW, Mendocino, CA01, -123.272, 39.127, 1328, M, 11.97
GOLD RUN 4 SW, Placer, CA02, -120.900, 39.150, 3220, M, 19.62
WILLIAMS, Colusa, CA02, -122.150, 39.150, 85, M, 14.32
GRASS VALLEY NO. 2, Nevada, CA02, -121.068, 39.204, 2400, 44.0, 17.70
HARRY L. ENGLEBRIGHT DAM, Nevada, CA02, -121.267, 39.237, 800, M, 12.29
COLUSA 2 SSW, Colusa, CA02, -122.027, 39.188, 50, 49.7, 4.48
BLUE CANYON NYACK AP, Placer, CA02, -120.709, 39.276, 5286, 37.6, 19.62
NEVADA CITY, Nevada, CA02, -121.001, 39.247, 2781, 41.9, 20.33
TRUCKEE AIRPORT, Nevada, CA03, -120.139, 39.320, 5900, 31.1, 7.55
TRUCKEE RS, Nevada, CA03, -120.173, 39.333, 5823, M, 0.76
DONNER MEMORIAL ST PARK, Nevada, CA03, -120.233, 39.324, 5937, 31.7, 13.08
COLGATE POWERHOUSE, Yuba, CA02, -121.192, 39.331, 595, M, 14.65
MOULTON WEIR, Colusa, CA02, -122.017, 39.333, 76, M, 1.60
BOCA, Nevada, CA03, -120.094, 39.389, 5575, 31.3, 7.58
POTTER VALLEY POWERHOUSE, Mendocino, CA01, -123.129, 39.362, 1018, 47.0, 8.55
FARAD, Nevada, CA03, -120.033, 39.428, 5153, M, 7.10
WILLITS 1 NE, Mendocino, CA01, -123.342, 39.419, 1353, 44.2, 12.24
BOWMAN DAM, Nevada, CA02, -120.656, 39.454, 5385, 36.1, 27.10
OROVILLE, Butte, CA02, -121.553, 39.518, 171, 47.2, 8.67
OROVILLE MUNICIPAL AP, Butte, CA02, -121.622, 39.494, 187, 50.0, 7.34
SIERRAVILLE RS, Sierra, CA02, -120.370, 39.583, 4975, 33.5, 3.76
DOWNIEVILLE, Sierra, CA02, -120.824, 39.563, 2915, 39.0, 21.46
STRAWBERRY VALLEY, Yuba, CA02, -121.108, 39.563, 3808, 38.7, 26.65
STONY GORGE RESERVOIR, Glenn, CA02, -122.534, 39.586, 800, 45.8, 4.67
BRUSH CREEK RANGER STATION, Butte, CA02, -121.345, 39.695, 3560, M, 26.53
PARADISE, Butte, CA02, -121.624, 39.754, 1750, 47.4, 17.19
COVELO, Mendocino, CA01, -123.244, 39.816, 1413, 44.5, 10.42
VINTON, Plumas, CA02, -120.186, 39.806, 4950, 34.9, 4.82
PORTOLA, Plumas, CA02, -120.472, 39.805, 4850, 33.4, 7.45
DE SABLA, Butte, CA02, -121.611, 39.872, 2710, 43.2, 19.14
LEGGETT, Mendocino, CA01, -123.720, 39.874, 703, M, 17.24
STANDISH HICKEY ST PK, Mendocino, CA01, -123.727, 39.878, 853, 46.7, 7.63
BUCKS CREEK, Plumas, CA02, -121.315, 39.937, 1891, M, 19.29
DOYLE 4 SSE, Lassen, CA03, -120.083, 39.972, 4390, 38.1, 4.53
DOYLE, Lassen, CA03, -120.105, 40.027, 4293, M, 3.27
RICHARDSON GR ST PK, Humboldt, CA01, -123.793, 40.026, 503, 47.5, 6.38
CANYON DAM, Plumas, CA02, -121.089, 40.171, 4560, 33.7, 12.27
MIRANDA 4 SE, Humboldt, CA01, -123.776, 40.182, 266, M, 13.40
FORT SEWARD, Humboldt, CA01, -123.632, 40.218, 220, M, 14.56
HONEYDEW 1 SW, Humboldt, CA01, -124.132, 40.238, 373, M, 24.53
CHESTER, Plumas, CA02, -121.242, 40.303, 4530, 33.9, 9.36
MINERAL, Tehama, CA02, -121.609, 40.346, 4875, 33.8, 11.31
COLEMAN FISHERIES STATION, Shasta, CA02, -122.143, 40.400, 420, M, 9.50
VOLTA PH, Shasta, CA02, -121.866, 40.458, 2220, M, 9.89
GRIZZLY CREEK STATE PARK, Humboldt, CA01, -123.909, 40.486, 413, M, 19.85
SCOTIA, Humboldt, CA01, -124.104, 40.483, 136, 50.5, 14.02
MANZANITA LAKE, Shasta, CA02, -121.577, 40.541, 5750, 30.9, 7.49
WHISKEYTOWN RESERVOIR, Shasta, CA02, -122.528, 40.612, 1295, 44.3, 13.97
SHASTA DAM, Shasta, CA02, -122.416, 40.714, 1075, 46.1, 14.63
TRINITY RIVER HATCHERY, Trinity, CA01, -122.795, 40.726, 1861, 42.3, 8.39
BIG BAR 4 E, Trinity, CA01, -123.208, 40.741, 1253, 44.1, 10.35
BUCKHORN, Shasta, CA02, -121.932, 40.880, 3700, M, 20.30
HAT CREEK, Shasta, CA02, -121.543, 40.932, 3015, 36.1, 5.02
PIT RIVER PH 5, Shasta, CA02, -121.977, 40.987, 1458, M, 21.27
WILLOW CREEK 1 NW, Humboldt, CA01, -123.636, 40.947, 464, 46.3, 5.31
FALL RIVER MILLS, Shasta, CA02, -121.435, 41.008, 3300, M, 4.52
ADIN RANGER STATION, Modoc, CA02, -120.945, 41.193, 4202, M, 4.17
DUNSMUIR TREATMENT PL, Siskiyou, CA02, -122.282, 41.183, 2169, 39.8, 19.14
JESS VALLEY, Modoc, CA02, -120.295, 41.268, 5400, 34.8, 3.65
MCCLOUD, Siskiyou, CA02, -122.138, 41.252, 3233, 35.8, 7.63
ORICK, Humboldt, CA01, -124.067, 41.283, 5, M, 13.08
CALLAHAN, Siskiyou, CA01, -122.825, 41.338, 3085, 39.0, 5.85
SAWYERS BAR RS, Siskiyou, CA01, -123.133, 41.301, 2255, 40.2, 9.54
ORLEANS RS, Humboldt, CA01, -123.534, 41.303, 433, M, 14.48
ORICK PRAIRIE CREEK PARK, Humboldt, CA01, -124.019, 41.362, 160, 43.7, 14.02
ALTURAS, Modoc, CA02, -120.544, 41.490, 4378, 34.8, 2.88
FORT JONES RS, Siskiyou, CA01, -122.848, 41.601, 2729, 36.6, 3.45
LAVA BEDS NAT MON, Siskiyou, CA01, -121.501, 41.702, 4770, 34.0, 2.35
MOUNT HEBRON RS, Siskiyou, CA01, -122.045, 41.783, 4265, 33.4, 1.69
CRESCENT CITY 3 NNW, Del Norte, CA01, -124.215, 41.796, 43, 49.5, 18.17
CRESCENT CITY MCNAMARA AP, Del Norte, CA01, -124.238, 41.784, 56, 48.9, 13.59
OAK KNOLL W. C., Siskiyou, CA01, -122.850, 41.839, 1980, M, 5.94
FORT BIDWELL, Modoc, CA03, -120.157, 41.872, 4739, 33.5, 2.21
GASQUET RS, Del Norte, CA01, -123.965, 41.845, 387, M, 25.00
FORT DICK RIVER, Del Norte, CA01, -124.135, 41.881, -, M, 20.36
TULELAKE, Siskiyou, CA01, -121.474, 41.960, 4038, 34.3, 2.41
COPCO NO 1 DAM, Siskiyou, CA01, -122.338, 41.980, 2665, 37.6, 4.87
ELK VALLEY, Del Norte, CA01, -123.718, 41.988, 1708, M, 22.30
PACIFICA 4 SSE, San Mateo, CA04, -122.472, 37.592, 475, 53.2, 7.93
BARSTOW, San Bernardino, CA07, -117.022, 34.893, 2220, 48.9, 7.07
PEARBLOSSOM, Los Angeles, CA07, -117.897, 34.503, 3101, 49.8, 4.77
EL CAJON, San Diego, CA06, -116.928, 32.801, 495, 56.1, 7.85
MARKLEY COVE, Napa, CA02, -122.124, 38.492, 480, 49.8, 7.81
SUSANVILLE 2SW, Lassen, CA03, -120.663, 40.417, 4212, 36.3, 3.19
TEJON RANCHO, Kern, CA05, -118.750, 35.023, 1425, 50.9, 3.67
BURBANK GLENDALE PASADENA AP, Los Angeles, CA06, -118.365, 34.200, 731, 56.5, 7.22
TOLLHOUSE 2.8 SSE, Fresno, CA05, -119.396, 36.978, 2111, M, 19.00
ARCATA 2.1 NNW, Humboldt, CA01, -124.095, 40.896, 32, M, 8.23
MORGAN HILL 2.7 S, Santa Clara, CA04, -121.632, 37.092, 338, M, 5.83
ENCINITAS 2.7N, San Diego, CA06, -117.292, 33.076, 188, M, 6.28
HALF MOON BAY 0.7 NW, San Mateo, CA04, -122.445, 37.478, 36, M, 0.01
MOUNT SHASTA, Siskiyou, CA02, -122.317, 41.322, 3613, 36.4, 12.81
WATSONVILLE MUNICIPAL AIRPORT, Santa Cruz, CA04, -121.790, 36.939, 162, 52.1, 4.27
SANTA ROSA SONOMA CO AP, Sonoma, CA04, -122.811, 38.504, 119, 49.7, 9.96
LORAINE 5 NNE, Kern, CA05, -118.412, 35.384, 4235, 45.9, 6.17
DEL MAR FIRE DEPT, San Diego, CA06, -117.262, 32.972, 12, 52.5, 0.00
IMPERIAL BEACH FIRE DEPT, San Diego, CA06, -117.114, 32.576, 22, M, 0.00
LEMON GROVE FIRE DEPARTMENT, San Diego, CA06, -117.030, 32.738, 427, 57.2, 6.71
SPRING VALLEY FIRE DEPT, San Diego, CA06, -117.006, 32.710, 270, 58.5, M
SANTEE FIRE DEPT, San Diego, CA06, -116.973, 32.841, 340, M, 0.11
LEE VINING, Mono, CA07, -119.119, 37.957, 6797, 35.6, 8.01
ANAHEIM, Orange, CA06, -117.842, 33.865, 235, 58.6, 10.11
RED BLUFF TREATMENT PLANT, Tehama, CA02, -122.220, 40.162, 265, M, 6.41
NEW MELONES DAM HQ, Tuolumne, CA05, -120.486, 38.005, 960, 50.0, 11.51
MAMMOTH LAKES RS, Mono, CA07, -118.962, 37.648, 7804, 31.5, 13.17
FRAZIER PARK 9 SW, Ventura, CA05, -119.104, 34.733, 5169, M, 5.22
MONTEREY WFO, Monterey, CA04, -121.855, 36.593, 122, 51.5, 4.04
SKYLINE RIDGE PRESERVE, San Mateo, CA04, -122.185, 37.313, 2270, 48.0, 12.29
FREMONT, Alameda, CA04, -122.016, 37.542, 38, 53.3, 3.49
MAD RIVER 12 SE, Trinity, CA01, -123.374, 40.319, 2763, M, 18.18
NEWHALL 5NW, Los Angeles, CA06, -118.594, 34.393, 1765, 54.0, 13.74
TEHACHAPI 4 SE, Kern, CA05, -118.422, 35.101, 4220, 43.0, 7.29
WRIGHTWOOD, San Bernardino, CA07, -117.639, 34.362, 6000, 38.9, 26.21
REDDING CDF, Shasta, CA02, -122.299, 40.519, 502, M, 6.54
NORTHRIDGE CAL STATE, Los Angeles, CA06, -118.525, 34.245, 904, M, 8.52
OXNARD WFO, Ventura, CA06, -119.137, 34.207, 52, M, 9.16
HANFORD MUNICIPAL AP, Kings, CA05, -119.623, 36.311, 249, 49.4, 5.22
RAMONA AIRPORT, San Diego, CA06, -116.916, 33.038, 1385, 51.1, 9.20
VACAVILLE/NUT TREE AP ASOS, Solano, CA02, -121.959, 38.378, 104, 49.9, 6.28
ALTURAS MUNICIPAL AP, Modoc, CA02, -120.561, 41.484, 4383, 34.8, 2.84
MADERA MUNICIPAL AP, Madera, CA05, -120.111, 36.985, 251, 49.7, 4.19
BAKERSFIELD 5 NW, Kern, CA05, -119.051, 35.419, 470, 52.4, 2.34
FRESNO 5 NE, Fresno, CA05, -119.709, 36.767, 338, 50.4, 5.22
OCEANSIDE MUNICIPAL AP, San Diego, CA06, -117.350, 33.219, 30, 53.7, 8.11
SAN DIEGO SEAWORLD, San Diego, CA06, -117.231, 32.765, 14, 54.4, 0.96
ARCATA EUREKA AP, Humboldt, CA01, -124.105, 40.978, 211, 49.0, 12.38
CHICO ARMY FLYING SCH, Butte, CA02, -121.850, 39.800, 272, 49.4, 8.47
NEWPORT BEACH HARBOR, Orange, CA06, -117.884, 33.603, 10, 56.4, 5.74
ESCONDIDO NO. 2, San Diego, CA06, -117.090, 33.121, 600, 56.2, 8.85
REDDING AP, Shasta, CA02, -122.298, 40.515, 501, 46.9, 8.69
AVALON CATALINA AP, Los Angeles, CA06, -118.415, 33.404, 1565, 54.9, 6.03
SANTA MARIA PUBLIC AP, Santa Barbara, CA06, -120.452, 34.894, 243, 53.0, 9.85
MOUNT SHASTA, Siskiyou, CA02, -122.333, 41.333, 3535, 36.7, 11.33
RED BLUFF MUNI AP, Tehama, CA02, -122.255, 40.152, 354, 48.1, 5.55
NEEDLES AIRPORT, San Bernardino, CA07, -114.618, 34.768, 888, 56.5, 1.21
CHINA LAKE NAF, Kern, CA07, -117.693, 35.688, 2230, 46.7, 2.09
TWENTYNINE PALMS 12E - WONDER VALLEY, San Bernardino, CA07, -115.850, 34.121, 1376, 53.9, 1.39
MORONGO VALLEY NORTH, San Bernardino, CA07, -116.562, 34.086, 3145, 51.7, 7.82
AMBOY ROAD EAST, San Bernardino, CA06, -115.804, 34.161, 1272, 51.1, 1.50
NILAND 4NE, Imperial, CA07, -115.477, 33.272, 75, 59.6, 0.66
SHAFTER 6E, Kern, CA05, -119.146, 35.487, 404, 50.3, 6.33
TRUCKEE-TAHOE AP, Nevada, CA03, -120.145, 39.318, 5900, 29.2, 9.41
HEARST CASTLE, San Luis Obispo, CA04, -121.168, 35.684, 1526, 51.7, 12.37
GETTY CENTER, Los Angeles, CA06, -118.479, 34.087, 1117, 57.7, 2.01
HESPERIA 2E, San Bernardino, CA07, -117.266, 34.421, 3055, 50.5, 11.20
RANCHO BERNARDO, San Diego, CA06, -117.081, 33.022, 690, 54.9, 7.11
SAN JUAN CANYON, Orange, CA06, -117.552, 33.532, 375, 54.5, 9.32
YOUNTVILLE, Napa, CA01, -122.357, 38.395, 95, 51.5, 3.15
APPLE VALLEY #2, San Bernardino, CA07, -117.279, 34.536, 2780, M, 5.04
OCOTILLO WELLS 2W, San Diego, CA07, -116.169, 33.155, 390, 60.6, 1.15
IRVINE RANCH, Orange, CA06, -117.723, 33.720, 540, 58.5, 12.76
MT. LAGUNA #3, San Diego, CA07, -116.419, 32.867, 5920, 44.5, 6.80
AVALON INLAND, Los Angeles, CA06, -118.330, 33.338, 90, 51.4, 8.04
DESERT CENTER 2 NNE, Riverside, CA07, -115.392, 33.738, 747, 57.9, 0.08
TORRANCE AP, Los Angeles, CA06, -118.342, 33.802, 90, 57.1, 6.70
MERCED 23 WSW, Merced, CA05, -120.882, 37.238, 78, 48.7, 3.17
REDDING 12 WNW, Shasta, CA02, -122.607, 40.651, 1418, 44.0, 10.31
STOVEPIPE WELLS 1 SW, Inyo, CA07, -117.145, 36.602, 84, 54.3, 0.53
LOS ANGELES DOWNTOWN/USC, Los Angeles, CA06, -118.291, 34.024, 179, 58.1, 10.23
FRESNO YOSEMITE INT'L, Fresno, CA05, -119.720, 36.780, 334, 50.9, 5.92
MONTEREY PENINSUL AP, Monterey, CA04, -121.849, 36.590, 160, 52.5, 4.00
PASO ROBLES MUNICIPAL AP, San Luis Obispo, CA04, -120.629, 35.669, 820, 50.6, 6.16
MONTAGUE SISKIYOU AIRPORT, Siskiyou, CA01, -122.468, 41.774, 2645, 38.6, 2.91
SAN JOSE, Santa Clara, CA04, -121.924, 37.359, 49, 53.4, 3.05
PALM SPRINGS ASOS, Riverside, CA07, -116.504, 33.822, 409, 59.1, 3.72
FILLMORE 2 W, Ventura, CA06, -118.945, 34.409, 495, M, 7.56
SAN DIEGO BROWN FIELD, San Diego, CA06, -116.994, 32.576, 521, 55.6, 4.08
Bakersfield Area, -, -, -, -, -, 52.5, 5.82
Bishop Area, -, -, -, -, -, 40.4, 5.37
Los Angeles Downtown Area, -, -, -, -, -, 58.1, 10.23
Eureka Area, -, -, -, -, -, 49.6, 10.08
Fresno Area, -, -, -, -, -, 50.9, 5.92
Los Angeles Airport Area, -, -, -, -, -, 58.2, 8.83
Long Beach Area, -, -, -, -, -, 56.2, 10.41
Redding Area, -, -, -, -, -, 46.9, 8.69
Sacramento Area, -, -, -, -, -, 49.9, 5.55
San Diego Area, -, -, -, -, -, 58.8, 5.00
Stockton Area, -, -, -, -, -, 50.0, 4.24
San Francisco Airport Area, -, -, -, -, -, 52.1, 6.00
Santa Maria Area, -, -, -, -, -, 53.0, 9.85
CAMP PENDLETON MCAS, San Diego, CA06, -117.355, 33.304, 70, 55.0, 0.60
LEMOORE REEVES NAS, Fresno, CA05, -119.950, 36.333, 232, 48.9, 3.29
MOUNTAIN PASS 1SE, San Bernardino, CA07, -115.531, 35.459, 4777, 42.3, 5.23
ARVIN, Kern, CA05, -118.834, 35.211, 450, 52.8, 1.57
CHIRIACO SUMMIT, Riverside, CA07, -115.721, 33.662, 1706, 54.1, 2.16
EDWARDS AFB NORTH AUXILIARY AIRFIELD, Kern, CA07, -117.865, 34.988, 2283, 42.1, 0.05
FALLBROOK 5 NE, San Diego, CA06, -117.190, 33.439, 1140, 57.5, 12.27
SANTA BARBARA 11 W, Santa Barbara, CA06, -119.880, 34.414, 18, 52.7, 10.18
BODEGA 6 WSW, Sonoma, CA01, -123.075, 38.321, 63, 51.0, 9.87
YOSEMITE VILLAGE 12 W, Mariposa, CA05, -119.821, 37.759, 6620, 36.0, 15.23
YUCCA MESA, San Bernardino, CA07, -116.407, 34.218, 3445, 50.9, 3.93
YUCCA VALLEY, San Bernardino, CA07, -116.388, 34.129, 3249, 49.1, 5.21
JOHNSON VALLEY, San Bernardino, CA07, -116.538, 34.359, 3167, 49.3, 2.84
REDONDO BEACH, Los Angeles, CA06, -118.376, 33.834, 142, M, 6.50
BURBANK VALLEY PUMP PLANT, Los Angeles, CA06, -118.348, 34.187, 655, 56.7, 8.24
PIEDMONT 1.0 SE, Alameda, CA04, -122.216, 37.812, 372, M, 8.29
CASTRO VALLEY 0.5 WSW, Alameda, CA04, -122.069, 37.708, 287, M, 7.15
CASTRO VALLEY 0.4 NNE, Alameda, CA04, -122.059, 37.717, 536, M, 5.87
PLEASANTON 1.8 SSE, Alameda, CA04, -121.875, 37.648, 351, M, 5.49
FREMONT 2.6 ESE, Alameda, CA04, -121.952, 37.515, 30, M, 4.24
BERKELEY 3.8 ESE, Alameda, CA04, -122.230, 37.856, 882, M, 5.73
VOLCANO 5.4 NE, Amador, CA05, -120.560, 38.497, 3488, M, 14.26
VOLCANO 6.4 NE, Amador, CA05, -120.536, 38.499, 3659, M, 20.13
OROVILLE 2.7 ENE, Butte, CA02, -121.518, 39.514, 535, M, 8.75
CHICO 2.8 ESE, Butte, CA02, -121.760, 39.734, 375, M, 8.66
MARTINEZ 0.8 SSE, Contra Costa, CA04, -122.108, 37.990, 252, M, 7.30
PLEASANT HILL 1.2 ESE, Contra Costa, CA04, -122.054, 37.949, 57, M, 4.86
WALNUT CREEK 1.7 SSE, Contra Costa, CA04, -122.034, 37.878, 243, M, 5.58
LAFAYETTE 0.7 E, Contra Costa, CA04, -122.104, 37.894, 248, M, 8.19
CROCKETT 0.7 WNW, Contra Costa, CA04, -122.233, 38.054, 213, M, 4.26
LAFAYETTE 1.9 WSW, Contra Costa, CA04, -122.153, 37.888, 518, M, 6.63
MARTINEZ 2.2 SW, Contra Costa, CA04, -122.138, 37.974, 692, M, 6.95
ANTIOCH 2.2 WSW, Contra Costa, CA05, -121.838, 37.979, 178, M, 4.36
ALAMO 1.0 WSW, Contra Costa, CA04, -122.016, 37.854, 331, M, 5.89
CONCORD 0.8 WNW, Contra Costa, CA04, -122.013, 37.978, 124, M, 5.15
WALNUT CREEK 1.4 SSE, Contra Costa, CA04, -122.028, 37.885, 277, M, 5.80
WALNUT CREEK 1.4 NE, Contra Costa, CA04, -122.023, 37.916, 156, M, 5.68
ANTIOCH 2.2 SSE, Contra Costa, CA05, -121.781, 37.959, 245, M, 3.76
WALLACE 0.3 NE, Calaveras, CA05, -120.973, 38.197, 298, M, 3.25
CRESCENT CITY 5.5 NNE, Del Norte, CA01, -124.148, 41.824, 65, M, 19.81
SMITH RIVER 0.2 NW, Del Norte, CA01, -124.150, 41.929, 68, M, 13.92
DIAMOND SPRINGS 0.1 W, El Dorado, CA05, -120.824, 38.686, 1778, M, 11.48
PLACERVILLE 2.9 WNW, El Dorado, CA02, -120.840, 38.753, 1800, M, 12.18
PLACERVILLE 3.7 SW, El Dorado, CA02, -120.849, 38.695, 1755, M, 12.20
CAMERON PARK 0.9 SE, El Dorado, CA05, -120.976, 38.672, 1414, M, 8.22
FAIR PLAY 2.8 ESE, El Dorado, CA05, -120.609, 38.592, 3390, M, 12.71
PLACERVILLE 0.9 NE, El Dorado, CA02, -120.785, 38.739, 2036, M, 12.57
CLOVIS 2.9 N, Fresno, CA05, -119.693, 36.861, 382, M, 7.59
TOLLHOUSE 2.0 SSE, Fresno, CA05, -119.397, 36.990, 1673, M, 14.07
TOLLHOUSE 6.2 SSE, Fresno, CA05, -119.359, 36.934, 1397, M, 14.03
SANGER 6.8 N, Fresno, CA05, -119.553, 36.798, 418, M, 8.21
FRESNO 4.3 NNW, Fresno, CA05, -119.829, 36.836, 333, M, 6.37
HELM 2.7 NNE, Fresno, CA05, -120.089, 36.570, 183, M, 4.10
BAYSIDE 1.8 SE, Humboldt, CA01, -124.038, 40.825, 77, M, 11.19
ORICK 5.9 SSW, Humboldt, CA01, -124.103, 41.208, 567, M, 14.35
MCKINLEYVILLE 2.7 SE, Humboldt, CA01, -124.084, 40.923, 325, M, 10.73
MCKINLEYVILLE 7.3 ESE, Humboldt, CA01, -123.998, 40.896, 366, M, 12.28
TRINIDAD 1.5 NNW, Humboldt, CA01, -124.152, 41.078, 201, M, 14.83
HONEYDEW 3.1 WNW, Humboldt, CA01, -124.182, 40.252, 316, M, 24.77
MCKINLEYVILLE 2.3 NE, Humboldt, CA01, -124.086, 40.978, 270, M, 13.18
REDWAY 4.3 W, Humboldt, CA01, -123.901, 40.108, 612, M, 18.79
FORTUNA 1.5 NW, Humboldt, CA01, -124.161, 40.600, 98, M, 10.32
REDWAY 4.8 WNW, Humboldt, CA01, -123.906, 40.139, 1820, M, 10.64
MIRANDA 4.1 SW, Humboldt, CA01, -123.894, 40.209, 539, M, 21.50
BAYVIEW 0.8 SE, Humboldt, CA01, -124.166, 40.756, 176, M, 4.74
ARCATA 1.1 NW, Humboldt, CA01, -124.097, 40.877, 17, M, 10.76
FORTUNA 1.3 S, Humboldt, CA01, -124.136, 40.567, 195, M, 7.68
ARCATA 1.4 NNE, Humboldt, CA01, -124.072, 40.887, 289, M, 10.54
WILLOW CREEK 4.5 NNE, Humboldt, CA01, -123.624, 40.939, 655, M, 13.06
EUREKA 0.4 NW, Humboldt, CA01, -124.162, 40.800, 61, M, 2.39
ARCATA 1.0 NW, Humboldt, CA01, -124.096, 40.876, 15, M, 10.49
BRIDGEVILLE 5.2 ENE, Humboldt, CA01, -123.701, 40.473, 2675, M, 17.72
TRINIDAD 4.2 SE, Humboldt, CA01, -124.093, 41.010, 18, M, 12.49
FORTUNA 0.1 NW, Humboldt, CA01, -124.141, 40.587, 65, M, 11.58
GARBERVILLE 2.2 SW, Humboldt, CA01, -123.824, 40.077, 415, M, 15.92
GARBERVILLE 2.9 SW, Humboldt, CA01, -123.830, 40.068, 389, M, 16.00
KNEELAND 4.8 WNW, Humboldt, CA01, -124.080, 40.790, 106, M, 9.20
EUREKA 2.2 S, Humboldt, CA01, -124.148, 40.764, 194, M, 10.13
SHELTER COVE 1.2 ENE, Humboldt, CA01, -124.052, 40.037, 1107, M, 25.91
BISHOP 0.6 SE, Inyo, CA07, -118.388, 37.363, 4140, M, 5.38
BISHOP 8.5 WSW, Inyo, CA07, -118.540, 37.323, 6002, M, 5.92
BISHOP 1.7 NW, Inyo, CA07, -118.414, 37.388, 4181, M, 3.30
LEMOORE 0.3 SW, Kings, CA05, -119.791, 36.295, 223, M, 4.82
HANFORD 3.6 N, Kings, CA05, -119.653, 36.377, 258, M, 6.05
HANFORD 1.7 WNW, Kings, CA05, -119.674, 36.335, 245, M, 5.67
INYOKERN 9.4 WSW, Kern, CA07, -117.978, 35.635, 4319, M, 7.35
FRAZIER PARK 0.6 WNW, Kern, CA05, -118.955, 34.827, 5023, M, 6.31
PINE MOUNTAIN CLUB 0.9 SSW, Kern, CA05, -119.163, 34.835, 6017, M, 10.55
PINE MOUNTAIN CLUB 1.4 ENE, Kern, CA05, -119.133, 34.850, 5269, M, 8.76
ONYX 2.8 ENE, Kern, CA05, -118.174, 35.702, 3039, M, 1.16
GLENDALE 2.4 WSW, Los Angeles, CA06, -118.295, 34.169, 511, M, 9.89
WHITTIER 3.6 ESE, Los Angeles, CA06, -117.984, 33.937, 289, M, 10.28
TORRANCE 2.8 SW, Los Angeles, CA06, -118.337, 33.790, 200, M, 10.35
ALTADENA 0.7 ESE, Los Angeles, CA06, -118.124, 34.187, 1323, M, 15.42
WOODLAND HILLS 2.6 WNW, Los Angeles, CA06, -118.650, 34.181, 894, M, 7.10
MONTE NIDO 0.2 SSW, Los Angeles, CA06, -118.687, 34.079, 682, M, 11.33
SHERMAN OAKS 1.7 ENE, Los Angeles, CA06, -118.420, 34.154, 638, M, 7.39
WHITTIER 2.9 WNW, Los Angeles, CA06, -118.066, 33.986, 171, M, 10.87
REDONDO BEACH 2.6 S, Los Angeles, CA06, -118.377, 33.819, 117, M, 6.51
WINNETKA 0.7 SSE, Los Angeles, CA06, -118.568, 34.203, 768, M, 7.20
SOUTH GATE 1.1 WNW, Los Angeles, CA06, -118.209, 33.951, 108, M, 7.90
CANYON COUNTRY 2.6 E, Los Angeles, CA06, -118.427, 34.427, 1617, M, 6.14
ARCADIA 2.1 NNE, Los Angeles, CA06, -118.028, 34.162, 652, M, 14.56
LAKEPORT 4.5 N, Lake, CA02, -122.909, 39.107, 1437, M, 1.30
LAKEPORT 2.5 N, Lake, CA02, -122.917, 39.079, 1370, M, 7.66
MIDDLETOWN 3.3 SSE, Lake, CA02, -122.603, 38.706, 1273, M, 12.62
LOWER LAKE 4.0 SE, Lake, CA02, -122.564, 38.865, 1585, M, 9.46
SUSANVILLE 3.2 SSW, Lassen, CA03, -120.674, 40.368, 4353, M, 6.27
OAKHURST 7.5 N, Madera, CA05, -119.632, 37.442, 4274, M, 22.31
UKIAH 8.4 NW, Mendocino, CA01, -123.331, 39.221, 2492, M, 12.49
BOONVILLE 2.2 WSW, Mendocino, CA01, -123.408, 39.006, 1061, M, 10.87
ELK 1.8 NNE, Mendocino, CA01, -123.706, 39.105, 147, M, 9.34
POINT ARENA 5.5 ESE, Mendocino, CA01, -123.600, 38.875, 973, M, 12.34
UKIAH 1.2 NW, Mendocino, CA01, -123.225, 39.158, 746, M, 11.41
UKIAH 0.6 ESE, Mendocino, CA01, -123.199, 39.141, 601, M, 9.60
HOPLAND 2.4 WNW, Mendocino, CA01, -123.158, 38.984, 574, M, 11.34
WILLITS 6.0 WSW, Mendocino, CA01, -123.450, 39.370, 1873, M, 13.57
REDWOOD VALLEY 1.3 WNW, Mendocino, CA01, -123.227, 39.272, 810, M, 11.64
REDWOOD VALLEY 1.5 ENE, Mendocino, CA01, -123.178, 39.272, 912, M, 10.04
UKIAH 4.3 S, Mendocino, CA01, -123.219, 39.083, 691, M, 11.30
LAYTONVILLE 1.1 SW, Mendocino, CA01, -123.490, 39.672, 1647, M, 19.69
POINT ARENA 4.8 ESE, Mendocino, CA01, -123.610, 38.883, 1048, M, 14.29
LEE VINING 5.9 NW, Mono, CA03, -119.170, 38.034, 7094, M, 6.20
MARIPOSA 3.7 NNW, Mariposa, CA05, -119.988, 37.540, 2942, M, 12.22
MARIPOSA 12.5 E, Mariposa, CA05, -119.742, 37.461, 2952, M, 14.21
LA GRANGE 7.8 ESE, Mariposa, CA05, -120.327, 37.635, 1114, M, 3.26
CATHEYS VALLEY 1.2 S, Mariposa, CA05, -120.100, 37.415, 1172, M, 10.71
NOVATO 1.1 SSW, Marin, CA01, -122.564, 38.077, 296, M, 7.91
WOODACRE 0.6 SW, Marin, CA01, -122.635, 38.005, 439, M, 12.61
SAN ANSELMO 1.2 NNW, Marin, CA01, -122.580, 37.997, 370, M, 11.58
NOVATO 4.8 WNW, Marin, CA01, -122.644, 38.106, 246, M, 10.19
SAN ANSELMO 0.4 NE, Marin, CA01, -122.564, 37.987, 107, M, 11.28
IGNACIO 0.6 SW, Marin, CA01, -122.546, 38.065, 57, M, 7.43
NOVATO 1.4 WNW, Marin, CA01, -122.580, 38.102, 23, M, 6.27
PETALUMA 10.1 W, Marin, CA01, -122.812, 38.248, 119, M, 8.84
DILLON BEACH 0.3 NNE, Marin, CA01, -122.963, 38.256, 366, M, 7.24
TOMALES 1.3 ENE, Marin, CA01, -122.883, 38.251, 128, M, 8.79
SAN RAFAEL 3.9 NW, Marin, CA01, -122.547, 38.027, 72, M, 8.20
MILL VALLEY 1.5 S, Marin, CA01, -122.544, 37.886, 209, M, 11.83
CARMEL VALLEY VILLAGE 0.8 SSW, Monterey, CA04, -121.728, 36.476, 359, M, 3.00
LOCKWOOD 3.6 NW, Monterey, CA04, -121.117, 35.981, 1181, M, 5.69
KING CITY 13.2 S, Monterey, CA04, -121.174, 36.025, 1104, M, 6.23
CASTROVILLE 1.6 ENE, Monterey, CA04, -121.728, 36.776, 18, M, 4.07
MONTEREY 1.5 ESE, Monterey, CA04, -121.856, 36.594, 108, M, 4.02
KING CITY 2.0 SSW, Monterey, CA04, -121.146, 36.187, 371, M, 3.77
PACIFIC GROVE 1.5 SSW, Monterey, CA04, -121.932, 36.602, 280, M, 4.51
BIG SUR 4.0 SE, Monterey, CA04, -121.763, 36.224, 824, M, 8.38
BIG SUR 3.2 SE, Monterey, CA04, -121.769, 36.236, 739, M, 9.62
AROMAS 2.0 SSW, Monterey, CA04, -121.650, 36.850, 344, M, 5.79
CARMEL VALLEY VILLAGE 0.7 SSE, Monterey, CA04, -121.720, 36.476, 446, M, 3.92
CASTROVILLE 1.6 ENE, Monterey, CA04, -121.727, 36.777, 17, M, 4.01
MARINA 0.8 SSE, Monterey, CA04, -121.784, 36.673, 118, M, 1.52
CARMEL VALLEY VILLAGE 5.4 WNW, Monterey, CA04, -121.810, 36.522, 133, M, 4.62
BIG SUR 9.5 NNW, Monterey, CA04, -121.869, 36.398, 1100, M, 9.91
SALINAS 5.9 SSW, Monterey, CA04, -121.671, 36.604, 361, M, 3.27
CALISTOGA 0.4 SSE, Napa, CA01, -122.578, 38.576, 348, M, 7.22
NAPA 2.0 WNW, Napa, CA01, -122.331, 38.313, 136, M, 10.27
ST. HELENA 1.1 S, Napa, CA01, -122.462, 38.489, 248, M, 10.16
AMERICAN CANYON 0.3 S, Napa, CA01, -122.260, 38.169, 37, M, 3.57
NEVADA CITY 3.4 NNW, Nevada, CA02, -121.040, 39.307, 2390, M, 14.04
KINGVALE 1.3 WSW, Nevada, CA02, -120.452, 39.317, 6035, M, 21.24
GRASS VALLEY 5.5 ESE, Nevada, CA02, -120.963, 39.190, 2763, M, 19.68
GRASS VALLEY 5.0 S, Nevada, CA02, -121.042, 39.149, 2312, M, 19.32
ALTA SIERRA 1.3 S, Nevada, CA02, -121.057, 39.104, 2154, M, 13.78
LAKE OF THE PINES 1.0 WSW, Nevada, CA02, -121.077, 39.032, 1576, M, 11.42
ALTA SIERRA 0.4 WSW, Nevada, CA02, -121.060, 39.120, 2303, M, 14.25
LAKE OF THE PINES 1.3 NNW, Nevada, CA02, -121.070, 39.056, 1528, M, 12.09
GRASS VALLEY 5.7 S, Nevada, CA02, -121.055, 39.139, 2169, M, 7.38
NEVADA CITY 5.4 W, Nevada, CA02, -121.121, 39.268, 1982, M, 14.08
ALTA SIERRA 1.4 SSW, Nevada, CA02, -121.058, 39.103, 2057, M, 14.25
GRASS VALLEY 2.4 S, Nevada, CA02, -121.057, 39.187, 2331, M, 13.49
GRASS VALLEY 0.5 NNW, Nevada, CA02, -121.059, 39.229, 2669, M, 16.53
LAKE OF THE PINES 4.7 WNW, Nevada, CA02, -121.146, 39.054, 1480, M, 10.78
ORANGE 3.5 ENE, Orange, CA06, -117.770, 33.829, 811, M, 7.06
LAGUNA NIGUEL 0.9 W, Orange, CA06, -117.720, 33.528, 477, M, 13.17
SILVERADO 1.0 ESE, Orange, CA06, -117.620, 33.746, 1394, M, 19.91
LAGUNA BEACH 3.2 SSE, Orange, CA06, -117.739, 33.498, 194, M, 9.20
LAGUNA NIGUEL 1.8 SW, Orange, CA06, -117.728, 33.509, 856, M, 8.00
SANTA ANA 0.7 ESE, Orange, CA06, -117.871, 33.731, 81, M, 10.09
PLACENTIA 2.1 ESE, Orange, CA06, -117.822, 33.868, 256, M, 10.16
COSTA MESA 1.6 SE, Orange, CA06, -117.892, 33.652, 71, M, 1.78
NEWPORT BEACH 3.1 ESE, Orange, CA06, -117.865, 33.589, 84, M, 10.65
MISSION VIEJO 1.6 ENE, Orange, CA06, -117.627, 33.624, 1018, M, 14.50
MISSION VIEJO 1.3 SSE, Orange, CA06, -117.644, 33.595, 704, M, 14.37
SAN CLEMENTE 2.2 W, Orange, CA06, -117.649, 33.447, 132, M, 9.71
ANAHEIM 4.9 ENE, Orange, CA06, -117.792, 33.863, 298, M, 9.54
SODA SPRINGS 1.5 SSW, Placer, CA02, -120.384, 39.302, 6887, M, 20.92
LINCOLN 0.9 SSW, Placer, CA02, -121.322, 38.888, 131, M, 1.84
ROSEVILLE 4.7 WNW, Placer, CA02, -121.377, 38.780, 96, M, 6.73
ROSEVILLE 0.8 ENE, Placer, CA02, -121.279, 38.763, 170, M, 1.13
PENRYN 0.4 SE, Placer, CA02, -121.158, 38.847, 610, M, 8.83
COLFAX 3.1 SW, Placer, CA02, -120.991, 39.061, 2077, M, 14.92
AUBURN 3.1 N, Placer, CA02, -121.068, 38.936, 1528, M, 13.53
NEWCASTLE 1.6 SSE, Placer, CA02, -121.123, 38.851, 800, M, 9.50
LINCOLN 4.3 SSE, Placer, CA02, -121.284, 38.842, 172, M, 6.49
IDYLLWILD 1.8 NW, Riverside, CA06, -116.735, 33.763, 6325, M, 15.54
DESERT HOT SPRINGS 3.0 NW, Riverside, CA07, -116.541, 33.985, 1339, M, 5.97
HEMET 4.1 ENE, Riverside, CA06, -116.920, 33.753, 1698, M, 8.79
CORONA 12.8 SE, Riverside, CA06, -117.428, 33.731, 1404, M, 13.90
HOMELAND 1.7 NNE, Riverside, CA06, -117.092, 33.769, 2248, M, 7.95
LAKE ELSINORE 3.5 WSW, Riverside, CA06, -117.381, 33.657, 1356, M, 13.22
NORCO 1.2 S, Riverside, CA06, -117.548, 33.908, 661, M, 8.14
PERRIS 8.5 WNW, Riverside, CA06, -117.365, 33.826, 1639, M, 7.95
BEAUMONT 2.5 NW, Riverside, CA06, -117.012, 33.954, 2532, M, 11.25
RIVERSIDE 3.8 NW, Riverside, CA06, -117.454, 33.979, 841, M, 10.28
NORCO 2.3 SE, Riverside, CA06, -117.518, 33.906, 1091, M, 9.24
RIVERSIDE 2.6 E, Riverside, CA06, -117.353, 33.935, 1301, M, 9.78
CARMICHAEL 1.6 SW, Sacramento, CA02, -121.340, 38.617, 102, M, 5.49
SACRAMENTO 8.0 NE, Sacramento, CA02, -121.361, 38.635, 95, M, 6.76
FOLSOM 3.4 ESE, Sacramento, CA05, -121.091, 38.655, 594, M, 8.33
CARMICHAEL 0.9 NE, Sacramento, CA02, -121.306, 38.643, 130, M, 6.18
CARMICHAEL 1.4 W, Sacramento, CA02, -121.345, 38.638, 109, M, 6.20
FOLSOM 1.2 SSE, Sacramento, CA02, -121.140, 38.660, 362, M, 7.56
CARMICHAEL 0.9 S, Sacramento, CA02, -121.319, 38.621, 108, M, 3.86
FOLSOM 2.4 SW, Sacramento, CA02, -121.176, 38.651, 194, M, 6.64
SACRAMENTO 13.7 SE, Sacramento, CA05, -121.283, 38.456, 97, M, 6.96
SACRAMENTO 2.0 SE, Sacramento, CA02, -121.437, 38.550, 34, M, 6.36
SACRAMENTO 4.1 NE, Sacramento, CA02, -121.412, 38.609, 46, M, 5.88
SACRAMENTO 5.7 SSE, Sacramento, CA02, -121.419, 38.493, 28, M, 0.36
NORTH HIGHLANDS 3.0 SSW, Sacramento, CA02, -121.394, 38.626, 66, M, 6.01
FOLSOM 0.6 NE, Sacramento, CA02, -121.138, 38.682, 399, M, 7.13
LA RIVIERA 1.0 NE, Sacramento, CA02, -121.340, 38.575, 64, M, 6.24
GOLETA 3.7 WNW, Santa Barbara, CA06, -119.896, 34.440, 158, M, 11.85
BUELLTON 0.3 SSW, Santa Barbara, CA06, -120.204, 34.622, 421, M, 3.84
SANTA BARBARA 1.9 NE, Santa Barbara, CA06, -119.700, 34.450, 811, M, 11.34
MOUNTAIN VIEW 1.2 S, Santa Clara, CA04, -122.075, 37.385, 109, M, 4.20
SUNNYVALE 1.9 SE, Santa Clara, CA04, -122.004, 37.365, 85, M, 3.73
SAN JOSE 5.4 SW, Santa Clara, CA04, -121.775, 37.305, 223, M, 3.60
MONTE SERENO 0.4 SSW, Santa Clara, CA04, -121.990, 37.232, 467, M, 9.85
SAN JOSE 4.6 NE, Santa Clara, CA04, -121.795, 37.354, 318, M, 4.04
LOS ALTOS 0.6 NNW, Santa Clara, CA04, -122.100, 37.378, 156, M, 5.15
SAN JOSE 2.7 SSW, Santa Clara, CA04, -121.876, 37.271, 162, M, 4.35
CAMBRIAN PARK 2.2 SE, Santa Clara, CA04, -121.897, 37.234, 252, M, 5.29
SAN JOSE 3.5 ENE, Santa Clara, CA04, -121.789, 37.319, 200, M, 3.53
SAN JOSE 2.3 SSW, Santa Clara, CA04, -121.866, 37.273, 161, M, 3.15
SARATOGA 0.5 N, Santa Clara, CA04, -122.023, 37.275, 373, M, 7.46
PALO ALTO 1.2 NE, Santa Clara, CA04, -122.149, 37.452, 32, M, 4.62
SAN JOSE 3.0 WSW, Santa Clara, CA04, -121.927, 37.309, 159, M, 3.91
LOS GATOS 6.1 S, Santa Clara, CA04, -121.972, 37.143, 1732, M, 17.06
PALO ALTO 0.8 NNE, Santa Clara, CA04, -122.135, 37.410, 60, M, 3.91
SAN JOSE 6.2 W, Santa Clara, CA04, -121.961, 37.319, 139, M, 4.21
SANTA CLARA 3.1 ESE, Santa Clara, CA04, -121.911, 37.356, 61, M, 2.22
LOS GATOS 5.4 SSW, Santa Clara, CA04, -121.988, 37.156, 1662, M, 14.76
SAN MARCOS 2.5 ENE, San Diego, CA06, -117.132, 33.147, 666, M, 9.04
OCEANSIDE 2.3 WNW, San Diego, CA06, -117.350, 33.233, 260, M, 9.41
IMPERIAL BEACH 3.3 E, San Diego, CA06, -117.062, 32.574, 138, M, 3.91
OCEANSIDE 8.4NE, San Diego, CA06, -117.266, 33.270, 252, M, 9.36
EL CAJON 2.3ENE, San Diego, CA06, -116.925, 32.811, 610, M, 7.94
ENCINITAS 3.34ENE, San Diego, CA06, -117.237, 33.050, 193, M, 5.89
ESCONDIDO 5.2NNW, San Diego, CA06, -117.128, 33.185, 1474, M, 8.12
EL CAJON 1.5WSW, San Diego, CA06, -116.987, 32.791, 727, M, 8.98
ESCONDIDO 2.5 SSE, San Diego, CA06, -117.048, 33.106, 690, M, 8.89
POWAY 3.2NE, San Diego, CA06, -117.004, 32.996, 1206, M, 8.55
JAMUL 9.9ESE, San Diego, CA06, -116.706, 32.680, 2737, M, 9.79
BORREGO SPRINGS 2.4 WSW, San Diego, CA07, -116.390, 33.223, 777, M, 2.55
LA JOLLA 2.5SE, San Diego, CA06, -117.240, 32.825, 508, M, 6.43
CHULA VISTA 6.3E, San Diego, CA06, -116.975, 32.638, 555, M, 4.75
OCEANSIDE 5.6NE, San Diego, CA06, -117.313, 33.254, 60, M, 7.29
POWAY 1.4SW, San Diego, CA06, -117.059, 32.949, 444, M, 7.65
CARDIFF BY THE SEA 0.2 E, San Diego, CA06, -117.271, 33.027, 266, M, 6.05
CHULA VISTA 2.5SE, San Diego, CA06, -117.052, 32.617, 266, M, 4.52
PAUMA VALLEY 1.7 SE, San Diego, CA06, -116.957, 33.290, 1132, M, 8.28
FALLBROOK 6.5 NE, San Diego, CA06, -117.160, 33.436, 1377, M, 13.24
SAN DIEGO 3.5NE, San Diego, CA06, -117.110, 32.747, 344, M, 9.21
SANTEE 1.8NW, San Diego, CA06, -116.996, 32.856, 470, M, 8.49
SAN DIEGO 7.9NE, San Diego, CA06, -117.073, 32.806, 242, M, 7.54
LA JOLLA 2.1 SE, San Diego, CA06, -117.250, 32.826, 491, M, 6.65
SAN DIEGO 3.2 WNW, San Diego, CA06, -117.186, 32.835, 374, M, 7.48
RANCHO BERNARDO 0.5SE, San Diego, CA06, -117.067, 33.018, 483, M, 8.48
EL CAJON 0.7 S, San Diego, CA06, -116.959, 32.792, 444, M, 9.14
LA JOLLA 2.2 NE, San Diego, CA06, -117.248, 32.870, 371, M, 7.42
LEMON GROVE 1.8 WNW, San Diego, CA06, -117.060, 32.747, 466, M, 8.70
VISTA 1.5NNW, San Diego, CA06, -117.254, 33.219, 417, M, 8.25
EL CAJON 2.3 S, San Diego, CA06, -116.959, 32.770, 738, M, 8.49
SAN DIEGO 9NE, San Diego, CA06, -117.059, 32.817, 292, M, 7.98
POWAY 4.7NNW, San Diego, CA06, -117.047, 33.026, 739, M, 7.77
SAN DIEGO COUNTRY ESTATES 1.5 WNW, San Diego, CA06, -116.807, 33.016, 1474, M, 8.71
SAN FRANCISCO 2.8 WNW, San Francisco, CA04, -122.470, 37.783, 173, M, 8.15
SAN FRANCISCO 1.1 SW, San Francisco, CA04, -122.435, 37.765, 194, M, 7.70
COTTONWOOD 0.5 NNE, Shasta, CA02, -122.276, 40.397, 452, M, 8.37
SHINGLETOWN 5.3 ENE, Shasta, CA02, -121.796, 40.524, 3964, M, 14.94
REDDING 2.9 NNE, Shasta, CA02, -122.339, 40.609, 652, M, 11.23
REDDING 2.7 NNW, Shasta, CA02, -122.380, 40.610, 708, M, 11.48
REDDING 7.9 NNE, Shasta, CA02, -122.291, 40.672, 681, M, 12.57
REDDING 3.7 N, Shasta, CA02, -122.358, 40.626, 618, M, 10.44
REDDING 3.6 N, Shasta, CA02, -122.354, 40.623, 604, M, 8.52
REDDING 0.6 NW, Shasta, CA02, -122.373, 40.580, 475, M, 10.95
REDDING 2.6 NNE, Shasta, CA02, -122.347, 40.607, 590, M, 12.57
REDDING 4.1 N, Shasta, CA02, -122.358, 40.631, 616, M, 9.36
ANDERSON 5.2 WSW, Shasta, CA02, -122.388, 40.427, 732, M, 3.35
ANDERSON 2.6 NE, Shasta, CA02, -122.261, 40.478, 409, M, 9.92
LINDEN 5.8 ENE, San Joaquin, CA05, -121.008, 38.063, 146, M, 6.52
STOCKTON 2.1 NW, San Joaquin, CA05, -121.333, 37.991, 7, M, 5.19
STOCKTON 5.8 NNE, San Joaquin, CA05, -121.255, 38.038, 35, M, 5.55
LODI 1.0 NNW, San Joaquin, CA05, -121.304, 38.136, 43, M, 2.71
STOCKTON 3.3 SE, San Joaquin, CA05, -121.259, 37.942, 23, M, 4.17
TRACY 2.1 W, San Joaquin, CA05, -121.470, 37.735, 52, M, 1.61
YREKA 4.5 S, Siskiyou, CA01, -122.621, 41.665, 2937, M, 4.66
WEED 5.4 N, Siskiyou, CA01, -122.370, 41.495, 3064, M, 4.11
ETNA 3.9 NNW, Siskiyou, CA01, -122.923, 41.511, 2966, M, 6.63
YREKA 0.9 WNW, Siskiyou, CA01, -122.649, 41.733, 2692, M, 4.98
MONTAGUE 1.6 ESE, Siskiyou, CA01, -122.501, 41.718, 2556, M, 2.92
SANTA MARGARITA 8.9 ESE, San Luis Obispo, CA04, -120.453, 35.381, 2005, M, 9.95
PACIFICA 0.3 W, San Mateo, CA04, -122.483, 37.612, 227, M, 8.28
FOSTER CITY 1.3 SW, San Mateo, CA04, -122.259, 37.549, 7, M, 5.87
HALF MOON BAY 0.5 SSW, San Mateo, CA04, -122.441, 37.463, 54, M, 8.07
REDWOOD CITY 2.5 SW, San Mateo, CA04, -122.240, 37.493, 17, M, 5.79
PORTOLA VALLEY 1.3 ENE, San Mateo, CA04, -122.198, 37.382, 531, M, 6.84
ROHNERT PARK 1.6 WNW, Sonoma, CA01, -122.727, 38.352, 93, M, 8.98
OCCIDENTAL 1.9 WSW, Sonoma, CA01, -122.968, 38.380, 810, M, 13.38
HEALDSBURG 4.2 NW, Sonoma, CA01, -122.923, 38.656, 155, M, 9.15
GEYSERVILLE 10.6 WNW, Sonoma, CA01, -123.098, 38.737, 1328, M, 14.39
SANTA ROSA 3.1 W, Sonoma, CA01, -122.758, 38.451, 107, M, 9.16
SEBASTOPOL 3.7 WSW, Sonoma, CA01, -122.893, 38.385, 383, M, 12.23
GUERNEVILLE 0.6 SW, Sonoma, CA01, -122.992, 38.501, 72, M, 11.93
SANTA ROSA 2.7 WSW, Sonoma, CA01, -122.745, 38.432, 123, M, 5.48
CALISTOGA 4.6 WNW, Sonoma, CA01, -122.658, 38.612, 497, M, 10.42
SEBASTOPOL 4.5 WSW, Sonoma, CA01, -122.904, 38.375, 423, M, 12.65
SEBASTOPOL 0.3 WNW, Sonoma, CA01, -122.830, 38.401, 122, M, 10.36
PETALUMA 1.0 N, Sonoma, CA01, -122.623, 38.256, 52, M, 8.13
GRATON 2.7 NNE, Sonoma, CA01, -122.840, 38.472, 69, M, 10.52
WINDSOR 1.5 WNW, Sonoma, CA01, -122.823, 38.555, 123, M, 11.10
CLOVERDALE 0.8 SSW, Sonoma, CA01, -123.022, 38.789, 365, M, 8.61
WINDSOR 1.4 SE, Sonoma, CA01, -122.780, 38.532, 140, M, 11.23
SANTA ROSA 4.7 S, Sonoma, CA01, -122.725, 38.378, 94, M, 8.39
SANTA ROSA 3.1 NW, Sonoma, CA01, -122.744, 38.479, 140, M, 9.31
CLOVERDALE 3.2 ESE, Sonoma, CA01, -122.963, 38.781, 797, M, 12.63
WINDSOR 1.8 SE, Sonoma, CA01, -122.777, 38.526, 142, M, 11.31
SEBASTOPOL 2.6 SSE, Sonoma, CA01, -122.804, 38.366, 214, M, 7.08
SANTA ROSA 2.9 W, Sonoma, CA01, -122.755, 38.448, 114, M, 8.09
BODEGA BAY 4.8 NNW, Sonoma, CA01, -123.078, 38.381, 91, M, 10.23
SANTA ROSA 3.8 W, Sonoma, CA01, -122.771, 38.441, 95, M, 5.68
SANTA ROSA 2.9 ENE, Sonoma, CA01, -122.655, 38.471, 292, M, 9.51
SANTA ROSA 2.9 WSW, Sonoma, CA01, -122.750, 38.430, 116, M, 6.71
MONTE RIO 1.6 W, Sonoma, CA01, -123.042, 38.464, 20, M, 10.22
SEBASTOPOL 3.0 SW, Sonoma, CA01, -122.869, 38.372, 539, M, 11.48
SANTA ROSA 4.4 NNW, Sonoma, CA01, -122.719, 38.511, 392, M, 9.05
SEBASTOPOL 1.1 SSE, Sonoma, CA01, -122.819, 38.384, 168, M, 10.48
WINDSOR 1.2 NNW, Sonoma, CA01, -122.805, 38.562, 155, M, 10.36
HEALDSBURG 7.5 NW, Sonoma, CA01, -122.963, 38.693, 203, M, 8.39
SANTA ROSA 2.6 NE, Sonoma, CA01, -122.664, 38.473, 273, M, 9.50
SONOMA 1.9 E, Sonoma, CA01, -122.425, 38.290, 124, M, 2.29
SANTA ROSA 1.3 NW, Sonoma, CA01, -122.715, 38.464, 173, M, 9.21
PETALUMA 1.3 SW, Sonoma, CA01, -122.639, 38.226, 36, M, 8.83
WINDSOR 0.6 NNE, Sonoma, CA01, -122.793, 38.553, 157, M, 10.95
CLOVERDALE 0.9 S, Sonoma, CA01, -123.017, 38.786, 347, M, 12.72
SANTA ROSA 0.4 NW, Sonoma, CA01, -122.705, 38.453, 181, M, 7.52
SEBASTOPOL 0.9 WNW, Sonoma, CA01, -122.841, 38.407, 213, M, 10.43
GLEN ELLEN 1.9 WNW, Sonoma, CA01, -122.572, 38.365, 956, M, 12.26
ROHNERT PARK 0.9 SW, Sonoma, CA01, -122.711, 38.339, 96, M, 8.72
SANTA ROSA 0.6 N, Sonoma, CA01, -122.703, 38.457, 177, M, 8.91
HEALDSBURG 3.7 WNW, Sonoma, CA01, -122.921, 38.648, 142, M, 10.87
CLOVERDALE 0.6 W, Sonoma, CA01, -123.028, 38.799, 382, M, 12.82
ROHNERT PARK 0.9 ESE, Sonoma, CA01, -122.681, 38.345, 125, M, 8.17
GLEN ELLEN 1.5 N, Sonoma, CA01, -122.534, 38.378, 337, M, 11.14
SANTA ROSA 2.7 ENE, Sonoma, CA01, -122.659, 38.470, 281, M, 7.08
BOYES HOT SPRINGS 0.5 ENE, Sonoma, CA01, -122.473, 38.316, 295, M, 9.84
SEBASTOPOL 3.3 WSW, Sonoma, CA01, -122.885, 38.384, 362, M, 9.96
SANTA ROSA 2.0 NE, Sonoma, CA01, -122.676, 38.470, 248, M, 9.45
OCCIDENTAL 2.8 SW, Sonoma, CA01, -122.974, 38.365, 614, M, 12.90
BENICIA 0.2 SSW, Solano, CA01, -122.155, 38.070, 403, M, 5.42
APPLE VALLEY 2.6 SSW, San Bernardino, CA07, -117.235, 34.496, 2881, M, 7.12
WRIGHTWOOD 1.2 WNW, San Bernardino, CA07, -117.651, 34.365, 6148, M, 18.00
UPLAND 0.5 ESE, San Bernardino, CA06, -117.650, 34.115, 1415, M, 13.83
APPLE VALLEY 2.6 SE, San Bernardino, CA07, -117.181, 34.504, 2941, M, 6.67
ALTA LOMA 2.7 ENE, San Bernardino, CA06, -117.551, 34.138, 1535, M, 10.59
JOSHUA TREE 2.0 S, San Bernardino, CA07, -116.318, 34.097, 3409, M, 4.38
LANDERS 3.4 SW, San Bernardino, CA07, -116.407, 34.217, 3447, M, 3.93
CRESTLINE 0.2 WSW, San Bernardino, CA07, -117.299, 34.246, 4530, M, 9.93
LANDERS 1.6 NE, San Bernardino, CA07, -116.375, 34.283, 2954, M, 3.26
BARSTOW 3.0 W, San Bernardino, CA07, -117.118, 34.880, 2229, M, 5.36
HESPERIA 3.9 SW, San Bernardino, CA07, -117.340, 34.373, 3578, M, 10.12
PINON HILLS 3.5 N, San Bernardino, CA07, -117.644, 34.485, 3495, M, 6.13
APPLE VALLEY 1.9 N, San Bernardino, CA07, -117.211, 34.556, 2935, M, 6.45
KNIGHTS FERRY 5.2 WSW, Stanislaus, CA05, -120.752, 37.789, 144, M, 4.88
OAKDALE 4.2 ENE, Stanislaus, CA05, -120.777, 37.782, 232, M, 3.82
SAN JUAN BAUTISTA 0.5 S, San Benito, CA04, -121.537, 36.839, 252, M, 3.60
HOLLISTER 5.4 NNE, San Benito, CA04, -121.370, 36.931, 247, M, 2.77
HOLLISTER 2.1 ESE, San Benito, CA04, -121.365, 36.842, 389, M, 3.10
DAVENPORT 4.2 NW, Santa Cruz, CA04, -122.218, 37.065, 495, M, 10.95
DAVENPORT 3.1 NW, Santa Cruz, CA04, -122.229, 37.044, 47, M, 9.56
BOULDER CREEK 3.6 NE, Santa Cruz, CA04, -122.091, 37.181, 1724, M, 10.00
SCOTTS VALLEY 1.7 SW, Santa Cruz, CA04, -122.029, 37.040, 573, M, 15.42
APTOS 2.6 E, Santa Cruz, CA04, -121.854, 36.996, 383, M, 9.88
SCOTTS VALLEY 1.4 W, Santa Cruz, CA04, -122.033, 37.055, 362, M, 14.23
FELTON 0.1 SE, Santa Cruz, CA04, -122.071, 37.042, 238, M, 15.50
BONNY DOON 2.0 NE, Santa Cruz, CA04, -122.133, 37.068, 1880, M, 13.39
SOQUEL 1.8 N, Santa Cruz, CA04, -121.950, 37.019, 152, M, 10.94
BURLINGAME 2.0 WSW, San Mateo, CA04, -122.398, 37.584, 447, M, 9.88
BENICIA 1.2 SW, Solano, CA01, -122.168, 38.058, 40, M, 3.90
TWENTYNINE PALMS 1.5 SW, San Bernardino, CA07, -116.085, 34.124, 2162, M, 0.01
ARBUCKLE BASIN CALIFORNIA, Shasta, CA02, -122.833, 40.398, 1900, 42.0, M
ACTON CALIFORNIA, Los Angeles, CA06, -118.200, 34.446, 2600, 51.2, M
ARROYO GRANDE CALIFORNIA, San Luis Obispo, CA04, -120.392, 35.179, 1048, 53.0, M
ALDER SPRINGS CALIFORNIA, Glenn, CA02, -122.724, 39.651, 4300, 39.3, M
ALPINE CALIFORNIA, San Diego, CA06, -116.739, 32.834, 2041, 55.4, M
LOS ALTOS CALIFORNIA, Santa Clara, CA04, -122.147, 37.358, 645, 51.8, M
AMMO DUMP CALIFORNIA, San Diego, CA06, -117.286, 33.381, 1068, 57.4, M
ANZA CALIFORNIA, Riverside, CA06, -116.673, 33.555, 3920, 46.8, M
ALDER POINT CALIFORNIA, Humboldt, CA01, -123.590, 40.187, 923, 46.8, M
ARROYO SECO (MT. DIABLO) CALIF, Monterey, CA04, -121.492, 36.230, 980, 50.9, M
ASH CREEK CALIFORNIA, Siskiyou, CA02, -121.979, 41.277, 3200, 35.1, M
ASH VALLEY CALIFORNIA, Lassen, CA02, -120.686, 41.052, 5100, 33.8, M
BACKBONE CALIFORNIA, Trinity, CA01, -123.142, 40.889, 4700, 35.2, M
BALD MTN LOC CALIFORNIA, El Dorado, CA02, -120.697, 38.906, 4680, 40.8, M
BARNABY CALIFORNIA, Marin, CA01, -122.702, 38.028, 1240, 49.8, M
BATTERSON CALIFORNIA, Madera, CA05, -119.508, 37.232, 3160, 46.5, M
BIG BAR CALIFORNIA, Trinity, CA01, -123.233, 40.733, 1500, 43.4, M
BELL CANYON CALIFORNIA, Orange, CA06, -117.592, 33.542, 700, 57.6, M
BRADLEY CALIFORNIA, Monterey, CA04, -120.803, 35.864, 537, 49.6, M
BEAR PEAK CALIFORNIA, Tulare, CA05, -118.052, 35.884, 8228, 35.6, M
BENTON CALIFORNIA, Mono, CA07, -118.478, 37.843, 5450, 38.3, M
BEAUMONT CALIFORNIA, Riverside, CA06, -116.950, 33.931, 2604, 52.7, M
BEVERLY HILLS CALIFORNIA, Los Angeles, CA06, -118.412, 34.125, 1260, 58.3, M
BANGOR CALIFORNIA, Butte, CA02, -121.386, 39.398, 803, 49.1, M
BIG HILL CALIFORNIA, Humboldt, CA01, -123.636, 41.098, 3570, 38.1, M
BIG PINES CALIFORNIA, Los Angeles, CA07, -117.692, 34.379, 6917, 42.7, M
BIG ROCK CALIFORNIA, Marin, CA01, -122.570, 38.039, 1500, 48.9, M
BLACK DIAMOND CALIFORNIA, Contra Costa, CA04, -121.884, 37.950, 1600, 47.6, M
BLUE DOOR CALIFORNIA, Lassen, CA02, -120.337, 41.055, 5615, 32.6, M
BLUE RIDGE (KNF) CALIFORNIA, Siskiyou, CA01, -123.187, 41.269, 5956, 31.8, M
BEN BOLT CALIFORNIA, El Dorado, CA05, -120.934, 38.591, 905, 49.0, M
BEN LOMOND CALIFORNIA, Santa Cruz, CA04, -122.170, 37.132, 2630, 46.2, M
BOGARD R.S. CALIFORNIA, Lassen, CA02, -121.083, 40.598, 5650, 31.0, M
BOONVILLE CALIFORNIA, Mendocino, CA01, -123.349, 38.988, 644, 49.3, M
BIG PINE FLAT CALIFORNIA, San Bernardino, CA07, -117.013, 34.319, 6861, 40.6, M
BRIDGEPORT 4NW CALIFORNIA, Mono, CA03, -119.289, 38.272, 6650, 34.5, M
BRANCH MOUNTAIN CALIFORNIA, San Luis Obispo, CA04, -120.083, 35.189, 3770, 47.4, M
BEAR FLAT CALIFORNIA, Modoc, CA02, -120.313, 41.295, 6200, 32.4, M
BRIONES CALIFORNIA, Contra Costa, CA04, -122.118, 37.944, 1450, 47.9, M
BLACKROCK CALIFORNIA, Tulare, CA05, -118.260, 36.093, 8200, 35.8, M
BROOKS CALIFORNIA, Yolo, CA02, -122.145, 38.738, 354, 49.2, M
BIG SUR CALIFORNIA, Monterey, CA04, -121.785, 36.236, 450, 53.9, M
BUCK MEADOWS CALIFORNIA, Tuolumne, CA05, -120.097, 37.823, 3200, 43.3, M
BULL FLAT CALIFORNIA, Lassen, CA03, -120.114, 40.481, 4395, 36.4, M
BURNS CANYON CALIFORNIA, San Bernardino, CA07, -116.634, 34.210, 6000, 46.0, M
BUTTERCUP CALIFORNIA, Imperial, CA07, -114.884, 32.740, 217, 60.6, M
BEAVER CAMP LOC CALIFORNIA, Amador, CA05, -120.325, 38.488, 5000, 42.0, M
BRAZIE RANCH CALIFORNIA, Siskiyou, CA01, -122.594, 41.685, 3000, 39.0, M
CAHUILLA CALIFORNIA, Imperial, CA07, -115.174, 32.974, 278, 61.2, M
CALLAHAN CALIFORNIA, Siskiyou, CA01, -122.796, 41.308, 3136, 38.0, M
CAMERON FIRE STATION CALIFORNI, San Diego, CA06, -116.463, 32.721, 3443, 48.8, M
CANBY CALIFORNIA, Modoc, CA02, -120.868, 41.434, 4312, 40.2, M
CARRIZO CALIFORNIA, San Luis Obispo, CA05, -119.773, 35.096, 2490, 51.4, M
CASE SPRINGS CALIFORNIA, San Diego, CA06, -117.418, 33.445, 2320, 58.5, M
CATHEYS VALLEY CALIFORNIA, Mariposa, CA05, -120.111, 37.468, 1200, 49.1, M
CEDAR GROVE CALIFORNIA, Fresno, CA05, -118.656, 36.788, 4720, 39.4, M
CHEESEBORO CALIFORNIA, Ventura, CA06, -118.717, 34.185, 1650, 56.3, M
CHICO CALIFORNIA, Butte, CA02, -121.779, 39.712, 230, 49.4, M
CHILAO CALIFORNIA, Los Angeles, CA06, -118.030, 34.332, 5450, 47.2, M
CHUCHUPATE CALIFORNIA, Ventura, CA05, -119.012, 34.808, 4900, 40.5, M
CLAREMONT CALIFORNIA, Los Angeles, CA06, -117.707, 34.137, 1645, 54.8, M
CLEAR CREEK CALIFORNIA, Los Angeles, CA06, -118.152, 34.271, 3000, 52.1, M
CLARK CALIFORNIA, Riverside, CA06, -117.309, 33.877, 1720, 55.2, M
CASE MOUNTAIN CALIFORNIA, Tulare, CA05, -118.809, 36.411, 6450, 42.9, M
CORONA CALIFORNIA, Riverside, CA06, -117.549, 33.874, 640, 57.1, M
COHASSET CALIFORNIA, Butte, CA02, -121.769, 39.872, 1733, 46.9, M
COLLINS BALDY CALIFORNIA, Siskiyou, CA01, -122.950, 41.775, 5493, 31.6, M
CONVERSE CALIFORNIA, San Bernardino, CA06, -116.913, 34.194, 5618, 44.6, M
COOSKIE MOUNTAIN CALIFORNIA, Humboldt, CA01, -124.266, 40.257, 2950, 41.1, M
CORRALITOS CALIFORNIA, Santa Cruz, CA04, -121.798, 36.991, 450, 51.2, M
COUNTY LINE CALIFORNIA, Lake, CA02, -122.412, 39.019, 2085, 45.5, M
CAMP 9 CALIFORNIA, Los Angeles, CA06, -118.422, 34.362, 4000, 48.2, M
CRANE FLAT LOOKOUT CALIFORNIA, Mariposa, CA05, -119.825, 37.762, 6644, 38.0, M
CRESTVIEW CALIFORNIA, Mono, CA07, -118.983, 37.745, 7600, 31.2, M
CORNING CALIFORNIA, Tehama, CA02, -122.170, 39.939, 294, 48.2, M
CARPENTER RIDGE CALIFORNIA, Butte, CA02, -121.582, 40.069, 4812, 36.8, M
CRANSTON CALIFORNIA, Riverside, CA06, -116.841, 33.740, 1950, 55.7, M
CRAZY PEAK CALIFORNIA, Del Norte, CA01, -123.604, 41.992, 3970, 37.6, M
CASHMAN CALIFORNIA, Plumas, CA02, -120.915, 40.002, 4520, 37.3, M
DESCANSO CALIFORNIA, San Diego, CA06, -116.622, 32.857, 3480, 50.8, M
DEVILS GARDEN CALIFORNIA, Modoc, CA02, -120.671, 41.530, 5022, 33.6, M
DIABLO GRANDE CALIFORNIA, Stanislaus, CA05, -121.294, 37.329, 1850, 48.2, M
DEMOCRAT CALIFORNIA, Kern, CA05, -118.630, 35.532, 2356, 52.2, M
DINKEY CALIFORNIA, Fresno, CA05, -119.039, 37.066, 5668, 35.9, M
DOG VALLEY CALIFORNIA, Sierra, CA03, -120.048, 39.562, 5976, 36.9, M
DOYLE CALIFORNIA, Lassen, CA03, -120.106, 40.022, 4240, 38.9, M
DUNCAN CALIFORNIA, Placer, CA02, -120.509, 39.144, 7100, 31.6, M
DEL VALLE CALIFORNIA, Los Angeles, CA06, -118.683, 34.431, 1278, 55.5, M
DEVORE CALIFORNIA, San Bernardino, CA06, -117.404, 34.221, 2057, 55.0, M
EAGLE PEAK CALIFORNIA, Tehama, CA02, -122.657, 39.928, 3713, 39.5, M
EEL RIVER CAMP CALIFORNIA, Humboldt, CA01, -123.824, 40.138, 446, 48.5, M
EEL RIVER CALIFORNIA, Mendocino, CA01, -123.083, 39.833, 1500, 46.6, M
EL CARISO CALIFORNIA, Riverside, CA06, -117.411, 33.647, 3038, 58.6, M
MOUNT ELIZABETH CALIFORNIA, Tuolumne, CA05, -120.247, 38.063, 4933, 40.9, M
EL MIRAGE CALIFORNIA, San Bernardino, CA07, -117.550, 34.634, 2880, 48.1, M
ESPERANZA CALIFORNIA, Calaveras, CA05, -120.515, 38.243, 2559, 45.4, M
FANCHER CREEK CALIFORNIA, Fresno, CA05, -119.466, 36.884, 920, 51.5, M
FENCE MEADOW CALIFORNIA, Fresno, CA05, -119.175, 36.961, 5048, 43.4, M
FORT HUNTER LIGGET CALIFORNIA, Monterey, CA04, -121.242, 36.012, 1100, 48.5, M
FIGUEROA CALIFORNIA, Santa Barbara, CA06, -120.007, 34.733, 3200, 51.4, M
FISH CREEK MTN CALIFORNIA, Imperial, CA07, -116.067, 32.990, 760, 64.7, M
FIVE MILE CALIFORNIA, Inyo, CA07, -117.918, 35.872, 4150, 48.9, M
FORT ORD #2 CALIFORNIA, Monterey, CA04, -121.786, 36.627, 490, 52.2, M
FORESTHILL CALIFORNIA, Placer, CA02, -120.732, 39.091, 4355, 41.3, M
FOUNTAIN SPRINGS CALIFORNIA, Tulare, CA05, -118.915, 35.892, 210, 49.6, M
FREMONT CANYON CALIFORNIA, Orange, CA06, -117.711, 33.808, 1781, 57.5, M
FRIEND MOUNTAIN CALIFORNIA, Trinity, CA01, -123.342, 40.505, 4000, 38.0, M
GASQUET CALIFORNIA, Del Norte, CA01, -123.979, 41.846, 500, 45.0, M
GRASSHOPPER CALIFORNIA, Lassen, CA03, -120.784, 40.782, 6158, 31.4, M
GOOSE VALLEY CALIFORNIA, San Diego, CA06, -116.846, 33.074, 1530, 54.5, M
GORDON CALIFORNIA, Lassen, CA03, -120.896, 40.759, 6200, 32.1, M
GREEN SPRING CALIFORNIA, Tuolumne, CA05, -120.500, 37.833, 1020, 49.0, M
HASTINGS CALIFORNIA, Monterey, CA04, -121.552, 36.389, 1885, 50.2, M
HAWKEYE CALIFORNIA, Sonoma, CA01, -122.917, 38.782, 2000, 46.1, M
HAYFORK CALIFORNIA, Trinity, CA01, -123.165, 40.550, 2323, 41.3, M
HELL HOLE CALIFORNIA, Placer, CA02, -120.422, 39.072, 5240, 38.4, M
HERNANDEZ CALIFORNIA, San Benito, CA04, -120.856, 36.383, 3733, 46.0, M
HIGH GLADE LOOKOUT CALIFORNIA, Lake, CA02, -122.808, 39.208, 4840, 37.6, M
HIGH SIERRA CALIFORNIA, Fresno, CA05, -119.038, 37.315, 7403, 33.2, M
HOPLAND CALIFORNIA, Mendocino, CA01, -123.081, 39.031, 2682, 43.7, M
HOLLISTER CALIFORNIA, San Benito, CA04, -121.362, 36.842, 404, 51.1, M
HUNTER MOUNTAIN CALIFORNIA, Inyo, CA07, -117.474, 36.563, 6880, 40.3, M
HORSE LAKE CALIFORNIA, Lassen, CA03, -120.503, 40.631, 5100, 33.6, M
HOOPA CALIFORNIA, Humboldt, CA01, -123.671, 41.048, 375, 47.4, M
HORSE THIEF SPRINGS CALIFORNIA, San Bernardino, CA07, -115.909, 35.771, 5000, 45.2, M
HURLEY CALIFORNIA, Fresno, CA05, -119.568, 37.015, 1201, 46.6, M
INDIAN WELL CALIFORNIA, Siskiyou, CA01, -121.538, 41.742, 4770, 35.8, M
JARBO GAP CALIFORNIA, Butte, CA02, -121.489, 39.736, 2490, 43.3, M
JERSEYDALE CALIFORNIA, Mariposa, CA05, -119.839, 37.544, 3900, 43.7, M
JOHNSONDALE CALIFORNIA, Tulare, CA05, -118.545, 35.972, 4700, 39.9, M
JUANITA LAKE CALIFORNIA, Siskiyou, CA01, -122.006, 41.786, 5400, 34.5, M
JULIAN CALIFORNIA, San Diego, CA07, -116.591, 33.076, 4240, 47.9, M
JUNIPER CREEK CALIFORNIA, Modoc, CA02, -120.472, 41.332, 4372, 36.5, M
KEENWILD CALIFORNIA, Riverside, CA06, -116.767, 33.667, 4920, 47.6, M
KETTLEMAN HILLS CALIFORNIA, Kings, CA05, -120.057, 36.033, 810, 52.1, M
KNOXVILLE CREEK CALIFORNIA, Lake, CA02, -122.417, 38.862, 2200, 44.1, M
KONOCTI CALIFORNIA, Lake, CA02, -122.706, 38.912, 2163, 44.5, M
LOS BANOS CALIFORNIA, Merced, CA05, -121.053, 37.055, 350, 51.6, M
MT. LAGUNA CALIFORNIA, San Diego, CA07, -116.420, 32.880, 5760, 43.9, M
LA HONDA CALIFORNIA, San Mateo, CA04, -122.255, 37.305, 872, 50.2, M
LA PANZA CALIFORNIA, San Luis Obispo, CA04, -120.187, 35.381, 1630, 47.5, M
LAURAL MOUNTAIN CALIFORNIA, Kern, CA07, -117.699, 35.478, 4390, 45.9, M
LASSEN LODGE CALIFORNIA, Tehama, CA02, -121.714, 40.344, 4159, 39.4, M
LAUFMAN CALIFORNIA, Lassen, CA03, -120.353, 40.142, 5800, 36.3, M
LAYTONVILLE CALIFORNIA, Mendocino, CA01, -123.485, 39.702, 1820, 44.5, M
LADDER BUTTE CALIFORNIA, Lassen, CA02, -121.297, 40.807, 5750, 34.3, M
LEO CARRILLO CALIFORNIA, Los Angeles, CA06, -118.936, 34.046, 50, 56.5, M
LOS GATOS CALIFORNIA, Santa Clara, CA04, -121.943, 37.203, 2000, 49.1, M
LOST HORSE CALIFORNIA, Riverside, CA07, -116.188, 34.018, 4200, 47.3, M
LINCOLN CALIFORNIA, Placer, CA02, -121.268, 38.883, 200, 49.9, M
LOWER KLAMATH CALIFORNIA, Siskiyou, CA01, -121.700, 41.999, 4098, 34.0, M
LOS PRIETOS CALIFORNIA, Santa Barbara, CA06, -119.783, 34.536, 1020, 53.1, M
LAS TABLAS CALIFORNIA, San Luis Obispo, CA04, -120.924, 35.656, 994, 49.0, M
LITTLE TUJUNGA CALIFORNIA, Los Angeles, CA06, -118.361, 34.294, 1390, 56.6, M
DESCANSO 3.7 NNW, San Diego, CA06, -116.626, 32.906, 3278, M, 8.22
WOODSIDE 3.4 S, San Mateo, CA04, -122.264, 37.375, 1592, M, 24.67
ADELANTO 3.1 S, San Bernardino, CA07, -117.433, 34.525, 3085, M, 4.64
RIO VISTA 8.5 S, Sacramento, CA05, -121.703, 38.050, 5, M, 3.31
YUCCA VALLEY 1.1 SW, San Bernardino, CA07, -116.443, 34.100, 3628, M, 7.63
LYONS VALLEY CALIFORNIA, Lake, CA01, -123.074, 39.126, 3200, 41.0, M
LYTLE CREEK CALIFORNIA, San Bernardino, CA06, -117.480, 34.234, 2792, 52.0, M
MAD RIVER CALIFORNIA, Trinity, CA01, -123.524, 40.463, 2775, 40.3, M
MALIBU HILLS CALIFORNIA, Los Angeles, CA06, -118.633, 34.058, 1575, 57.3, M
MANZANITA LAKE CALIFORNIA, Shasta, CA02, -121.580, 40.540, 5660, 31.1, M
MARIPOSA GROVE CALIFORNIA, Mariposa, CA05, -119.605, 37.513, 6400, 41.3, M
MILL CREEK (BDF) CALIFORNIA, San Bernardino, CA06, -117.035, 34.084, 2950, 54.4, M
MCGUIRES CALIFORNIA, Mendocino, CA01, -123.601, 39.353, 593, 48.8, M
MEANS LAKE CALIFORNIA, San Bernardino, CA07, -116.517, 34.391, 2900, 50.0, M
MENDOCINO PASS CALIFORNIA, Mendocino, CA01, -122.945, 39.808, 5420, 35.8, M
METCALF GAP CALIFORNIA, Madera, CA05, -119.768, 37.409, 3077, 47.2, M
MEYERS CALIFORNIA, El Dorado, CA03, -120.018, 38.849, 6310, 34.7, M
MID HILLS CALIFORNIA, San Bernardino, CA07, -115.411, 35.123, 5413, 43.6, M
MILL CREEK (ANF) CALIFORNIA, Los Angeles, CA06, -118.082, 34.390, 5021, 46.4, M
MILO CALIFORNIA, Tulare, CA05, -118.869, 36.231, 1923, 50.3, M
MALLORY RIDGE CALIFORNIA, Contra Costa, CA05, -121.779, 37.817, 2040, 47.1, M
MONTECITO CALIFORNIA, Santa Barbara, CA06, -119.648, 34.461, 1500, 56.9, M
MODOC NWR CALIFORNIA, Modoc, CA02, -120.354, 41.459, 4380, 35.7, M
MOJAVE RIVER SINK CALIFORNIA, San Bernardino, CA07, -116.079, 35.053, 950, 43.2, M
MOUNTAIN REST CALIFORNIA, Fresno, CA05, -119.371, 37.054, 4100, 44.7, M
MARKLEEVILLE CALIFORNIA, Alpine, CA03, -119.767, 38.683, 5501, 37.8, M
MT. SHASTA CALIFORNIA, Siskiyou, CA02, -122.316, 41.316, -, 37.0, M
MARIPOSA CALIFORNIA, Mariposa, CA05, -119.987, 37.504, 2231, 46.7, M
MT. DIABLO CALIFORNIA, Contra Costa, CA05, -121.914, 37.882, 3849, 55.6, M
MOUNT ZION CALIFORNIA, Amador, CA05, -120.651, 38.389, 2960, 45.9, M
NORTH FORK CALIFORNIA, Madera, CA05, -119.505, 37.233, 2720, 46.8, M
OAK KNOLL CALIFORNIA, Siskiyou, CA01, -122.850, 41.839, 1940, 41.1, M
OAK MOUNTAIN CALIFORNIA, Shasta, CA02, -121.983, 41.006, 1700, 40.0, M
OAK CREEK CALIFORNIA, Inyo, CA07, -118.259, 36.843, 4855, 43.1, M
OJAI CALIFORNIA, Ventura, CA06, -119.230, 34.448, 765, 53.3, M
OAK GROVE CALIFORNIA, San Diego, CA06, -116.795, 33.393, 2752, 53.0, M
OAKLAND NORTH CALIFORNIA, Contra Costa, CA04, -122.221, 37.865, 1403, 47.8, M
OAK OPENING CALIFORNIA, Tulare, CA05, -118.702, 36.175, 3240, 47.8, M
OAKLAND SOUTH CALIFORNIA, Alameda, CA04, -122.145, 37.786, 1095, 48.9, M
OPAL MOUNTAIN CALIFORNIA, San Bernardino, CA07, -117.176, 35.154, 3240, 49.5, M
OWENS CAMP LOC CALIFORNIA, El Dorado, CA02, -120.245, 38.733, 5240, 39.4, M
OWENS VALLEY CALIFORNIA, Inyo, CA07, -118.551, 37.390, 4640, 41.8, M
OZENA CALIFORNIA, Ventura, CA06, -119.354, 34.682, 3670, 47.9, M
PANAMINT CALIFORNIA, Inyo, CA07, -117.088, 36.120, 6880, 41.3, M
PARKFIELD CALIFORNIA, Monterey, CA04, -120.432, 35.899, 1535, 48.2, M
PATTY MOCUS CALIFORNIA, Tehama, CA02, -122.867, 40.295, 3500, 37.9, M
PINE HILLS CALIFORNIA, San Diego, CA06, -116.634, 33.016, -, 51.5, M
PIERCE CALIFORNIA, Plumas, CA02, -120.642, 40.246, 5700, 34.7, M
PINEHURST CALIFORNIA, Fresno, CA05, -119.000, 36.685, 4060, 45.0, M
PIKE COUNTY LOOKOUT CALIFORNIA, Yuba, CA02, -121.202, 39.475, 3714, 41.8, M
PILOT HILL CALIFORNIA, El Dorado, CA02, -121.009, 38.833, 1200, 47.6, M
PIRU CALIFORNIA, Ventura, CA06, -118.810, 34.404, 614, 56.0, M
PARK RIDGE CALIFORNIA, Tulare, CA05, -118.942, 36.724, 7540, 39.9, M
PINNACLES CALIFORNIA, San Benito, CA04, -121.147, 36.471, 1322, 50.7, M
POPPY PARK CALIFORNIA, Los Angeles, CA07, -118.383, 34.733, 2760, 48.2, M
POTRERO CALIFORNIA, San Diego, CA06, -116.609, 32.606, 2345, 51.8, M
PANOCHE ROAD CALIFORNIA, Fresno, CA05, -120.766, 36.727, 2032, 48.7, M
PULGAS CALIFORNIA, San Mateo, CA04, -122.298, 37.475, 644, 51.8, M
QUARTZ HILL CALIFORNIA, Siskiyou, CA01, -122.934, 41.599, 4225, 35.9, M
QUINCY RD CALIFORNIA, Plumas, CA02, -120.942, 39.973, 3500, 38.0, M
RAVENDALE CALIFORNIA, Lassen, CA03, -120.316, 40.731, 5298, 33.8, M
RANCHITA CALIFORNIA, San Diego, CA07, -116.497, 33.222, 4415, 49.3, M
READER RANCH CALIFORNIA, Nevada, CA02, -121.117, 39.304, 1968, 46.6, M
REDDING AIRPORT CALIFORNIA, Shasta, CA02, -122.291, 40.516, 500, 46.1, M
RICE VALLEY CALIFORNIA, Riverside, CA07, -114.732, 34.061, 820, 55.6, M
ROCK CREEK, Mono, CA07, -118.667, 37.551, 7040, 33.5, M
SANTA CRUZ 2.6 ESE, Santa Cruz, CA04, -121.991, 36.961, 36, M, 8.73
RODEO VALLEY, Mendocino, CA01, -123.321, 39.668, 2428, 42.8, M
ROSE VALLEY CALIFORNIA, Ventura, CA06, -119.184, 34.543, 3331, 46.1, M
ROUND MOUNTAIN, Siskiyou, CA02, -121.464, 41.427, 5258, 32.2, M
ROSE PEAK CALIFORNIA, Alameda, CA04, -121.735, 37.502, 3060, 45.2, M
RUSH CREEK CALIFORNIA, Modoc, CA02, -120.864, 41.294, 4800, 33.4, M
RUTH CALIFORNIA, Trinity, CA01, -123.316, 40.251, 2732, 41.1, M
SACRAMENTO NWR CALIFORNIA, Glenn, CA02, -122.182, 39.417, 120, 49.5, M
SADDLEBACK BUTTE CALIFORNIA, Los Angeles, CA07, -117.821, 34.685, 2590, 47.2, M
SAUGUS CALIFORNIA, Los Angeles, CA06, -118.525, 34.425, 1450, 55.3, M
SAWYERS BAR CALIFORNIA, Siskiyou, CA01, -123.132, 41.300, 2192, 39.2, M
SANTA BARBARA ISLAND CALIFORNI, Santa Barbara, CA06, -119.033, 33.483, 176, 54.4, M
SANTA CRUZ ISLAND CALIFORNIA, Santa Barbara, CA06, -119.722, 33.996, 250, 54.0, M
SCORPION CALIFORNIA, Trinity, CA01, -122.697, 41.112, 4400, 37.5, M
SODA CREEK CALIFORNIA, Lake, CA01, -122.977, 39.425, 1773, 44.8, M
SADDLEBACK CALIFORNIA, Sierra, CA02, -120.865, 39.638, 6670, 33.5, M
SECRET TOWN CALIFORNIA, Nevada, CA02, -120.885, 39.184, 2826, 43.9, M
SANTA FE DAM CALIFORNIA, Los Angeles, CA06, -117.946, 34.121, 500, 58.3, M
SHAVER CALIFORNIA, Fresno, CA05, -119.256, 37.135, 5746, 37.3, M
SCHOOL HOUSE CALIFORNIA, Humboldt, CA01, -123.906, 41.138, 2640, 41.1, M
SHIP MTN. CALIFORNIA, Del Norte, CA01, -123.792, 41.736, 5300, 31.5, M
SHADEQUARTER CALIFORNIA, Tulare, CA05, -118.956, 36.567, 4069, 45.6, M
SIMS CALIFORNIA, Shasta, CA02, -122.373, 41.075, 2400, 40.6, M
SIMI VALLEY CALIFORNIA, Ventura, CA06, -118.814, 34.291, 914, 57.2, M
SLATER BUTTE CALIFORNIA, Siskiyou, CA01, -123.352, 41.859, 4670, 36.0, M
SAN MIGUEL CALIFORNIA, San Diego, CA06, -116.974, 32.685, 425, 58.5, M
SAN LUIS NWR CALIFORNIA, Merced, CA05, -120.794, 37.182, 65, 50.1, M
SANTA RITA CALIFORNIA, San Benito, CA05, -120.598, 36.348, 5000, 43.3, M
SOLDIER MOUNTAIN CALIFORNIA, Shasta, CA02, -121.586, 40.926, 3710, 36.6, M
SOMES BAR CALIFORNIA, Siskiyou, CA01, -123.496, 41.390, 920, 44.0, M
SQUAW SPRINGS CALIFORNIA, San Bernardino, CA07, -117.568, 35.370, 3620, 48.7, M
SQUAW LAKE CALIFORNIA, Imperial, CA07, -114.494, 32.908, 300, 58.0, M
SANTA ROSA ISLAND CALIFORNIA, Santa Barbara, CA06, -120.078, 33.978, 1298, 52.8, M
SANTA ROSA PLATEAU CALIFORNIA, Riverside, CA06, -117.231, 33.529, 1980, 54.8, M
SANTA ROSA CALIFORNIA, Sonoma, CA01, -122.712, 38.479, 576, 49.5, M
STAMPEDE CALIFORNIA, Sierra, CA03, -120.075, 39.483, 6867, 33.9, M
STONYFORD CALIFORNIA, Colusa, CA02, -122.575, 39.367, 1200, 46.1, M
SUGARLOAF (SHF) CALIFORNIA, Shasta, CA02, -122.438, 40.917, 4200, 41.6, M
SPRING VALLEY CALIFORNIA, San Mateo, CA04, -122.436, 37.563, 1075, 49.6, M
TALEGA CALIFORNIA, San Diego, CA06, -117.486, 33.478, 1203, 58.3, M
TANBARK CALIFORNIA, Los Angeles, CA06, -117.761, 34.207, 2600, 53.5, M
TARGET RANGE CALIFORNIA, San Diego, CA06, -117.359, 33.372, 918, 60.8, M
TEMESCAL (LPF) CALIFORNIA, Ventura, CA06, -118.756, 34.481, 1140, 54.7, M
THOMES CREEK CALIFORNIA, Tehama, CA02, -122.610, 39.864, 1040, 46.8, M
THOUSAND OAKS CALIFORNIA, Ventura, CA06, -118.870, 34.210, 795, 55.6, M
TIMBER MOUNTAIN CALIFORNIA, Modoc, CA01, -121.298, 41.629, 4960, 37.3, M
TEMESCAL (CNF) CALIFORNIA, Riverside, CA06, -117.483, 33.763, 1125, 57.1, M
MOUNT TOM CALIFORNIA, Fresno, CA05, -119.178, 37.376, 9018, 32.5, M
LAS TRAMPAS CALIFORNIA, Contra Costa, CA04, -122.067, 37.834, 1760, 47.4, M
TRINITY CAMP CALIFORNIA, Trinity, CA01, -122.804, 40.786, 3308, 37.6, M
TRIMMER CALIFORNIA, Fresno, CA05, -119.305, 36.911, 1540, 48.9, M
GAYLOR MEADOW CALIFORNIA, Tuolumne, CA05, -119.318, 37.868, 9270, 26.6, M
UHL / HOT SPRINGS, Tulare, CA05, -118.633, 35.889, 3720, 46.5, M
UNDERWOOD CALIFORNIA, Trinity, CA01, -123.495, 40.722, 2600, 41.5, M
VALLEY CENTER CALIFORNIA, San Diego, CA06, -117.009, 33.237, 1483, 55.3, M
VAN BREMMER CALIFORNIA, Siskiyou, CA01, -121.794, 41.643, 4928, 34.0, M
VALYERMO CALIFORNIA, Los Angeles, CA07, -117.851, 34.446, 3780, 46.4, M
VANDENBERG CALIFORNIA, Santa Barbara, CA06, -120.486, 34.759, 1050, 53.6, M
WALKER CALIFORNIA, Mono, CA03, -119.459, 38.565, 5440, 40.7, M
WALKER PASS CALIFORNIA, Kern, CA05, -118.057, 35.665, 5572, 43.2, M
WARM SPRINGS CALIFORNIA, Los Angeles, CA06, -118.579, 34.596, 4930, 48.0, M
WEED AIRPORT CALIFORNIA, Siskiyou, CA01, -122.454, 41.479, 2930, 39.5, M
WESTWOOD CALIFORNIA, Lassen, CA02, -120.900, 40.307, 5800, 32.4, M
WHITE CLOUD CALIFORNIA, Nevada, CA02, -120.837, 39.317, 4320, 40.8, M
WHITTIER HILLS CALIFORNIA, Los Angeles, CA06, -118.010, 33.984, 950, 58.5, M
WHITMORE CALIFORNIA, Shasta, CA02, -121.899, 40.619, 2417, 42.7, M
WILEY RIDGE CALIFORNIA, Ventura, CA06, -118.841, 34.372, 1645, 55.6, M
WOFFORD HEIGHTS CALIFORNIA, Kern, CA05, -118.499, 35.722, 3150, 46.5, M
WOLVERTON CALIFORNIA, Tulare, CA05, -118.703, 36.445, 5240, 48.4, M
WHITAKER PEAK CALIFORNIA, Los Angeles, CA06, -118.740, 34.569, 4120, 48.1, M
WHITE WOLF CALIFORNIA, Tuolumne, CA05, -119.650, 37.851, 8025, 32.5, M
YOLLA BOLLA CALIFORNIA, Trinity, CA01, -123.066, 40.338, 4524, 35.3, M
YUCCA VALLEY CALIFORNIA, San Bernardino, CA07, -116.408, 34.123, 3260, 48.7, M
YUROK CALIFORNIA, Humboldt, CA01, -123.857, 41.290, 495, 46.4, M
HAGAN'S MEADOW, El Dorado, CA03, -119.940, 38.850, 7776, 31.7, 10.40
BLUE LAKES, Alpine, CA05, -119.920, 38.610, 8057, 28.5, 14.10
POISON FLAT, Alpine, CA03, -119.630, 38.510, 7736, 30.4, 11.20
SONORA PASS, Mono, CA03, -119.600, 38.310, 8827, 30.3, 11.90
LEAVITT MEADOWS, Mono, CA03, -119.550, 38.300, 7198, 33.7, 11.20
VIRGINIA LAKES RIDGE, Mono, CA03, -119.230, 38.070, 9445, 30.0, 11.00
LOBDELL LAKE, Mono, CA03, -119.370, 38.440, 9233, 28.8, 11.90
EBBETTS PASS, Alpine, CA03, -119.800, 38.550, 8765, 30.5, 18.10
HEAVENLY VALLEY, El Dorado, CA03, -119.920, 38.920, 8582, 29.5, 13.30
LEAVITT LAKE, Mono, CA03, -119.610, 38.280, 9617, 29.1, 22.80
SPRATT CREEK, Alpine, CA03, -119.820, 38.670, 6115, 36.1, 10.30
MONITOR PASS, Alpine, CA03, -119.610, 38.670, 8310, 31.9, 7.20
BURNSIDE LAKE, Alpine, CA03, -119.890, 38.720, 8129, 29.1, 14.40
SUMMIT MEADOW, Mono, CA03, -119.540, 38.400, 9313, 29.6, 9.20
FORESTDALE CREEK, Alpine, CA03, -119.960, 38.680, 8017, 32.1, 17.70
HORSE MEADOW, Alpine, CA03, -119.890, 38.840, 8557, 30.7, 10.20
CARSON PASS, Alpine, CA02, -119.990, 38.690, 8353, 29.6, 12.50
CROWDER FLAT, Modoc, CA01, -120.750, 41.890, 5170, 33.0, 5.40
CEDAR PASS, Modoc, CA02, -120.300, 41.580, 7030, 29.6, 7.10
DISMAL SWAMP, Modoc, CA03, -120.180, 41.990, 7360, 27.5, 14.40
GARBERVILLE 1.1 WSW, Humboldt, CA01, -123.810, 40.089, 510, M, 10.82
BARSTOW 0.8 SSE, San Bernardino, CA07, -117.059, 34.867, 2609, M, 5.68
MCOLF CAMP PENDLETON RED BEACH AIRPORT, San Diego, -, -117.456, 33.286, 89, 54.3, 8.52
CAMPO ASOS, San Diego, CA07, -116.468, 32.626, 2641, 49.2, 2.43
Burbank Glendale Pasadena Area, -, -, -, -, -, 56.5, 7.22
Camarillo Area, -, -, -, -, -, 55.5, 7.63
Needles Area, -, -, -, -, -, 56.5, 1.21
Oxnard Area, -, -, -, -, -, M, 9.16
Palm Springs Area, -, -, -, -, -, 59.1, 3.72
Riverside Area, -, -, -, -, -, 56.7, 6.88
Ramona Area, -, -, -, -, -, 51.1, 9.20
Northern CA 8 Station Index, -, -, -, -, -, M, 17.20
San Joaquin 5 Station Index, -, -, -, -, -, M, 16.83
ADIN MTN, Modoc, CA02, -120.790, 41.240, 6190, 31.1, 7.70
INDEPENDENCE CREEK, Sierra, CA03, -120.280, 39.490, 6456, 32.3, 11.60
INDEPENDENCE CAMP, Sierra, CA03, -120.290, 39.450, 7003, 32.8, 8.30
INDEPENDENCE LAKE, Nevada, CA03, -120.310, 39.430, 8352, 29.2, 17.80
TRUCKEE #2, Placer, CA03, -120.180, 39.300, 6509, 34.6, 11.00
WARD CREEK #3, Placer, CA03, -120.220, 39.140, 6655, 32.7, 23.80
TAHOE CITY CROSS, Placer, CA03, -120.150, 39.170, 6797, 34.7, 13.90
SQUAW VALLEY G.C., Placer, CA03, -120.260, 39.190, 8029, 31.3, 21.90
CSS LAB, Nevada, CA02, -120.370, 39.330, 6855, 32.0, 20.60
RUBICON #2, El Dorado, CA03, -120.130, 39.000, 7689, 32.3, 13.80
ECHO PEAK, El Dorado, CA03, -120.080, 38.850, 7670, 33.1, 18.80
FALLEN LEAF, El Dorado, CA03, -120.050, 38.930, 6236, 34.7, 11.80
Crescent City Area, -, -, -, -, -, 48.9, 13.59
Escondido Area, -, -, -, -, -, 56.2, 8.85
Sacramento Downtown Area, -, -, -, -, -, 51.1, 5.52
Tahoe City Area, -, -, -, -, -, 32.5, 11.40
Ukiah Area, -, -, -, -, -, 48.2, 9.20
Alturas Area, -, -, -, -, -, 34.8, 2.84
Mount Shasta Area, -, -, -, -, -, 36.7, 11.33
Palmdale Area, -, -, -, -, -, 48.0, 3.30
Lancaster Area, -, -, -, -, -, 47.5, 3.97
El Cajon Area, -, -, -, -, -, 56.1, 7.85
Hanford Area, -, -, -, -, -, 49.4, 5.22
El Centro Area, -, -, -, -, -, 58.6, 0.47
Madera Area, -, -, -, -, -, 49.7, 4.19
Merced Area, -, -, -, -, -, 49.4, 3.41
San Jose Area, -, -, -, -, -, 53.4, 3.05
BOULDER CREEK 2.4 NNW, Santa Cruz, CA04, -122.138, 37.171, 593, M, 6.36
APTOS 1.7 SSE, Santa Cruz, CA04, -121.883, 36.971, 309, M, 8.58
BOULDER CREEK 3.0 NW, Santa Cruz, CA04, -122.164, 37.169, 875, M, 15.87
FELTON 4.5 NNE, Santa Cruz, CA04, -122.047, 37.105, 838, M, 15.23
RED BLUFF 4.3 W, Tehama, CA02, -122.322, 40.179, 396, M, 6.20
VISALIA 2.3 N, Tulare, CA05, -119.319, 36.358, 318, M, 0.95
LINDSAY 0.5 N, Tulare, CA05, -119.088, 36.213, 378, M, 8.64
TERRA BELLA 6.3 W, Tulare, CA05, -119.149, 35.950, 374, M, 7.19
VISALIA 0.7 SSE, Tulare, CA05, -119.318, 36.315, 318, M, 7.70
DOUGLAS CITY 2.4 SW, Trinity, CA01, -122.978, 40.633, 1689, M, 8.41
HAWKINS BAR 0.6 NW, Trinity, CA01, -123.530, 40.877, 674, M, 12.60
MAD RIVER 7.4 SE, Trinity, CA01, -123.376, 40.321, 2762, M, 16.60
HAYFORK 7.1 SE, Trinity, CA01, -123.030, 40.500, 2917, M, 7.21
TRINITY CENTER 0.6 ESE, Trinity, CA01, -122.696, 40.983, 2427, M, 12.36
WEAVERVILLE 2.6 S, Trinity, CA01, -122.941, 40.731, 2017, M, 7.44
SALYER 1.4 ESE, Trinity, CA01, -123.559, 40.887, 696, M, 11.95
THOUSAND OAKS 2.1 WSW, Ventura, CA06, -118.898, 34.177, 692, M, 8.05
FRAZIER PARK 10.7 WSW, Ventura, CA06, -119.110, 34.746, 5274, M, 6.93
SIMI VALLEY 3.8 SW, Ventura, CA06, -118.805, 34.231, 1081, M, 5.15
VENTURA 0.5 WNW, Ventura, CA06, -119.276, 34.273, 56, M, 7.62
OJAI 0.3 WNW, Ventura, CA06, -119.251, 34.451, 797, M, 10.60
SIMI VALLEY 1.0 NW, Ventura, CA06, -118.764, 34.272, 848, M, 6.68
THOUSAND OAKS 2.5 WSW, Ventura, CA06, -118.909, 34.179, 703, M, 8.03
CHALLENGE-BROWNSVILLE 1.3 WSW, Yuba, CA02, -121.280, 39.452, 2049, M, 20.20
DAVIS 1.2 SE, Yolo, CA02, -121.721, 38.543, 36, M, 6.09
DAVIS 0.8 NE, Yolo, CA02, -121.724, 38.562, 41, M, 5.87
DAVIS 1.4 SSE, Yolo, CA02, -121.722, 38.538, 4, M, 5.91
DAVIS 6.1 WNW, Yolo, CA02, -121.845, 38.578, 83, M, 6.08
DAVIS 2.7 W, Yolo, CA02, -121.786, 38.552, 57, M, 5.58
WOODLAND 2.8 SE, Yolo, CA02, -121.732, 38.647, 38, M, 5.50
TAHOMA, El Dorado, CA03, -120.129, 39.060, 6315, M, 11.32
CORONA MUNICIPAL AIRPORT, Riverside, -, -117.602, 33.898, 533, 52.9, 10.01
OAKLAND 4.4 NNW, Alameda, CA04, -122.250, 37.832, 191, M, 7.30
SAN LORENZO 0.5 NNW, Alameda, CA04, -122.133, 37.682, 30, M, 0.00
OROVILLE 4.8 E, Butte, CA02, -121.477, 39.493, 668, M, 6.97
HANFORD 1.2 WNW, Kings, CA05, -119.667, 36.331, 243, M, 4.18
CLAREMONT 0.5 E, Los Angeles, CA06, -117.707, 34.121, 1465, M, 14.59
PACIFIC GROVE 0.6 N, Monterey, CA04, -121.925, 36.631, 53, M, 1.89
CORONA 12.5 SE, Riverside, CA06, -117.431, 33.735, 1302, M, 13.04
CARLSBAD 2.2SE, San Diego, CA06, -117.321, 33.143, 22, M, 7.07
DESCANSO 0.3 WNW, San Diego, CA06, -116.621, 32.854, 3442, M, 2.13
OAK RUN 0.2 SE, Shasta, CA02, -122.024, 40.685, 1632, M, 5.95
PASO ROBLES 1.8 WSW, San Luis Obispo, CA04, -120.693, 35.622, 767, M, 1.04
TRINITY CENTER 0.2 ENE, Trinity, CA01, -122.704, 40.986, 2481, M, 10.24
TEHACHAPI 2.2 W, Kern, CA05, -118.480, 35.132, 3945, M, 8.90
DIAMOND BAR 1.9 NNE, Los Angeles, CA06, -117.796, 34.023, 935, M, 9.33
MARIPOSA 12.5 E, Mariposa, CA05, -119.740, 37.462, 2940, M, 9.04
SAN DIEGO 7.6 NNW, San Diego, CA06, -117.188, 32.916, 383, M, 6.15
CHULA VISTA 3.1SE, San Diego, CA06, -117.051, 32.604, 200, M, 3.46