Name, County, ClimateDivision, Longitude, Latitude, Elevation, MeanAvgTemperature, TotalPrecipitation
IMPERIAL, Imperial, CA07, -115.567, 32.849, -64, 54.7, 1.07
EL CAPITAN DAM, San Diego, CA06, -116.815, 32.886, 600, 48.3, 5.04
LAKESIDE 2 E, San Diego, CA06, -116.895, 32.854, 690, M, 4.46
POWAY VALLEY, San Diego, CA06, -117.031, 33.020, 648, 52.2, 3.69
JULIAN CDF, San Diego, CA06, -116.592, 33.076, 4215, 41.8, 6.53
CARLSBAD MCCLELLAN PALOMAR AP, San Diego, CA06, -117.277, 33.130, 313, 55.3, 3.12
HENSHAW DAM, San Diego, CA06, -116.761, 33.237, 2700, 41.2, 7.70
VISTA, San Diego, CA06, -117.232, 33.235, 430, 53.9, 2.52
OCEANSIDE MARINA, San Diego, CA06, -117.395, 33.210, 10, 52.0, 1.73
NILAND, Imperial, CA07, -115.524, 33.278, -60, M, 0.70
BORREGO DESERT PARK, San Diego, CA07, -116.404, 33.256, 810, 54.3, 1.88
PALOMAR MTN OBSERVATORY, San Diego, CA06, -116.840, 33.378, 5550, 39.9, 7.67
MECCA FIRE STATION, Riverside, CA07, -116.073, 33.570, -183, 56.4, 0.95
LAGUNA BEACH, Orange, CA06, -117.781, 33.545, 44, M, 1.37
BLYTHE ASOS, Riverside, CA07, -114.715, 33.619, 395, 54.7, 1.17
DESERT RESORTS REGIONAL AP, Riverside, CA07, -116.164, 33.632, -118, 53.4, 0.92
BARSTOW-DAGGETT AIRPORT, San Bernardino, CA07, -116.787, 34.854, 1919, 48.9, 0.32
MERCED, Merced, CA05, -120.516, 37.289, 154, 48.2, 1.87
SAN DIEGO MONTGOMERY FIELD, San Diego, CA06, -117.137, 32.815, 418, 53.8, 3.47
SAN DIEGO INTERNATIONAL AP, San Diego, CA06, -117.183, 32.734, 15, 57.6, 2.10
SAN DIEGO MIRAMAR NAS, San Diego, CA06, -117.133, 32.867, 477, 53.4, 3.18
NORTH ISLAND NAS, San Diego, CA06, -117.210, 32.692, 14, 58.6, 1.92
SAN FRANCISCO INTERNATIONAL AP, San Mateo, CA04, -122.366, 37.620, 10, 50.6, 4.79
SAN LUIS OBISPO MCCHESNEY FIELD, San Luis Obispo, CA04, -120.644, 35.238, 183, 51.1, 2.86
CEDARVILLE, Modoc, CA03, -120.179, 41.530, 4688, 31.5, 1.16
CHICO UNIVERSITY FARM, Butte, CA02, -121.821, 39.691, 185, 49.0, 3.67
CHULA VISTA, San Diego, CA06, -117.086, 32.640, 56, 55.3, 2.05
COLFAX, Placer, CA02, -120.947, 39.090, 2373, 44.6, 4.22
CUYAMACA, San Diego, CA06, -116.587, 32.990, 4640, 38.6, 8.46
DAVIS 2 WSW EXP FARM, Yolo, CA02, -121.776, 38.535, 60, 48.1, 3.47
DEATH VALLEY NATIONAL PARK, Inyo, CA07, -116.867, 36.463, -194, 57.7, 0.14
FAIRMONT, Los Angeles, CA07, -118.430, 34.705, 3060, 43.3, 3.68
FORT BRAGG 5 N, Mendocino, CA01, -123.756, 39.510, 123, 44.1, 4.40
HANFORD 1 S, Kings, CA05, -119.637, 36.316, 237, 47.5, 1.53
HAPPY CAMP RANGER STATION, Siskiyou, CA01, -123.375, 41.796, 1142, 40.1, 4.95
HEALDSBURG, Sonoma, CA01, -122.866, 38.629, 177, 47.2, 6.27
INDIO FIRE STATION, Riverside, CA07, -116.215, 33.709, -21, 57.7, 0.72
LEMON COVE, Tulare, CA05, -119.026, 36.382, 513, 49.6, 1.31
LIVERMORE, Alameda, CA04, -121.751, 37.682, 529, 48.8, 2.69
LODI, San Joaquin, CA05, -121.288, 38.106, 40, 49.5, 3.81
MERCED MUNICIPAL AP, Merced, CA05, -120.518, 37.286, 152, 47.6, 1.94
NAPA STATE HOSPITAL, Napa, CA01, -122.265, 38.278, 35, 50.1, 4.02
OJAI, Ventura, CA06, -119.227, 34.448, 745, 48.1, 4.09
ORLAND, Glenn, CA02, -122.200, 39.746, 254, 49.3, 2.50
ORLEANS, Humboldt, CA01, -123.532, 41.309, 403, 43.5, 4.64
PASADENA, Los Angeles, CA06, -118.145, 34.148, 864, 55.0, 4.35
PASO ROBLES, San Luis Obispo, CA04, -120.685, 35.628, 730, 47.1, 3.05
PETALUMA AIRPORT, Sonoma, CA01, -122.608, 38.258, 20, 47.5, 3.89
QUINCY, Plumas, CA02, -120.947, 39.937, 3420, 35.3, 9.11
REDLANDS, San Bernardino, CA06, -117.195, 34.037, 1410, 51.6, 2.82
SANTA BARBARA, Santa Barbara, CA06, -119.684, 34.417, 16, 56.5, 3.98
SANTA CRUZ, Santa Cruz, CA04, -122.000, 36.988, 70, 50.0, 5.75
SANTA ROSA, Sonoma, CA01, -122.713, 38.456, 166, 47.6, 5.71
TAHOE CITY, Placer, CA03, -120.143, 39.168, 6230, 27.3, 6.55
UKIAH, Mendocino, CA01, -123.210, 39.147, 636, 45.9, 4.94
WASCO, Kern, CA05, -119.352, 35.589, 291, 50.7, 0.31
WEAVERVILLE, Trinity, CA01, -122.940, 40.737, 2058, 40.2, 3.01
WILLOWS 6 W, Glenn, CA02, -122.305, 39.523, 234, 49.8, 1.61
YOSEMITE PARK HEADQUARTERS, Mariposa, CA05, -119.590, 37.750, 4018, 37.0, 7.61
YREKA, Siskiyou, CA01, -122.641, 41.703, 2709, 35.9, 1.19
BERKELEY, Alameda, CA04, -122.260, 37.874, 310, 50.8, 6.30
BLYTHE, Riverside, CA07, -114.597, 33.613, 268, 54.4, 1.31
EUREKA WFO WOODLEY ISLAND, Humboldt, CA01, -124.160, 40.810, 20, 45.0, 3.62
INDEPENDENCE, Inyo, CA07, -118.204, 36.798, 3950, 44.0, 0.39
SAN LUIS OBISPO POLY, San Luis Obispo, CA04, -120.662, 35.306, 308, 51.6, 0.96
BURNEY, Shasta, CA02, -121.655, 40.880, 3198, 32.4, 5.79
IMPERIAL BEACH REAM FIELD NAS, San Diego, CA06, -117.117, 32.568, 24, 52.8, 0.12
CAMPO, San Diego, CA06, -116.470, 32.626, 2630, 45.5, 6.05
EL CENTRO 2 SSW, Imperial, CA07, -115.562, 32.767, -30, 56.8, 0.78
IMPERIAL COUNTY AP, Imperial, CA07, -115.577, 32.835, -55, 55.2, 0.64
EL CENTRO NAF, Imperial, CA07, -115.664, 32.832, -46, 55.1, 0.78
ALPINE, San Diego, CA06, -116.777, 32.836, 1695, 50.5, 4.74
DEEP CANYON LAB, Riverside, CA07, -116.376, 33.651, 1200, M, 1.07
ELSINORE, Riverside, CA06, -117.346, 33.686, 1268, 52.3, 3.07
SANTA ANA JOHN WAYNE AP, Orange, CA06, -117.867, 33.680, 43, 55.3, 1.84
HAYFIELD PUMPING PLANT, Riverside, CA07, -115.629, 33.704, 1370, 52.4, 0.81
IDYLLWILD FIRE DEPT, Riverside, CA06, -116.707, 33.757, 5380, 37.9, 6.79
SAN JACINTO, Riverside, CA06, -116.975, 33.797, 1525, 49.8, 2.21
HEMET, Riverside, CA06, -116.894, 33.738, 1811, 51.7, 0.20
SANTA ANA FIRE STATION, Orange, CA06, -117.867, 33.744, 135, 57.4, 1.91
EAGLE MOUNTAIN, Riverside, CA07, -115.451, 33.809, 973, 54.3, 0.62
PALM SPRINGS, Riverside, CA07, -116.510, 33.828, 425, 57.5, 0.01
LONG BEACH DAUGHERTY AP, Los Angeles, CA06, -118.147, 33.812, 34, 54.9, 1.60
PALOS VERDES ES FC43D, Los Angeles, CA06, -118.391, 33.800, 220, M, 1.54
FULLERTON MUNICIPAL AP, Orange, CA06, -117.986, 33.872, 86, 54.7, 1.67
BEAUMONT #2, Riverside, CA07, -116.990, 33.926, 2591, M, 0.84
MARCH AFB, Riverside, CA06, -117.250, 33.900, 1536, 47.7, 2.60
DOWNEY FIRE DEPT. FC107C, Los Angeles, CA06, -118.145, 33.930, 110, M, 0.59
HAWTHORNE MUNICIPAL AP, Los Angeles, CA06, -118.333, 33.924, 55, 55.8, 1.69
LOS ANGELES INTL AP, Los Angeles, CA06, -118.387, 33.938, 97, 55.3, 1.47
RIVERSIDE FIRE STATION 3, Riverside, CA06, -117.388, 33.951, 840, 54.9, 2.14
RIVERSIDE MUNICIPAL AP, Riverside, CA06, -117.435, 33.953, 845, 53.3, 1.93
CHINO AP, San Bernardino, CA06, -117.625, 33.976, 636, 51.2, 1.63
WHITTIER CITY YARD FC106C, Los Angeles, CA06, -118.022, 33.976, 446, M, 2.34
MONTEBELLO, Los Angeles, CA06, -118.105, 34.019, 246, 57.1, M
CULVER CITY, Los Angeles, CA06, -118.414, 34.005, 92, 52.6, 2.14
SANTA MONICA MUNICIPAL AP, Los Angeles, CA06, -118.447, 34.021, 175, 53.7, 2.37
SANTA MONICA PIER, Los Angeles, CA06, -118.500, 34.008, 14, M, 0.11
ONTARIO INTL AP, San Bernardino, CA06, -117.577, 34.053, 924, 52.8, 3.02
POMONA/FAIRPLEX, Los Angeles, CA06, -117.766, 34.082, 999, 52.4, 0.53
COVINA CITY YARD FC387B, Los Angeles, CA06, -117.880, 34.092, 607, M, 2.85
U C L A, Los Angeles, CA06, -118.443, 34.070, 430, 55.9, 3.26
TOPANGA PATROL FC-6, Los Angeles, CA06, -118.599, 34.084, 745, M, 5.74
IRON MOUNTAIN, San Bernardino, CA07, -115.122, 34.147, 922, 56.8, 0.44
TWENTYNINE PALMS, San Bernardino, CA07, -116.037, 34.128, 1975, 51.6, 0.00
JOSHUA TREE, San Bernardino, CA07, -116.275, 34.147, 2563, 46.9, 0.57
SAN DIMAS FIRE FC 95, Los Angeles, CA06, -117.802, 34.105, 958, M, 4.06
GLENDORA FC 287B, Los Angeles, CA06, -117.847, 34.147, 933, M, 4.45
SAN GABRIEL FIRE DEPT, Los Angeles, CA06, -118.100, 34.084, 363, M, 3.05
POINT MUGU NF, Ventura, CA06, -119.123, 34.124, 12, 51.1, 1.50
ALTADENA, Los Angeles, CA06, -118.138, 34.182, 1127, M, 5.47
SAN GABRIEL CANYON PH, Los Angeles, CA06, -117.908, 34.155, 744, M, 4.98
WOODLAND HILLS PIERCE COLLEGE, Los Angeles, CA06, -118.574, 34.182, 790, 50.5, 2.42
SAN GABRIEL DAM FC425B-E, Los Angeles, CA06, -117.861, 34.205, 1481, M, 7.60
MT WILSON CBS, Los Angeles, CA06, -118.071, 34.231, 5710, 42.7, 4.94
LA CRESCENTA FC251 C, Los Angeles, CA06, -118.238, 34.222, 1545, M, 5.85
VAN NUYS AP, Los Angeles, CA06, -118.491, 34.212, 785, 52.6, 2.77
CAMARILLO AP, Ventura, CA06, -119.088, 34.211, 71, 52.6, 2.22
OXNARD VENTURA COUNTY AP, Ventura, CA06, -119.204, 34.200, 39, 55.4, 1.81
PARKER RESRVOIR, San Bernardino, CA07, -114.171, 34.290, 738, 55.1, 1.57
TWENTYNINE PALMS MC, San Bernardino, CA07, -116.147, 34.294, 2003, M, 0.48
BIG BEAR LAKE, San Bernardino, CA06, -116.917, 34.243, 6753, 32.6, 4.39
LAKE ARROWHEAD, San Bernardino, CA07, -117.188, 34.247, 5205, M, 0.00
CHATSWORTH FC 24 F, Los Angeles, CA06, -118.600, 34.250, 950, M, 0.81
CRYSTAL LAKE FC238C, Los Angeles, CA06, -117.842, 34.318, 5345, M, 6.55
PACOIMA DAM FC33A-E, Los Angeles, CA06, -118.400, 34.329, 1550, M, 4.08
PIRU 2 ESE, Ventura, CA06, -118.757, 34.406, 712, M, 2.99
SANTA BARBARA MUNI AP, Santa Barbara, CA06, -119.842, 34.424, 8, 50.4, 3.80
JUNCAL DAM, Santa Barbara, CA06, -119.507, 34.491, 2260, M, 5.09
VICTORVILLE, San Bernardino, CA07, -117.293, 34.529, 2880, 44.6, 1.19
ACTON ESCONDIDO FC261, Los Angeles, CA06, -118.271, 34.494, 2833, M, 2.30
GIBRALTAR DAM NO. 2, Santa Barbara, CA06, -119.682, 34.523, 1558, M, 4.81
AMBOY, San Bernardino, CA07, -115.744, 34.559, 648, 54.3, 0.14
PALMDALE, Los Angeles, CA07, -118.094, 34.588, 2612, 46.0, 1.24
SAUGUS POWER PLANT 1, Los Angeles, CA06, -118.454, 34.590, 2161, M, 4.64
LOS PRIETOS RS, Santa Barbara, CA06, -119.791, 34.544, 1024, M, 4.10
CACHUMA LAKE, Santa Barbara, CA06, -119.982, 34.582, 789, 50.1, 3.36
SALSIPUEDES GAGING STATION, Santa Barbara, CA06, -120.408, 34.585, 254, M, 5.19
PALMDALE AP, Los Angeles, CA07, -118.083, 34.629, 2509, 44.6, 0.69
LOMPOC, Santa Barbara, CA06, -120.451, 34.654, 75, 51.4, 3.30
LANCASTER, Los Angeles, CA06, -118.213, 34.741, 2338, 44.1, 1.32
SANDBERG, Los Angeles, CA06, -118.724, 34.744, 4510, 40.3, 1.41
LEBEC, Kern, CA05, -118.865, 34.833, 3575, 41.1, 0.00
MITCHELL CAVERNS, San Bernardino, CA07, -115.547, 34.944, 4350, 44.6, 0.64
NEW CUYAMA FIRE STATION, Santa Barbara, CA06, -119.683, 34.946, 2160, 44.1, 0.59
TWITCHELL DAM, Santa Barbara, CA06, -120.321, 34.988, 582, 53.0, 4.01
TEHACHAPI AP, Kern, CA05, -118.432, 35.131, 3960, 39.9, 1.41
PISMO BEACH, San Luis Obispo, CA04, -120.683, 35.160, 39, 51.4, 1.37
TAFT, Kern, CA05, -119.430, 35.150, 773, 47.0, 0.22
BAKER, San Bernardino, CA07, -116.063, 35.276, 962, 50.7, 0.21
SALINAS DAM, San Luis Obispo, CA04, -120.504, 35.337, 1392, 45.2, 5.16
RANDSBURG, Kern, CA07, -117.652, 35.369, 3570, 44.3, 0.40
SANTA MARGARITA BOOST, San Luis Obispo, CA04, -120.637, 35.374, 1148, 48.1, 7.18
MORRO BAY FIRE DEPT, San Luis Obispo, CA04, -120.845, 35.367, 118, 52.2, 2.38
BAKERSFIELD AP, Kern, CA05, -119.055, 35.434, 490, 49.8, 0.49
BUTTONWILLOW, Kern, CA05, -119.470, 35.403, 225, 48.7, 0.21
GLENNVILLE, Kern, CA05, -118.701, 35.727, 3140, 39.9, 2.13
TRONA, San Bernardino, CA07, -117.391, 35.764, 1695, 48.5, 0.32
DELANO, Kern, CA05, -119.260, 35.768, 302, 48.9, 0.20
BRADLEY TELEMETERING, Monterey, CA04, -120.868, 35.930, 443, M, 2.96
PORTERVILLE MUNICIPAL AIRPORT, Tulare, CA05, -119.062, 36.029, 442, 47.7, 0.75
KETTLEMAN CITY, Kings, CA05, -119.960, 36.007, 240, 47.7, 0.12
HAIWEE, Inyo, CA07, -117.953, 36.139, 3825, 46.6, 1.03
CORCORAN IRRIGATION DIST., Kings, CA05, -119.582, 36.098, 200, 47.7, 0.86
COALINGA, Fresno, CA05, -120.361, 36.136, 670, 48.9, 0.14
PRIEST VALLEY, Monterey, CA04, -120.695, 36.188, 2300, 41.8, 6.56
KING CITY, Monterey, CA04, -121.138, 36.207, 320, 50.4, 3.77
LINDSAY, Tulare, CA05, -119.054, 36.203, 435, 47.6, 1.83
BIG SUR STATION, Monterey, CA04, -121.780, 36.247, 200, 48.8, 7.27
VISALIA, Tulare, CA05, -119.300, 36.328, 303, 49.1, 0.95
FIVE POINTS 5 SSW, Fresno, CA05, -120.156, 36.364, 285, 49.0, 0.99
SAN CLEMENTE DAM, Monterey, CA04, -121.709, 36.438, 600, M, 5.31
ASH MOUNTAIN, Tulare, CA05, -118.825, 36.491, 1708, 45.5, 4.67
THREE RIVERS EDISON PH 1, Tulare, CA05, -118.862, 36.465, 1140, 45.9, 3.11
PINNACLES NATIONAL PARK, San Benito, CA04, -121.182, 36.482, 1307, 45.1, 4.11
CARMEL VALLEY, Monterey, CA04, -121.724, 36.481, 480, 49.3, 4.22
LODGEPOLE, Tulare, CA05, -118.732, 36.604, 6735, 25.5, 8.48
PANOCHE 2 W, San Benito, CA05, -120.884, 36.607, 1400, M, 2.99
MONTEREY, Monterey, CA04, -121.855, 36.593, 122, 50.8, 4.82
SALINAS NO. 2, Monterey, CA04, -121.666, 36.659, 45, 50.4, 3.43
SALINAS AP, Monterey, CA04, -121.609, 36.664, 73, 50.5, 2.91
GRANT GROVE, Tulare, CA05, -118.962, 36.738, 6580, 31.0, 7.54
PINE FLAT DAM, Fresno, CA05, -119.337, 36.821, 615, 48.5, 2.72
LOS BANOS ARBURUA RANCH, Merced, CA05, -120.939, 36.875, 843, M, 1.76
HOLLISTER 2, San Benito, CA04, -121.421, 36.848, 275, 48.2, 2.88
BALCH POWER HOUSE, Fresno, CA05, -119.088, 36.909, 1735, 45.8, 3.09
WATSONVILLE WATERWORKS, Santa Cruz, CA04, -121.769, 36.931, 95, 49.7, 4.65
FRIANT GOVERNMENT CAMP, Fresno, CA05, -119.707, 36.997, 410, 47.1, 2.06
MADERA, Madera, CA05, -120.038, 36.954, 270, 47.9, 1.50
WISHON DAM, Fresno, CA05, -118.984, 37.007, 6550, 34.5, 7.25
GILROY, Santa Clara, CA04, -121.561, 37.003, 194, 50.2, 5.55
AUBERRY 2 NW, Fresno, CA05, -119.513, 37.092, 2090, 45.1, 4.67
LOS BANOS, Merced, CA05, -120.867, 37.056, 120, 49.7, 1.53
BEN LOMOND NO. 4, Santa Cruz, CA04, -122.080, 37.086, 420, 48.5, 11.39
MORGAN HILL, Santa Clara, CA04, -121.602, 37.136, 375, M, M
HUNTINGTON LAKE, Fresno, CA05, -119.221, 37.228, 7020, M, 7.02
NORTH FORK RS, Madera, CA05, -119.510, 37.233, 2645, 42.5, 0.77
LOS GATOS, Santa Clara, CA04, -121.959, 37.232, 365, 48.9, 4.33
NEWMAN, Stanislaus, CA05, -121.018, 37.281, 90, 50.7, 2.11
MOUNT HAMILTON, Santa Clara, CA04, -121.635, 37.343, 4220, 39.7, 5.13
BISHOP AIRPORT, Inyo, CA07, -118.359, 37.371, 4110, 40.4, 0.94
MOFFETT FEDERAL AIRFIELD, Santa Clara, CA04, -122.048, 37.406, 39, 51.1, 2.70
TURLOCK #2, Stanislaus, CA05, -120.846, 37.502, 103, 48.4, 2.26
PALO ALTO, Santa Clara, CA04, -122.140, 37.444, 25, 47.6, 4.36
REDWOOD CITY, San Mateo, CA04, -122.239, 37.477, 31, 49.5, 4.36
HALF MOON BAY, San Mateo, CA04, -122.443, 37.473, 27, 49.3, 4.01
SO ENTRANCE YOSEMITE N.P., Mariposa, CA05, -119.633, 37.512, 5047, 32.4, 5.52
MARIPOSA R S, Mariposa, CA05, -119.986, 37.495, 2100, M, 5.49
NEWARK, Alameda, CA04, -122.032, 37.515, 10, 50.6, 2.49
EXCHEQUER DAM, Mariposa, CA05, -120.267, 37.585, 442, M, 3.83
MODESTO AP, Stanislaus, CA05, -120.955, 37.625, 87, 48.3, 2.45
HAYWARD AIR TERMINAL, Alameda, CA04, -122.121, 37.659, 31, 50.9, 2.85
TRACY CARBONA, San Joaquin, CA05, -121.347, 37.682, 135, 45.8, 2.38
LIVERMORE MUNICIPAL AP, Alameda, CA04, -121.815, 37.693, 393, 48.1, 2.56
OAKLAND INTERNATIONAL AIRPORT, Alameda, CA04, -122.233, 37.718, 5, 50.0, 3.75
UPPER SAN LEANDRO FILTERS, Alameda, CA04, -122.167, 37.772, 394, M, 4.66
SAN FRANCISCO DOWNTOWN, San Francisco, CA04, -122.427, 37.771, 150, 52.0, 4.94
SAN FRANCISCO OCEANSIDE, San Francisco, CA04, -122.505, 37.728, 8, 50.5, 4.38
GROVELAND 2, Tuolumne, CA05, -120.226, 37.844, 2800, 39.9, 5.99
TRACY PUMPING PLANT, Alameda, CA05, -121.583, 37.796, 61, 50.1, 2.34
OAKLAND MUSEUM, Alameda, CA04, -122.264, 37.798, 30, 52.0, 4.73
MATHER, Tuolumne, CA05, -119.856, 37.885, 4510, M, 7.25
MOUNT DIABLO JUNCTION, Contra Costa, CA04, -121.930, 37.879, 2170, 46.0, 4.77
STOCKTON AP, San Joaquin, CA05, -121.226, 37.890, 27, 47.5, 2.38
RICHMOND, Contra Costa, CA04, -122.377, 37.919, 20, 52.1, 5.08
MUIR WOODS, Marin, CA01, -122.569, 37.898, 220, M, 5.57
HETCH HETCHY, Tuolumne, CA05, -119.783, 37.961, 3870, 38.4, 5.54
CHERRY VALLEY DAM, Tuolumne, CA05, -119.916, 37.975, 4765, 36.5, 8.78
SONORA, Tuolumne, CA05, -120.387, 37.967, 1675, 42.2, 5.66
STOCKTON FIRE STA 4, San Joaquin, CA05, -121.318, 37.999, 12, 50.1, 3.09
ANTIOCH PUMPING PLANT #3, Contra Costa, CA05, -121.752, 37.983, 60, 51.9, M
CONCORD BUCHANAN FIELD, Contra Costa, CA04, -122.053, 37.992, 23, 49.0, 3.64
CONCORD WASTEWATER PLANT, Contra Costa, CA04, -122.069, 37.983, 40, 50.4, 4.02
SAN RAFAEL-CIVIC CENTER, Marin, CA01, -122.537, 37.998, 120, 48.8, 6.63
KENTFIELD, Marin, CA01, -122.545, 37.957, 145, 48.7, 7.31
MARTINEZ WATER PLANT, Contra Costa, CA04, -122.114, 38.013, 40, 46.7, 4.63
BODIE CALIFORNIA STATE HISTORIC PARK, Mono, CA03, -119.014, 38.212, 8370, 21.3, 1.50
ACAMPO 5NE, San Joaquin, CA05, -121.201, 38.218, 87, M, 3.56
NAPA COUNTY AIRPORT, Napa, CA04, -122.280, 38.208, 16, 47.3, 3.85
BRIDGEPORT, Mono, CA03, -119.229, 38.258, 6470, 21.4, 1.65
CALAVERAS BIG TREES, Calaveras, CA05, -120.311, 38.277, 4695, 34.0, 14.08
CAMP PARDEE, Calaveras, CA05, -120.843, 38.249, 658, 47.8, 4.70
TRAVIS FIELD AFB, Solano, CA02, -121.933, 38.267, 62, M, 3.42
FAIRFIELD, Solano, CA02, -122.068, 38.274, 40, 48.5, 4.26
SONOMA, Sonoma, CA01, -122.462, 38.299, 97, 48.1, 4.29
SUTTER HILL CDF, Amador, CA05, -120.801, 38.377, 1586, 49.7, 5.23
WEST POINT, Calaveras, CA05, -120.545, 38.378, 2775, M, 6.27
ATLAS ROAD BROWN, Napa, CA01, -122.248, 38.427, 1680, M, 8.35
GRATON, Sonoma, CA01, -122.865, 38.431, 200, 48.1, 6.45
OCCIDENTAL, Sonoma, CA01, -122.966, 38.386, 865, 49.0, 7.75
FIDDLETOWN DEXTER RCH, Amador, CA05, -120.698, 38.525, 2170, M, 6.35
SACRAMENTO AP ASOS, Sacramento, CA02, -121.496, 38.507, 19, 48.2, 3.39
WINTERS, Yolo, CA02, -121.978, 38.525, 135, 50.1, 4.44
LAKE SOLANO, Solano, CA02, -122.004, 38.492, 187, 47.6, 6.19
SAINT HELENA, Napa, CA01, -122.471, 38.507, 225, 49.5, 7.24
SAINT HELENA 4 WSW, Napa, CA01, -122.538, 38.493, 1780, M, 7.47
FORT ROSS, Sonoma, CA01, -123.245, 38.515, 112, 47.5, 4.51
SACRAMENTO 5 ESE, Sacramento, CA02, -121.418, 38.555, 38, 49.7, 3.88
ANGWIN PACIFIC UNION COLLEGE, Napa, CA01, -122.440, 38.573, 1715, 45.7, 7.18
CALISTOGA, Napa, CA01, -122.578, 38.577, 350, 47.1, 7.76
VENADO, Sonoma, CA01, -123.018, 38.609, 1260, M, 7.56
WOODLAND 1 WNW, Yolo, CA02, -121.794, 38.683, 67, 49.4, 3.97
REPRESA, Sacramento, CA02, -121.161, 38.694, 295, M, 5.99
SACRAMENTO METROPOLITAN AP, Sacramento, CA02, -121.595, 38.701, 24, 47.5, 3.74
PACIFIC HOUSE, El Dorado, CA02, -120.503, 38.758, 3450, 37.2, 8.81
MIDDLETOWN, Lake, CA02, -122.626, 38.748, 1121, M, 8.57
CLOVERDALE, Sonoma, CA01, -123.026, 38.793, 400, 48.2, 5.91
KELSEY 1 N, El Dorado, CA02, -120.821, 38.809, 2000, M, 5.93
SOUTH LAKE TAHOE AP, El Dorado, CA03, -119.996, 38.898, 6257, 27.3, 2.32
GEORGETOWN RS, El Dorado, CA02, -120.801, 38.933, 3001, 41.3, 5.57
AUBURN, Placer, CA02, -121.084, 38.907, 1292, 45.7, 6.32
NICOLAUS #2, Sutter, CA02, -121.545, 38.926, 43, M, 3.67
YORKVILLE, Mendocino, CA01, -123.231, 38.905, 1100, M, 6.72
CLEARLAKE 4 SE, Lake, CA02, -122.567, 38.924, 1349, 45.2, 5.53
FORESTHILL RANGER STATION, Placer, CA02, -120.845, 39.010, 3015, M, 7.30
MARYSVILLE AIRPORT (ASOS), Yuba, CA02, -121.569, 39.102, 62, 48.2, 3.93
UKIAH MUNICIPAL AP, Mendocino, CA01, -123.200, 39.128, 603, 45.8, 4.48
UKIAH 4 WSW, Mendocino, CA01, -123.272, 39.127, 1328, M, 6.05
GOLD RUN 4 SW, Placer, CA02, -120.900, 39.150, 3220, M, 5.26
WILLIAMS, Colusa, CA02, -122.150, 39.150, 85, M, 6.86
GRASS VALLEY NO. 2, Nevada, CA02, -121.068, 39.204, 2400, 41.2, 7.02
HARRY L. ENGLEBRIGHT DAM, Nevada, CA02, -121.267, 39.237, 800, M, 7.09
COLUSA 2 SSW, Colusa, CA02, -122.027, 39.188, 50, 47.9, 2.21
BLUE CANYON NYACK AP, Placer, CA02, -120.709, 39.276, 5286, 35.5, 5.30
NEVADA CITY, Nevada, CA02, -121.001, 39.247, 2781, 40.6, 7.04
TRUCKEE AIRPORT, Nevada, CA03, -120.139, 39.320, 5900, 23.7, 3.86
TRUCKEE RS, Nevada, CA03, -120.173, 39.333, 5823, M, 0.00
DONNER MEMORIAL ST PARK, Nevada, CA03, -120.233, 39.324, 5937, 28.1, 5.56
COLGATE POWERHOUSE, Yuba, CA02, -121.192, 39.331, 595, M, 6.28
MOULTON WEIR, Colusa, CA02, -122.017, 39.333, 76, M, 0.80
BOCA, Nevada, CA03, -120.094, 39.389, 5575, 25.7, 5.07
POTTER VALLEY POWERHOUSE, Mendocino, CA01, -123.129, 39.362, 1018, 45.4, 7.22
FARAD, Nevada, CA03, -120.033, 39.428, 5153, M, 3.14
WILLITS 1 NE, Mendocino, CA01, -123.342, 39.419, 1353, 41.4, 6.32
BOWMAN DAM, Nevada, CA02, -120.656, 39.454, 5385, 34.7, 12.96
OROVILLE, Butte, CA02, -121.553, 39.518, 171, 45.3, 4.84
OROVILLE MUNICIPAL AP, Butte, CA02, -121.622, 39.494, 187, 48.1, 4.13
SIERRAVILLE RS, Sierra, CA02, -120.370, 39.583, 4975, 28.3, 3.50
DOWNIEVILLE, Sierra, CA02, -120.824, 39.563, 2915, 38.2, 10.20
STRAWBERRY VALLEY, Yuba, CA02, -121.108, 39.563, 3808, 37.6, 13.10
STONY GORGE RESERVOIR, Glenn, CA02, -122.534, 39.586, 800, 45.2, 1.99
BRUSH CREEK RANGER STATION, Butte, CA02, -121.345, 39.695, 3560, M, 14.02
PARADISE, Butte, CA02, -121.624, 39.754, 1750, 46.2, 8.98
COVELO, Mendocino, CA01, -123.244, 39.816, 1413, 41.6, 3.90
VINTON, Plumas, CA02, -120.186, 39.806, 4950, 30.7, 3.31
PORTOLA, Plumas, CA02, -120.472, 39.805, 4850, 30.4, 4.72
DE SABLA, Butte, CA02, -121.611, 39.872, 2710, 41.7, 12.72
LEGGETT, Mendocino, CA01, -123.720, 39.874, 703, M, 8.56
BUCKS CREEK, Plumas, CA02, -121.315, 39.937, 1891, M, 9.81
DOYLE 4 SSE, Lassen, CA03, -120.083, 39.972, 4390, 33.4, 0.87
DOYLE, Lassen, CA03, -120.105, 40.027, 4293, M, 2.08
RICHARDSON GR ST PK, Humboldt, CA01, -123.793, 40.026, 503, 42.8, 9.33
CANYON DAM, Plumas, CA02, -121.089, 40.171, 4560, 32.3, 7.77
MIRANDA 4 SE, Humboldt, CA01, -123.776, 40.182, 266, M, 5.84
FORT SEWARD, Humboldt, CA01, -123.632, 40.218, 220, M, 6.36
HONEYDEW 1 SW, Humboldt, CA01, -124.132, 40.238, 373, M, 12.10
CHESTER, Plumas, CA02, -121.242, 40.303, 4530, 31.8, 5.34
MINERAL, Tehama, CA02, -121.609, 40.346, 4875, 32.5, 8.28
COLEMAN FISHERIES STATION, Shasta, CA02, -122.143, 40.400, 420, M, 4.99
VOLTA PH, Shasta, CA02, -121.866, 40.458, 2220, M, 4.20
GRIZZLY CREEK STATE PARK, Humboldt, CA01, -123.909, 40.486, 413, M, 5.21
SCOTIA, Humboldt, CA01, -124.104, 40.483, 136, 47.3, 5.70
MANZANITA LAKE, Shasta, CA02, -121.577, 40.541, 5750, 28.8, 3.44
WHISKEYTOWN RESERVOIR, Shasta, CA02, -122.528, 40.612, 1295, 45.6, 6.73
SHASTA DAM, Shasta, CA02, -122.416, 40.714, 1075, 47.7, 6.24
TRINITY RIVER HATCHERY, Trinity, CA01, -122.795, 40.726, 1861, 41.2, 2.49
BIG BAR 4 E, Trinity, CA01, -123.208, 40.741, 1253, 43.4, 3.08
BUCKHORN, Shasta, CA02, -121.932, 40.880, 3700, M, 10.61
HAT CREEK, Shasta, CA02, -121.543, 40.932, 3015, 34.2, 3.23
PIT RIVER PH 5, Shasta, CA02, -121.977, 40.987, 1458, M, 12.28
WILLOW CREEK 1 NW, Humboldt, CA01, -123.636, 40.947, 464, 42.4, 4.80
FALL RIVER MILLS, Shasta, CA02, -121.435, 41.008, 3300, M, 2.92
ADIN RANGER STATION, Modoc, CA02, -120.945, 41.193, 4202, M, 1.44
DUNSMUIR TREATMENT PL, Siskiyou, CA02, -122.282, 41.183, 2169, 40.0, 8.03
JESS VALLEY, Modoc, CA02, -120.295, 41.268, 5400, 30.1, 1.59
MCCLOUD, Siskiyou, CA02, -122.138, 41.252, 3233, 34.7, 6.37
ORICK, Humboldt, CA01, -124.067, 41.283, 5, M, 5.08
CALLAHAN, Siskiyou, CA01, -122.825, 41.338, 3085, 36.4, 1.06
SAWYERS BAR RS, Siskiyou, CA01, -123.133, 41.301, 2255, 40.4, 2.98
ORLEANS RS, Humboldt, CA01, -123.534, 41.303, 433, M, 4.44
ORICK PRAIRIE CREEK PARK, Humboldt, CA01, -124.019, 41.362, 160, 42.8, 5.31
ALTURAS, Modoc, CA02, -120.544, 41.490, 4378, 30.9, 0.69
FORT JONES RS, Siskiyou, CA01, -122.848, 41.601, 2729, 35.1, 1.25
LAVA BEDS NAT MON, Siskiyou, CA01, -121.501, 41.702, 4770, 31.8, 2.51
MOUNT HEBRON RS, Siskiyou, CA01, -122.045, 41.783, 4265, 32.4, 0.87
CRESCENT CITY 3 NNW, Del Norte, CA01, -124.215, 41.796, 43, 46.2, 6.14
CRESCENT CITY MCNAMARA AP, Del Norte, CA01, -124.238, 41.784, 56, 45.3, 5.31
OAK KNOLL W. C., Siskiyou, CA01, -122.850, 41.839, 1980, M, 1.06
FORT BIDWELL, Modoc, CA03, -120.157, 41.872, 4739, 31.4, 1.29
GASQUET RS, Del Norte, CA01, -123.965, 41.845, 387, M, 9.53
FORT DICK RIVER, Del Norte, CA01, -124.135, 41.881, -, M, 8.04
TULELAKE, Siskiyou, CA01, -121.474, 41.960, 4038, 31.0, 1.12
COPCO NO 1 DAM, Siskiyou, CA01, -122.338, 41.980, 2665, 36.5, 3.11
ELK VALLEY, Del Norte, CA01, -123.718, 41.988, 1708, M, 5.62
PACIFICA 4 SSE, San Mateo, CA04, -122.472, 37.592, 475, 49.6, 5.86
BARSTOW, San Bernardino, CA07, -117.022, 34.893, 2220, 46.6, 0.52
PEARBLOSSOM, Los Angeles, CA07, -117.897, 34.503, 3101, 46.4, 1.18
EL CAJON, San Diego, CA06, -116.928, 32.801, 495, 53.2, 3.80
MARKLEY COVE, Napa, CA02, -122.124, 38.492, 480, 47.6, 6.54
LORAINE 5 NNE, Kern, CA05, -118.412, 35.384, 4235, 39.6, 0.54
LEMON GROVE FIRE DEPARTMENT, San Diego, CA06, -117.030, 32.738, 427, 53.6, 1.41
SPRING VALLEY FIRE DEPT, San Diego, CA06, -117.006, 32.710, 270, 52.8, M
SANTEE FIRE DEPT, San Diego, CA06, -116.973, 32.841, 340, M, 1.43
LEE VINING, Mono, CA07, -119.119, 37.957, 6797, 29.7, 2.48
ANAHEIM, Orange, CA06, -117.842, 33.865, 235, 56.7, 2.10
RED BLUFF TREATMENT PLANT, Tehama, CA02, -122.220, 40.162, 265, M, 2.57
NEW MELONES DAM HQ, Tuolumne, CA05, -120.486, 38.005, 960, 47.3, 4.92
MAMMOTH LAKES RS, Mono, CA07, -118.962, 37.648, 7804, 23.0, 3.15
FRAZIER PARK 9 SW, Ventura, CA05, -119.104, 34.733, 5169, M, 1.52
MONTEREY WFO, Monterey, CA04, -121.855, 36.593, 122, 49.9, 4.52
FREMONT, Alameda, CA04, -122.016, 37.542, 38, 50.3, 2.13
MAD RIVER 12 SE, Trinity, CA01, -123.374, 40.319, 2763, M, 7.33
NEWHALL 5NW, Los Angeles, CA06, -118.594, 34.393, 1765, 50.6, 3.27
TEHACHAPI 4 SE, Kern, CA05, -118.422, 35.101, 4220, 38.0, 0.99
WRIGHTWOOD, San Bernardino, CA07, -117.639, 34.362, 6000, M, 4.28
REDDING CDF, Shasta, CA02, -122.299, 40.519, 502, M, 4.10
NORTHRIDGE CAL STATE, Los Angeles, CA06, -118.525, 34.245, 904, M, 3.23
OXNARD WFO, Ventura, CA06, -119.137, 34.207, 52, M, 2.31
HANFORD MUNICIPAL AP, Kings, CA05, -119.623, 36.311, 249, 47.1, 0.96
RAMONA AIRPORT, San Diego, CA06, -116.916, 33.038, 1385, 47.7, 4.81
VACAVILLE/NUT TREE AP ASOS, Solano, CA02, -121.959, 38.378, 104, 48.3, 4.74
ALTURAS MUNICIPAL AP, Modoc, CA02, -120.561, 41.484, 4383, 29.7, 0.73
MADERA MUNICIPAL AP, Madera, CA05, -120.111, 36.985, 251, 47.6, 1.44
BAKERSFIELD 5 NW, Kern, CA05, -119.051, 35.419, 470, 49.3, 0.54
FRESNO 5 NE, Fresno, CA05, -119.709, 36.767, 338, 50.3, 0.41
OCEANSIDE MUNICIPAL AP, San Diego, CA06, -117.350, 33.219, 30, 51.6, 3.26
SAN DIEGO SEAWORLD, San Diego, CA06, -117.231, 32.765, 14, M, 6.14
ARCATA EUREKA AP, Humboldt, CA01, -124.105, 40.978, 211, 44.1, 4.66
CHICO ARMY FLYING SCH, Butte, CA02, -121.850, 39.800, 272, 48.5, 4.23
NEWPORT BEACH HARBOR, Orange, CA06, -117.884, 33.603, 10, 55.1, 1.01
ESCONDIDO NO. 2, San Diego, CA06, -117.090, 33.121, 600, 54.0, 2.91
REDDING AP, Shasta, CA02, -122.298, 40.515, 501, 47.7, 4.36
AVALON CATALINA AP, Los Angeles, CA06, -118.415, 33.404, 1565, 51.0, 2.16
SANTA MARIA PUBLIC AP, Santa Barbara, CA06, -120.452, 34.894, 243, 49.8, 3.00
MOUNT SHASTA, Siskiyou, CA02, -122.333, 41.333, 3535, 35.5, 4.84
RED BLUFF MUNI AP, Tehama, CA02, -122.255, 40.152, 354, 48.8, 2.03
NEEDLES AIRPORT, San Bernardino, CA07, -114.618, 34.768, 888, 54.8, 0.72
CHINA LAKE NAF, Kern, CA07, -117.693, 35.688, 2230, 45.9, 0.34
SUSANVILLE 2SW, Lassen, CA03, -120.663, 40.417, 4212, 32.5, 2.46
TEJON RANCHO, Kern, CA05, -118.750, 35.023, 1425, 49.0, 1.22
BURBANK GLENDALE PASADENA AP, Los Angeles, CA06, -118.365, 34.200, 731, 52.7, 2.89
TOLLHOUSE 2.8 SSE, Fresno, CA05, -119.396, 36.978, 2111, M, 5.07
ARCATA 2.1 NNW, Humboldt, CA01, -124.095, 40.896, 32, M, 3.30
MONTEREY 1.5 WSW, Monterey, CA04, -121.905, 36.590, 235, M, 4.69
MORGAN HILL 2.7 S, Santa Clara, CA04, -121.632, 37.092, 338, M, 6.11
SAN JOSE 5.8 NNE, Santa Clara, CA04, -121.824, 37.386, 293, M, 1.16
ENCINITAS 2.7N, San Diego, CA06, -117.292, 33.076, 188, M, 2.91
CARLSBAD 8.7SE, San Diego, CA06, -117.221, 33.095, 605, M, 1.52
MOUNT SHASTA, Siskiyou, CA02, -122.317, 41.322, 3613, 36.6, 6.80
WATSONVILLE MUNICIPAL AIRPORT, Santa Cruz, CA04, -121.790, 36.939, 162, 49.7, 2.47
SANTA ROSA SONOMA CO AP, Sonoma, CA04, -122.811, 38.504, 119, 48.0, 5.88
TWENTYNINE PALMS 12E - WONDER VALLEY, San Bernardino, CA07, -115.850, 34.121, 1376, 51.6, 0.27
MORONGO VALLEY NORTH, San Bernardino, CA07, -116.562, 34.086, 3145, 46.9, 3.23
AMBOY ROAD EAST, San Bernardino, CA06, -115.804, 34.161, 1272, 49.0, 0.17
NILAND 4NE, Imperial, CA07, -115.477, 33.272, 75, 56.9, 0.76
SHAFTER 6E, Kern, CA05, -119.146, 35.487, 404, 48.3, 0.48
TRUCKEE-TAHOE AP, Nevada, CA03, -120.145, 39.318, 5900, 23.8, 6.04
HEARST CASTLE, San Luis Obispo, CA04, -121.168, 35.684, 1526, 49.6, 5.87
GETTY CENTER, Los Angeles, CA06, -118.479, 34.087, 1117, 54.0, 3.59
HESPERIA 2E, San Bernardino, CA07, -117.266, 34.421, 3055, 44.3, 1.50
RANCHO BERNARDO, San Diego, CA06, -117.081, 33.022, 690, 53.0, 4.40
SAN JUAN CANYON, Orange, CA06, -117.552, 33.532, 375, 50.8, 3.32
APPLE VALLEY #2, San Bernardino, CA07, -117.279, 34.536, 2780, M, 0.94
OCOTILLO WELLS 2W, San Diego, CA07, -116.169, 33.155, 390, 58.1, 1.21
IRVINE RANCH, Orange, CA06, -117.723, 33.720, 540, 55.3, 1.40
MT. LAGUNA #3, San Diego, CA07, -116.419, 32.867, 5920, 36.2, 9.58
AVALON INLAND, Los Angeles, CA06, -118.330, 33.338, 90, 48.9, 1.45
DESERT CENTER 2 NNE, Riverside, CA07, -115.392, 33.738, 747, 57.2, 0.60
TORRANCE AP, Los Angeles, CA06, -118.342, 33.802, 90, 54.6, 1.72
MERCED 23 WSW, Merced, CA05, -120.882, 37.238, 78, 46.4, 1.79
REDDING 12 WNW, Shasta, CA02, -122.607, 40.651, 1418, 45.2, 7.93
STOVEPIPE WELLS 1 SW, Inyo, CA07, -117.145, 36.602, 84, 57.0, 0.00
LOS ANGELES DOWNTOWN/USC, Los Angeles, CA06, -118.291, 34.024, 179, 55.6, 3.29
FRESNO YOSEMITE INT'L, Fresno, CA05, -119.720, 36.780, 334, 49.1, 1.60
MONTEREY PENINSUL AP, Monterey, CA04, -121.849, 36.590, 160, 51.4, 4.24
PASO ROBLES MUNICIPAL AP, San Luis Obispo, CA04, -120.629, 35.669, 820, 47.5, 2.51
MONTAGUE SISKIYOU AIRPORT, Siskiyou, CA01, -122.468, 41.774, 2645, 36.5, 0.55
SAN JOSE, Santa Clara, CA04, -121.924, 37.359, 49, 50.7, 3.15
PALM SPRINGS ASOS, Riverside, CA07, -116.504, 33.822, 409, 56.3, 1.33
FILLMORE 2 W, Ventura, CA06, -118.945, 34.409, 495, M, 3.97
SAN DIEGO BROWN FIELD, San Diego, CA06, -116.994, 32.576, 521, 52.3, 3.00
Bakersfield Area, -, -, -, -, -, 49.8, 0.49
Bishop Area, -, -, -, -, -, 40.4, 0.94
Los Angeles Downtown Area, -, -, -, -, -, 55.6, 3.29
Eureka Area, -, -, -, -, -, 45.0, 3.62
Fresno Area, -, -, -, -, -, 49.1, 1.60
Los Angeles Airport Area, -, -, -, -, -, 55.3, 1.47
Long Beach Area, -, -, -, -, -, 54.9, 1.60
Redding Area, -, -, -, -, -, 47.7, 4.36
Sacramento Area, -, -, -, -, -, 48.2, 3.39
San Diego Area, -, -, -, -, -, 57.6, 2.10
Stockton Area, -, -, -, -, -, 47.5, 2.38
San Francisco Airport Area, -, -, -, -, -, 50.6, 4.79
Santa Maria Area, -, -, -, -, -, 49.8, 3.00
CAMP PENDLETON MCAS, San Diego, CA06, -117.355, 33.304, 70, 49.4, 0.33
LEMOORE REEVES NAS, Fresno, CA05, -119.950, 36.333, 232, 47.1, 1.07
MOUNTAIN PASS 1SE, San Bernardino, CA07, -115.531, 35.459, 4777, 37.1, 1.10
ARVIN, Kern, CA05, -118.834, 35.211, 450, 49.0, 0.00
CHIRIACO SUMMIT, Riverside, CA07, -115.721, 33.662, 1706, 50.6, 0.84
EDWARDS AFB NORTH AUXILIARY AIRFIELD, Kern, CA07, -117.865, 34.988, 2283, 41.8, 0.87
FALLBROOK 5 NE, San Diego, CA06, -117.190, 33.439, 1140, 53.6, 3.65
SANTA BARBARA 11 W, Santa Barbara, CA06, -119.880, 34.414, 18, 50.1, 3.94
BODEGA 6 WSW, Sonoma, CA01, -123.075, 38.321, 63, 47.3, 4.95
YOSEMITE VILLAGE 12 W, Mariposa, CA05, -119.821, 37.759, 6620, 32.4, 5.89
YUCCA MESA, San Bernardino, CA07, -116.407, 34.218, 3445, 46.8, 1.89
YUCCA VALLEY, San Bernardino, CA07, -116.388, 34.129, 3249, 45.6, 2.10
JOHNSON VALLEY, San Bernardino, CA07, -116.538, 34.359, 3167, 45.5, 0.70
REDONDO BEACH, Los Angeles, CA06, -118.376, 33.834, 142, M, 1.33
BURBANK VALLEY PUMP PLANT, Los Angeles, CA06, -118.348, 34.187, 655, 51.9, 3.47
PIEDMONT 1.0 SE, Alameda, CA04, -122.216, 37.812, 372, M, 5.34
CASTRO VALLEY 0.5 WSW, Alameda, CA04, -122.069, 37.708, 287, M, 4.24
CASTRO VALLEY 0.4 NNE, Alameda, CA04, -122.059, 37.717, 536, M, 4.17
PLEASANTON 1.8 SSE, Alameda, CA04, -121.875, 37.648, 351, M, 4.46
FREMONT 2.6 ESE, Alameda, CA04, -121.952, 37.515, 30, M, 3.08
BERKELEY 3.8 ESE, Alameda, CA04, -122.230, 37.856, 882, M, 4.81
PLEASANTON 0.4 ESE, Alameda, CA04, -121.881, 37.670, 344, M, 4.58
VOLCANO 5.4 NE, Amador, CA05, -120.560, 38.497, 3488, M, 6.38
VOLCANO 6.4 NE, Amador, CA05, -120.536, 38.499, 3659, M, 5.79
OROVILLE 2.7 ENE, Butte, CA02, -121.518, 39.514, 535, M, 5.49
CHICO 2.8 ESE, Butte, CA02, -121.760, 39.734, 375, M, 4.39
MARTINEZ 0.8 SSE, Contra Costa, CA04, -122.108, 37.990, 252, M, 5.69
PLEASANT HILL 1.2 ESE, Contra Costa, CA04, -122.054, 37.949, 57, M, 2.36
WALNUT CREEK 1.7 SSE, Contra Costa, CA04, -122.034, 37.878, 243, M, 5.43
LAFAYETTE 0.7 E, Contra Costa, CA04, -122.104, 37.894, 248, M, 6.81
CROCKETT 0.7 WNW, Contra Costa, CA04, -122.233, 38.054, 213, M, T
LAFAYETTE 1.9 WSW, Contra Costa, CA04, -122.153, 37.888, 518, M, 7.44
MARTINEZ 2.2 SW, Contra Costa, CA04, -122.138, 37.974, 692, M, 6.03
ANTIOCH 2.2 WSW, Contra Costa, CA05, -121.838, 37.979, 178, M, 3.38
ALAMO 1.0 WSW, Contra Costa, CA04, -122.016, 37.854, 331, M, 4.91
CONCORD 0.8 WNW, Contra Costa, CA04, -122.013, 37.978, 124, M, 3.70
WALNUT CREEK 1.4 SSE, Contra Costa, CA04, -122.028, 37.885, 277, M, 4.99
WALNUT CREEK 1.4 NE, Contra Costa, CA04, -122.023, 37.916, 156, M, 2.25
ANTIOCH 2.2 SSE, Contra Costa, CA05, -121.781, 37.959, 245, M, 0.62
WALLACE 0.3 NE, Calaveras, CA05, -120.973, 38.197, 298, M, 4.16
CRESCENT CITY 5.5 NNE, Del Norte, CA01, -124.148, 41.824, 65, M, 6.62
SMITH RIVER 0.2 NW, Del Norte, CA01, -124.150, 41.929, 68, M, 0.08
DIAMOND SPRINGS 0.1 W, El Dorado, CA05, -120.824, 38.686, 1778, M, 5.32
PLACERVILLE 2.9 WNW, El Dorado, CA02, -120.840, 38.753, 1800, M, 7.96
PLACERVILLE 3.7 SW, El Dorado, CA02, -120.849, 38.695, 1755, M, 6.76
CAMERON PARK 0.9 SE, El Dorado, CA05, -120.976, 38.672, 1414, M, 4.76
FAIR PLAY 2.8 ESE, El Dorado, CA05, -120.609, 38.592, 3390, M, 5.03
PLACERVILLE 0.9 NE, El Dorado, CA02, -120.785, 38.739, 2036, M, 6.66
CLOVIS 2.9 N, Fresno, CA05, -119.693, 36.861, 382, M, 1.82
TOLLHOUSE 2.0 SSE, Fresno, CA05, -119.397, 36.990, 1673, M, 4.99
TOLLHOUSE 6.2 SSE, Fresno, CA05, -119.359, 36.934, 1397, M, 4.81
SANGER 6.8 N, Fresno, CA05, -119.553, 36.798, 418, M, 1.69
FRESNO 4.3 NNW, Fresno, CA05, -119.829, 36.836, 333, M, 1.43
HELM 2.7 NNE, Fresno, CA05, -120.089, 36.570, 183, M, 1.47
ARCATA 1.1 NE, Humboldt, CA01, -124.069, 40.881, 420, M, 4.12
BAYSIDE 1.8 SE, Humboldt, CA01, -124.038, 40.825, 77, M, 4.92
ORICK 5.9 SSW, Humboldt, CA01, -124.103, 41.208, 567, M, 5.88
MCKINLEYVILLE 2.7 SE, Humboldt, CA01, -124.084, 40.923, 325, M, 4.25
MCKINLEYVILLE 7.3 ESE, Humboldt, CA01, -123.998, 40.896, 366, M, 5.27
TRINIDAD 1.5 NNW, Humboldt, CA01, -124.152, 41.078, 201, M, 5.25
HONEYDEW 3.1 WNW, Humboldt, CA01, -124.182, 40.252, 316, M, 10.92
MCKINLEYVILLE 2.3 NE, Humboldt, CA01, -124.086, 40.978, 270, M, 5.43
REDWAY 4.3 W, Humboldt, CA01, -123.901, 40.108, 612, M, 8.20
FORTUNA 1.5 NW, Humboldt, CA01, -124.161, 40.600, 98, M, 4.03
REDWAY 4.8 WNW, Humboldt, CA01, -123.906, 40.139, 1820, M, 5.33
MIRANDA 4.1 SW, Humboldt, CA01, -123.894, 40.209, 539, M, 7.97
BAYVIEW 0.8 SE, Humboldt, CA01, -124.166, 40.756, 176, M, 3.82
ARCATA 1.1 NW, Humboldt, CA01, -124.097, 40.877, 17, M, 3.97
FORTUNA 1.3 S, Humboldt, CA01, -124.136, 40.567, 195, M, 1.21
ARCATA 1.4 NNE, Humboldt, CA01, -124.072, 40.887, 289, M, 4.01
WILLOW CREEK 4.5 NNE, Humboldt, CA01, -123.624, 40.939, 655, M, 4.61
EUREKA 0.4 NW, Humboldt, CA01, -124.162, 40.800, 61, M, 0.85
ARCATA 1.0 NW, Humboldt, CA01, -124.096, 40.876, 15, M, 4.07
BRIDGEVILLE 5.2 ENE, Humboldt, CA01, -123.701, 40.473, 2675, M, 10.94
FORTUNA 0.1 NW, Humboldt, CA01, -124.141, 40.587, 65, M, 4.58
GARBERVILLE 2.2 SW, Humboldt, CA01, -123.824, 40.077, 415, M, 7.50
GARBERVILLE 2.9 SW, Humboldt, CA01, -123.830, 40.068, 389, M, 7.51
KNEELAND 4.8 WNW, Humboldt, CA01, -124.080, 40.790, 106, M, 4.80
EUREKA 2.2 S, Humboldt, CA01, -124.148, 40.764, 194, M, 4.29
SHELTER COVE 1.2 ENE, Humboldt, CA01, -124.052, 40.037, 1107, M, 10.50
BISHOP 0.6 SE, Inyo, CA07, -118.388, 37.363, 4140, M, 0.85
BISHOP 8.5 WSW, Inyo, CA07, -118.540, 37.323, 6002, M, 0.52
BISHOP 1.7 NW, Inyo, CA07, -118.414, 37.388, 4181, M, 0.59
LEMOORE 0.9 ESE, Kings, CA05, -119.772, 36.293, 223, M, 0.97
LEMOORE 0.3 SW, Kings, CA05, -119.791, 36.295, 223, M, 0.97
HANFORD 3.6 N, Kings, CA05, -119.653, 36.377, 258, M, 1.37
HANFORD 1.7 WNW, Kings, CA05, -119.674, 36.335, 245, M, 1.19
INYOKERN 9.4 WSW, Kern, CA07, -117.978, 35.635, 4319, M, 1.16
FRAZIER PARK 0.6 WNW, Kern, CA05, -118.955, 34.827, 5023, M, 1.56
PINE MOUNTAIN CLUB 0.9 SSW, Kern, CA05, -119.163, 34.835, 6017, M, 1.80
PINE MOUNTAIN CLUB 1.4 ENE, Kern, CA05, -119.133, 34.850, 5269, M, 2.08
ONYX 2.8 ENE, Kern, CA05, -118.174, 35.702, 3039, M, 1.31
GLENDALE 2.4 WSW, Los Angeles, CA06, -118.295, 34.169, 511, M, 4.11
TORRANCE 2.8 SW, Los Angeles, CA06, -118.337, 33.790, 200, M, 1.63
ALTADENA 0.7 ESE, Los Angeles, CA06, -118.124, 34.187, 1323, M, 5.60
WOODLAND HILLS 2.6 WNW, Los Angeles, CA06, -118.650, 34.181, 894, M, 3.12
MONTE NIDO 0.2 SSW, Los Angeles, CA06, -118.687, 34.079, 682, M, 4.38
SHERMAN OAKS 1.7 ENE, Los Angeles, CA06, -118.420, 34.154, 638, M, 3.68
WHITTIER 2.9 WNW, Los Angeles, CA06, -118.066, 33.986, 171, M, 2.21
REDONDO BEACH 2.6 S, Los Angeles, CA06, -118.377, 33.819, 117, M, 1.44
WINNETKA 0.7 SSE, Los Angeles, CA06, -118.568, 34.203, 768, M, 2.59
SOUTH GATE 1.1 WNW, Los Angeles, CA06, -118.209, 33.951, 108, M, 1.84
CANYON COUNTRY 2.6 E, Los Angeles, CA06, -118.427, 34.427, 1617, M, 2.29
ARCADIA 2.1 NNE, Los Angeles, CA06, -118.028, 34.162, 652, M, 4.16
LAKEPORT 4.5 N, Lake, CA02, -122.909, 39.107, 1437, M, 0.01
LAKEPORT 2.5 N, Lake, CA02, -122.917, 39.079, 1370, M, 3.89
MIDDLETOWN 3.3 SSE, Lake, CA02, -122.603, 38.706, 1273, M, 8.60
LOWER LAKE 4.0 SE, Lake, CA02, -122.564, 38.865, 1585, M, 6.84
SUSANVILLE 3.2 SSW, Lassen, CA03, -120.674, 40.368, 4353, M, 4.31
OAKHURST 7.5 N, Madera, CA05, -119.632, 37.442, 4274, M, 8.31
UKIAH 8.4 NW, Mendocino, CA01, -123.331, 39.221, 2492, M, 5.76
BOONVILLE 2.2 WSW, Mendocino, CA01, -123.408, 39.006, 1061, M, 5.06
ELK 1.8 NNE, Mendocino, CA01, -123.706, 39.105, 147, M, 2.45
POINT ARENA 5.5 ESE, Mendocino, CA01, -123.600, 38.875, 973, M, 7.36
UKIAH 1.2 NW, Mendocino, CA01, -123.225, 39.158, 746, M, 5.77
UKIAH 0.6 ESE, Mendocino, CA01, -123.199, 39.141, 601, M, 4.50
HOPLAND 2.4 WNW, Mendocino, CA01, -123.158, 38.984, 574, M, 5.97
WILLITS 6.0 WSW, Mendocino, CA01, -123.450, 39.370, 1873, M, 7.58
REDWOOD VALLEY 1.3 WNW, Mendocino, CA01, -123.227, 39.272, 810, M, 5.11
REDWOOD VALLEY 1.5 ENE, Mendocino, CA01, -123.178, 39.272, 912, M, 4.41
UKIAH 4.3 S, Mendocino, CA01, -123.219, 39.083, 691, M, 5.19
LAYTONVILLE 1.1 SW, Mendocino, CA01, -123.490, 39.672, 1647, M, 6.83
POINT ARENA 4.8 ESE, Mendocino, CA01, -123.610, 38.883, 1048, M, 6.85
LEE VINING 5.9 NW, Mono, CA03, -119.170, 38.034, 7094, M, 2.55
MARIPOSA 3.7 NNW, Mariposa, CA05, -119.988, 37.540, 2942, M, 6.19
MARIPOSA 12.5 E, Mariposa, CA05, -119.742, 37.461, 2952, M, 7.66
LA GRANGE 7.8 ESE, Mariposa, CA05, -120.327, 37.635, 1114, M, 3.88
CATHEYS VALLEY 1.2 S, Mariposa, CA05, -120.100, 37.415, 1172, M, 4.12
NOVATO 1.1 SSW, Marin, CA01, -122.564, 38.077, 296, M, 4.62
WOODACRE 0.6 SW, Marin, CA01, -122.635, 38.005, 439, M, 8.17
SAN ANSELMO 1.2 NNW, Marin, CA01, -122.580, 37.997, 370, M, 7.19
NOVATO 4.8 WNW, Marin, CA01, -122.644, 38.106, 246, M, 6.06
SAN ANSELMO 0.4 NE, Marin, CA01, -122.564, 37.987, 107, M, 7.68
IGNACIO 0.6 SW, Marin, CA01, -122.546, 38.065, 57, M, 4.83
NOVATO 1.4 WNW, Marin, CA01, -122.580, 38.102, 23, M, 4.85
PETALUMA 10.1 W, Marin, CA01, -122.812, 38.248, 119, M, 4.88
DILLON BEACH 0.3 NNE, Marin, CA01, -122.963, 38.256, 366, M, 6.01
TOMALES 1.3 ENE, Marin, CA01, -122.883, 38.251, 128, M, 3.13
SAN RAFAEL 3.9 NW, Marin, CA01, -122.547, 38.027, 72, M, 6.42
MILL VALLEY 1.5 S, Marin, CA01, -122.544, 37.886, 209, M, 6.24
CARMEL VALLEY VILLAGE 0.8 SSW, Monterey, CA04, -121.728, 36.476, 359, M, 4.57
LOCKWOOD 3.6 NW, Monterey, CA04, -121.117, 35.981, 1181, M, 5.46
KING CITY 13.2 S, Monterey, CA04, -121.174, 36.025, 1104, M, 6.20
CASTROVILLE 1.6 ENE, Monterey, CA04, -121.728, 36.776, 18, M, 3.55
MONTEREY 1.5 ESE, Monterey, CA04, -121.856, 36.594, 108, M, 4.47
KING CITY 2.0 SSW, Monterey, CA04, -121.146, 36.187, 371, M, 3.86
PACIFIC GROVE 1.5 SSW, Monterey, CA04, -121.932, 36.602, 280, M, 4.52
BIG SUR 4.0 SE, Monterey, CA04, -121.763, 36.224, 824, M, 3.86
BIG SUR 3.2 SE, Monterey, CA04, -121.769, 36.236, 739, M, 5.07
AROMAS 2.0 SSW, Monterey, CA04, -121.650, 36.850, 344, M, 4.65
CARMEL VALLEY VILLAGE 0.7 SSE, Monterey, CA04, -121.720, 36.476, 446, M, 4.03
CASTROVILLE 1.6 ENE, Monterey, CA04, -121.727, 36.777, 17, M, 3.34
MARINA 0.8 SSE, Monterey, CA04, -121.784, 36.673, 118, M, 3.58
CARMEL VALLEY VILLAGE 5.4 WNW, Monterey, CA04, -121.810, 36.522, 133, M, 5.60
BIG SUR 9.5 NNW, Monterey, CA04, -121.869, 36.398, 1100, M, 9.03
SALINAS 5.9 SSW, Monterey, CA04, -121.671, 36.604, 361, M, 2.94
CALISTOGA 0.4 SSE, Napa, CA01, -122.578, 38.576, 348, M, 7.20
NAPA 2.0 WNW, Napa, CA01, -122.331, 38.313, 136, M, 4.17
ST. HELENA 1.1 S, Napa, CA01, -122.462, 38.489, 248, M, 6.64
AMERICAN CANYON 0.3 S, Napa, CA01, -122.260, 38.169, 37, M, 2.96
NEVADA CITY 3.4 NNW, Nevada, CA02, -121.040, 39.307, 2390, M, 8.73
KINGVALE 1.3 WSW, Nevada, CA02, -120.452, 39.317, 6035, M, 10.22
GRASS VALLEY 5.5 ESE, Nevada, CA02, -120.963, 39.190, 2763, M, 6.52
GRASS VALLEY 5.0 S, Nevada, CA02, -121.042, 39.149, 2312, M, 10.87
ALTA SIERRA 1.3 S, Nevada, CA02, -121.057, 39.104, 2154, M, 1.58
LAKE OF THE PINES 1.0 WSW, Nevada, CA02, -121.077, 39.032, 1576, M, 6.37
ALTA SIERRA 0.4 WSW, Nevada, CA02, -121.060, 39.120, 2303, M, 5.88
LAKE OF THE PINES 1.3 NNW, Nevada, CA02, -121.070, 39.056, 1528, M, 6.55
GRASS VALLEY 5.7 S, Nevada, CA02, -121.055, 39.139, 2169, M, 5.60
NEVADA CITY 5.4 W, Nevada, CA02, -121.121, 39.268, 1982, M, 7.03
ALTA SIERRA 1.4 SSW, Nevada, CA02, -121.058, 39.103, 2057, M, 5.60
GRASS VALLEY 2.4 S, Nevada, CA02, -121.057, 39.187, 2331, M, 7.11
LAKE OF THE PINES 4.7 WNW, Nevada, CA02, -121.146, 39.054, 1480, M, 5.13
ORANGE 3.5 ENE, Orange, CA06, -117.770, 33.829, 811, M, 1.42
LAGUNA NIGUEL 0.9 W, Orange, CA06, -117.720, 33.528, 477, M, 3.42
SILVERADO 1.0 ESE, Orange, CA06, -117.620, 33.746, 1394, M, 4.36
LAGUNA BEACH 3.2 SSE, Orange, CA06, -117.739, 33.498, 194, M, 1.68
LAGUNA NIGUEL 1.8 SW, Orange, CA06, -117.728, 33.509, 856, M, 0.30
PLACENTIA 2.1 ESE, Orange, CA06, -117.822, 33.868, 256, M, 0.00
NEWPORT BEACH 3.1 ESE, Orange, CA06, -117.865, 33.589, 84, M, 1.58
MISSION VIEJO 1.6 ENE, Orange, CA06, -117.627, 33.624, 1018, M, 3.16
MISSION VIEJO 1.3 SSE, Orange, CA06, -117.644, 33.595, 704, M, 2.95
SAN CLEMENTE 2.2 W, Orange, CA06, -117.649, 33.447, 132, M, 1.33
ANAHEIM 4.9 ENE, Orange, CA06, -117.792, 33.863, 298, M, 2.09
SODA SPRINGS 1.5 SSW, Placer, CA02, -120.384, 39.302, 6887, M, 10.30
LINCOLN 0.9 SSW, Placer, CA02, -121.322, 38.888, 131, M, 2.05
ROSEVILLE 4.7 WNW, Placer, CA02, -121.377, 38.780, 96, M, 3.72
PENRYN 0.4 SE, Placer, CA02, -121.158, 38.847, 610, M, 5.89
COLFAX 3.1 SW, Placer, CA02, -120.991, 39.061, 2077, M, 8.43
AUBURN 3.1 N, Placer, CA02, -121.068, 38.936, 1528, M, 7.01
NEWCASTLE 1.6 SSE, Placer, CA02, -121.123, 38.851, 800, M, 5.76
LINCOLN 4.3 SSE, Placer, CA02, -121.284, 38.842, 172, M, 4.03
IDYLLWILD 1.8 NW, Riverside, CA06, -116.735, 33.763, 6325, M, 6.35
DESERT HOT SPRINGS 3.0 NW, Riverside, CA07, -116.541, 33.985, 1339, M, 2.80
HEMET 4.1 ENE, Riverside, CA06, -116.920, 33.753, 1698, M, 3.28
CORONA 12.8 SE, Riverside, CA06, -117.428, 33.731, 1404, M, 3.81
HOMELAND 1.7 NNE, Riverside, CA06, -117.092, 33.769, 2248, M, 0.06
LAKE ELSINORE 3.5 WSW, Riverside, CA06, -117.381, 33.657, 1356, M, 3.88
NORCO 1.2 S, Riverside, CA06, -117.548, 33.908, 661, M, 1.74
PERRIS 8.5 WNW, Riverside, CA06, -117.365, 33.826, 1639, M, 2.67
BEAUMONT 2.5 NW, Riverside, CA06, -117.012, 33.954, 2532, M, 4.51
RIVERSIDE 3.8 NW, Riverside, CA06, -117.454, 33.979, 841, M, 2.21
NORCO 2.3 SE, Riverside, CA06, -117.518, 33.906, 1091, M, 1.71
RIVERSIDE 2.6 E, Riverside, CA06, -117.353, 33.935, 1301, M, 2.28
CARMICHAEL 1.6 SW, Sacramento, CA02, -121.340, 38.617, 102, M, 2.42
SACRAMENTO 8.0 NE, Sacramento, CA02, -121.361, 38.635, 95, M, 4.11
FOLSOM 3.4 ESE, Sacramento, CA05, -121.091, 38.655, 594, M, 5.08
CARMICHAEL 0.9 NE, Sacramento, CA02, -121.306, 38.643, 130, M, 4.24
CARMICHAEL 1.4 W, Sacramento, CA02, -121.345, 38.638, 109, M, 4.18
FOLSOM 1.2 SSE, Sacramento, CA02, -121.140, 38.660, 362, M, 5.26
CARMICHAEL 0.9 S, Sacramento, CA02, -121.319, 38.621, 108, M, 1.99
FOLSOM 2.4 SW, Sacramento, CA02, -121.176, 38.651, 194, M, 4.57
SACRAMENTO 13.7 SE, Sacramento, CA05, -121.283, 38.456, 97, M, 3.93
SACRAMENTO 2.0 SE, Sacramento, CA02, -121.437, 38.550, 34, M, 4.22
SACRAMENTO 4.1 NE, Sacramento, CA02, -121.412, 38.609, 46, M, 3.93
SACRAMENTO 5.7 SSE, Sacramento, CA02, -121.419, 38.493, 28, M, 3.10
NORTH HIGHLANDS 3.0 SSW, Sacramento, CA02, -121.394, 38.626, 66, M, 3.92
FOLSOM 0.6 NE, Sacramento, CA02, -121.138, 38.682, 399, M, 5.19
LA RIVIERA 1.0 NE, Sacramento, CA02, -121.340, 38.575, 64, M, 4.07
GOLETA 3.7 WNW, Santa Barbara, CA06, -119.896, 34.440, 158, M, 4.20
SANTA BARBARA 1.9 NE, Santa Barbara, CA06, -119.700, 34.450, 811, M, 2.00
MOUNTAIN VIEW 1.2 S, Santa Clara, CA04, -122.075, 37.385, 109, M, 3.26
SUNNYVALE 1.9 SE, Santa Clara, CA04, -122.004, 37.365, 85, M, 3.22
SAN JOSE 5.4 SW, Santa Clara, CA04, -121.775, 37.305, 223, M, 4.10
MONTE SERENO 0.4 SSW, Santa Clara, CA04, -121.990, 37.232, 467, M, 7.67
SAN JOSE 4.6 NE, Santa Clara, CA04, -121.795, 37.354, 318, M, 3.44
LOS ALTOS 0.6 NNW, Santa Clara, CA04, -122.100, 37.378, 156, M, 3.83
SAN JOSE 2.7 SSW, Santa Clara, CA04, -121.876, 37.271, 162, M, 3.48
CAMBRIAN PARK 2.2 SE, Santa Clara, CA04, -121.897, 37.234, 252, M, 4.74
SAN JOSE 3.5 ENE, Santa Clara, CA04, -121.789, 37.319, 200, M, 3.60
SAN JOSE 2.3 SSW, Santa Clara, CA04, -121.866, 37.273, 161, M, 3.67
SARATOGA 0.5 N, Santa Clara, CA04, -122.023, 37.275, 373, M, 6.06
PALO ALTO 1.2 NE, Santa Clara, CA04, -122.149, 37.452, 32, M, 3.43
SAN JOSE 3.0 WSW, Santa Clara, CA04, -121.927, 37.309, 159, M, 3.49
LOS GATOS 6.1 S, Santa Clara, CA04, -121.972, 37.143, 1732, M, 9.92
PALO ALTO 0.8 NNE, Santa Clara, CA04, -122.135, 37.410, 60, M, 3.49
SAN JOSE 6.2 W, Santa Clara, CA04, -121.961, 37.319, 139, M, 3.50
SANTA CLARA 3.1 ESE, Santa Clara, CA04, -121.911, 37.356, 61, M, 2.98
LOS GATOS 5.4 SSW, Santa Clara, CA04, -121.988, 37.156, 1662, M, 9.43
SAN MARCOS 2.5 ENE, San Diego, CA06, -117.132, 33.147, 666, M, 3.80
IMPERIAL BEACH 3.3 E, San Diego, CA06, -117.062, 32.574, 138, M, 2.51
OCEANSIDE 8.4NE, San Diego, CA06, -117.266, 33.270, 252, M, 3.76
EL CAJON 2.3ENE, San Diego, CA06, -116.925, 32.811, 610, M, 4.00
ENCINITAS 3.34ENE, San Diego, CA06, -117.237, 33.050, 193, M, 3.28
ESCONDIDO 5.2NNW, San Diego, CA06, -117.128, 33.185, 1474, M, 3.25
EL CAJON 1.5WSW, San Diego, CA06, -116.987, 32.791, 727, M, 3.62
ESCONDIDO 2.5 SSE, San Diego, CA06, -117.048, 33.106, 690, M, 3.84
POWAY 3.2NE, San Diego, CA06, -117.004, 32.996, 1206, M, 4.06
JAMUL 9.9ESE, San Diego, CA06, -116.706, 32.680, 2737, M, 6.19
BORREGO SPRINGS 2.4 WSW, San Diego, CA07, -116.390, 33.223, 777, M, 2.17
LA JOLLA 2.5SE, San Diego, CA06, -117.240, 32.825, 508, M, 1.46
CHULA VISTA 6.3E, San Diego, CA06, -116.975, 32.638, 555, M, 3.30
OCEANSIDE 5.6NE, San Diego, CA06, -117.313, 33.254, 60, M, 3.13
POWAY 1.4SW, San Diego, CA06, -117.059, 32.949, 444, M, 3.57
CARDIFF BY THE SEA 0.2 E, San Diego, CA06, -117.271, 33.027, 266, M, 2.76
CHULA VISTA 2.5SE, San Diego, CA06, -117.052, 32.617, 266, M, 2.41
PAUMA VALLEY 1.7 SE, San Diego, CA06, -116.957, 33.290, 1132, M, 4.23
FALLBROOK 6.5 NE, San Diego, CA06, -117.160, 33.436, 1377, M, 4.38
SAN DIEGO 3.5NE, San Diego, CA06, -117.110, 32.747, 344, M, 3.41
SANTEE 1.8NW, San Diego, CA06, -116.996, 32.856, 470, M, 3.90
SAN DIEGO 7.9NE, San Diego, CA06, -117.073, 32.806, 242, M, 3.57
LA JOLLA 2.1 SE, San Diego, CA06, -117.250, 32.826, 491, M, 2.53
SAN DIEGO 3.2 WNW, San Diego, CA06, -117.186, 32.835, 374, M, 2.98
RANCHO BERNARDO 0.5SE, San Diego, CA06, -117.067, 33.018, 483, M, 3.92
EL CAJON 0.7 S, San Diego, CA06, -116.959, 32.792, 444, M, 3.64
LA JOLLA 2.2 NE, San Diego, CA06, -117.248, 32.870, 371, M, 2.37
LEMON GROVE 1.8 WNW, San Diego, CA06, -117.060, 32.747, 466, M, 3.38
VISTA 1.5NNW, San Diego, CA06, -117.254, 33.219, 417, M, 3.47
EL CAJON 2.3 S, San Diego, CA06, -116.959, 32.770, 738, M, 3.79
SAN DIEGO 9NE, San Diego, CA06, -117.059, 32.817, 292, M, 3.81
POWAY 4.7NNW, San Diego, CA06, -117.047, 33.026, 739, M, 3.47
SAN DIEGO COUNTRY ESTATES 1.5 WNW, San Diego, CA06, -116.807, 33.016, 1474, M, 5.15
SAN FRANCISCO 2.8 WNW, San Francisco, CA04, -122.470, 37.783, 173, M, 2.26
SAN FRANCISCO 1.1 SW, San Francisco, CA04, -122.435, 37.765, 194, M, 5.39
COTTONWOOD 0.5 NNE, Shasta, CA02, -122.276, 40.397, 452, M, 4.96
SHINGLETOWN 5.3 ENE, Shasta, CA02, -121.796, 40.524, 3964, M, 6.12
REDDING 2.9 NNE, Shasta, CA02, -122.339, 40.609, 652, M, 4.49
REDDING 2.7 NNW, Shasta, CA02, -122.380, 40.610, 708, M, 4.08
REDDING 7.9 NNE, Shasta, CA02, -122.291, 40.672, 681, M, 5.11
REDDING 3.7 N, Shasta, CA02, -122.358, 40.626, 618, M, 4.53
REDDING 3.8 N, Shasta, CA02, -122.356, 40.627, 609, M, 4.34
REDDING 3.6 N, Shasta, CA02, -122.354, 40.623, 604, M, 3.63
REDDING 0.6 NW, Shasta, CA02, -122.373, 40.580, 475, M, 3.97
REDDING 2.6 NNE, Shasta, CA02, -122.347, 40.607, 590, M, 4.88
ANDERSON 2.6 NE, Shasta, CA02, -122.261, 40.478, 409, M, 3.90
LINDEN 5.8 ENE, San Joaquin, CA05, -121.008, 38.063, 146, M, 3.70
STOCKTON 2.1 NW, San Joaquin, CA05, -121.333, 37.991, 7, M, 2.63
STOCKTON 5.8 NNE, San Joaquin, CA05, -121.255, 38.038, 35, M, 2.94
LODI 1.0 NNW, San Joaquin, CA05, -121.304, 38.136, 43, M, 3.45
STOCKTON 3.3 SE, San Joaquin, CA05, -121.259, 37.942, 23, M, 2.84
TRACY 2.1 W, San Joaquin, CA05, -121.470, 37.735, 52, M, 2.20
YREKA 4.5 S, Siskiyou, CA01, -122.621, 41.665, 2937, M, 1.34
WEED 5.4 N, Siskiyou, CA01, -122.370, 41.495, 3064, M, 1.50
ETNA 3.9 NNW, Siskiyou, CA01, -122.923, 41.511, 2966, M, 2.08
YREKA 0.9 WNW, Siskiyou, CA01, -122.649, 41.733, 2692, M, 1.51
MONTAGUE 1.6 ESE, Siskiyou, CA01, -122.501, 41.718, 2556, M, 0.68
SANTA MARGARITA 8.9 ESE, San Luis Obispo, CA04, -120.453, 35.381, 2005, M, 5.70
PACIFICA 0.3 W, San Mateo, CA04, -122.483, 37.612, 227, M, 6.52
FOSTER CITY 1.3 SW, San Mateo, CA04, -122.259, 37.549, 7, M, 3.80
HALF MOON BAY 0.5 SSW, San Mateo, CA04, -122.441, 37.463, 54, M, 4.12
REDWOOD CITY 2.5 SW, San Mateo, CA04, -122.240, 37.493, 17, M, 3.87
PORTOLA VALLEY 1.3 ENE, San Mateo, CA04, -122.198, 37.382, 531, M, 5.92
ROHNERT PARK 1.6 WNW, Sonoma, CA01, -122.727, 38.352, 93, M, 5.71
OCCIDENTAL 1.9 WSW, Sonoma, CA01, -122.968, 38.380, 810, M, 7.13
GEYSERVILLE 10.6 WNW, Sonoma, CA01, -123.098, 38.737, 1328, M, 5.24
SANTA ROSA 3.1 W, Sonoma, CA01, -122.758, 38.451, 107, M, 5.85
SEBASTOPOL 3.7 WSW, Sonoma, CA01, -122.893, 38.385, 383, M, 7.22
GUERNEVILLE 0.6 SW, Sonoma, CA01, -122.992, 38.501, 72, M, 6.56
SANTA ROSA 2.7 WSW, Sonoma, CA01, -122.745, 38.432, 123, M, 7.01
CALISTOGA 4.6 WNW, Sonoma, CA01, -122.658, 38.612, 497, M, 7.69
SEBASTOPOL 4.5 WSW, Sonoma, CA01, -122.904, 38.375, 423, M, 7.45
SEBASTOPOL 0.3 WNW, Sonoma, CA01, -122.830, 38.401, 122, M, 7.07
PETALUMA 1.0 N, Sonoma, CA01, -122.623, 38.256, 52, M, 4.22
GRATON 2.7 NNE, Sonoma, CA01, -122.840, 38.472, 69, M, 6.85
WINDSOR 1.5 WNW, Sonoma, CA01, -122.823, 38.555, 123, M, 7.48
CLOVERDALE 0.8 SSW, Sonoma, CA01, -123.022, 38.789, 365, M, 4.10
WINDSOR 1.4 SE, Sonoma, CA01, -122.780, 38.532, 140, M, 6.82
SANTA ROSA 4.7 S, Sonoma, CA01, -122.725, 38.378, 94, M, 5.67
SANTA ROSA 3.1 NW, Sonoma, CA01, -122.744, 38.479, 140, M, 6.58
CLOVERDALE 3.2 ESE, Sonoma, CA01, -122.963, 38.781, 797, M, 5.43
WINDSOR 1.8 SE, Sonoma, CA01, -122.777, 38.526, 142, M, 7.00
SEBASTOPOL 2.6 SSE, Sonoma, CA01, -122.804, 38.366, 214, M, 1.51
SANTA ROSA 2.9 W, Sonoma, CA01, -122.755, 38.448, 114, M, 6.09
BODEGA BAY 4.8 NNW, Sonoma, CA01, -123.078, 38.381, 91, M, 4.35
SANTA ROSA 3.8 W, Sonoma, CA01, -122.771, 38.441, 95, M, 2.53
SANTA ROSA 2.9 ENE, Sonoma, CA01, -122.655, 38.471, 292, M, 5.85
SANTA ROSA 2.9 WSW, Sonoma, CA01, -122.750, 38.430, 116, M, 5.68
MONTE RIO 1.6 W, Sonoma, CA01, -123.042, 38.464, 20, M, 2.76
SEBASTOPOL 3.0 SW, Sonoma, CA01, -122.869, 38.372, 539, M, 7.48
SANTA ROSA 4.4 NNW, Sonoma, CA01, -122.719, 38.511, 392, M, 8.11
SEBASTOPOL 1.1 SSE, Sonoma, CA01, -122.819, 38.384, 168, M, 6.37
WINDSOR 1.2 NNW, Sonoma, CA01, -122.805, 38.562, 155, M, 6.46
HEALDSBURG 7.5 NW, Sonoma, CA01, -122.963, 38.693, 203, M, 5.54
SANTA ROSA 2.6 NE, Sonoma, CA01, -122.664, 38.473, 273, M, 5.76
SONOMA 1.9 E, Sonoma, CA01, -122.425, 38.290, 124, M, 4.87
SANTA ROSA 1.3 NW, Sonoma, CA01, -122.715, 38.464, 173, M, 6.06
PETALUMA 1.3 SW, Sonoma, CA01, -122.639, 38.226, 36, M, 4.53
WINDSOR 0.6 NNE, Sonoma, CA01, -122.793, 38.553, 157, M, 7.00
CLOVERDALE 0.9 S, Sonoma, CA01, -123.017, 38.786, 347, M, 4.90
SANTA ROSA 0.4 NW, Sonoma, CA01, -122.705, 38.453, 181, M, 3.37
SEBASTOPOL 0.9 WNW, Sonoma, CA01, -122.841, 38.407, 213, M, 6.72
GLEN ELLEN 1.9 WNW, Sonoma, CA01, -122.572, 38.365, 956, M, 7.86
ROHNERT PARK 0.9 SW, Sonoma, CA01, -122.711, 38.339, 96, M, 5.72
SANTA ROSA 0.6 N, Sonoma, CA01, -122.703, 38.457, 177, M, 5.49
HEALDSBURG 3.7 WNW, Sonoma, CA01, -122.921, 38.648, 142, M, 6.89
CLOVERDALE 0.6 W, Sonoma, CA01, -123.028, 38.799, 382, M, 4.97
ROHNERT PARK 0.9 ESE, Sonoma, CA01, -122.681, 38.345, 125, M, 5.71
GLEN ELLEN 1.5 N, Sonoma, CA01, -122.534, 38.378, 337, M, 7.97
SANTA ROSA 2.7 ENE, Sonoma, CA01, -122.659, 38.470, 281, M, 5.32
BOYES HOT SPRINGS 0.5 ENE, Sonoma, CA01, -122.473, 38.316, 295, M, 4.52
SEBASTOPOL 3.3 WSW, Sonoma, CA01, -122.885, 38.384, 362, M, 7.00
OCCIDENTAL 2.8 SW, Sonoma, CA01, -122.974, 38.365, 614, M, 6.65
HEALDSBURG 12.6 NNW, Sonoma, CA01, -122.963, 38.784, 1026, M, 5.48
BENICIA 0.2 SSW, Solano, CA01, -122.155, 38.070, 403, M, 4.12
APPLE VALLEY 2.6 SSW, San Bernardino, CA07, -117.235, 34.496, 2881, M, 1.12
WRIGHTWOOD 1.2 WNW, San Bernardino, CA07, -117.651, 34.365, 6148, M, 5.45
UPLAND 0.5 ESE, San Bernardino, CA06, -117.650, 34.115, 1415, M, 3.60
APPLE VALLEY 2.6 SE, San Bernardino, CA07, -117.181, 34.504, 2941, M, 0.75
ALTA LOMA 2.7 ENE, San Bernardino, CA06, -117.551, 34.138, 1535, M, 3.79
JOSHUA TREE 2.0 S, San Bernardino, CA07, -116.318, 34.097, 3409, M, 1.73
LANDERS 3.4 SW, San Bernardino, CA07, -116.407, 34.217, 3447, M, 1.89
CRESTLINE 0.2 WSW, San Bernardino, CA07, -117.299, 34.246, 4530, M, 4.28
LANDERS 1.6 NE, San Bernardino, CA07, -116.375, 34.283, 2954, M, 0.96
BARSTOW 3.0 W, San Bernardino, CA07, -117.118, 34.880, 2229, M, 0.32
HESPERIA 3.9 SW, San Bernardino, CA07, -117.340, 34.373, 3578, M, 3.44
PINON HILLS 3.5 N, San Bernardino, CA07, -117.644, 34.485, 3495, M, 1.27
APPLE VALLEY 1.9 N, San Bernardino, CA07, -117.211, 34.556, 2935, M, 0.20
KNIGHTS FERRY 5.2 WSW, Stanislaus, CA05, -120.752, 37.789, 144, M, 3.40
OAKDALE 4.2 ENE, Stanislaus, CA05, -120.777, 37.782, 232, M, 2.48
SAN JUAN BAUTISTA 0.5 S, San Benito, CA04, -121.537, 36.839, 252, M, 4.45
HOLLISTER 5.4 NNE, San Benito, CA04, -121.370, 36.931, 247, M, 3.26
HOLLISTER 2.1 ESE, San Benito, CA04, -121.365, 36.842, 389, M, 2.94
DAVENPORT 4.2 NW, Santa Cruz, CA04, -122.218, 37.065, 495, M, 5.76
DAVENPORT 3.1 NW, Santa Cruz, CA04, -122.229, 37.044, 47, M, 5.07
BOULDER CREEK 3.6 NE, Santa Cruz, CA04, -122.091, 37.181, 1724, M, 6.71
SCOTTS VALLEY 1.7 SW, Santa Cruz, CA04, -122.029, 37.040, 573, M, 11.47
APTOS 2.6 E, Santa Cruz, CA04, -121.854, 36.996, 383, M, 5.73
SCOTTS VALLEY 1.4 W, Santa Cruz, CA04, -122.033, 37.055, 362, M, 10.94
FELTON 0.1 SE, Santa Cruz, CA04, -122.071, 37.042, 238, M, 11.14
BONNY DOON 2.0 NE, Santa Cruz, CA04, -122.133, 37.068, 1880, M, 9.13
SOQUEL 1.8 N, Santa Cruz, CA04, -121.950, 37.019, 152, M, 5.85
BOULDER CREEK 2.4 NNW, Santa Cruz, CA04, -122.138, 37.171, 593, M, 9.07
BOULDER CREEK 3.0 NW, Santa Cruz, CA04, -122.164, 37.169, 875, M, 10.36
FELTON 4.5 NNE, Santa Cruz, CA04, -122.047, 37.105, 838, M, 10.20
RED BLUFF 4.3 W, Tehama, CA02, -122.322, 40.179, 396, M, 2.79
LINDSAY 0.5 N, Tulare, CA05, -119.088, 36.213, 378, M, 1.05
TERRA BELLA 6.3 W, Tulare, CA05, -119.149, 35.950, 374, M, 0.88
VISALIA 0.7 SSE, Tulare, CA05, -119.318, 36.315, 318, M, 1.06
DOUGLAS CITY 2.4 SW, Trinity, CA01, -122.978, 40.633, 1689, M, 2.75
HAWKINS BAR 0.6 NW, Trinity, CA01, -123.530, 40.877, 674, M, 4.61
MAD RIVER 7.4 SE, Trinity, CA01, -123.376, 40.321, 2762, M, 7.90
HAYFORK 7.1 SE, Trinity, CA01, -123.030, 40.500, 2917, M, 3.16
TRINITY CENTER 0.6 ESE, Trinity, CA01, -122.696, 40.983, 2427, M, 5.80
WEAVERVILLE 2.6 S, Trinity, CA01, -122.941, 40.731, 2017, M, 3.02
SALYER 1.4 ESE, Trinity, CA01, -123.559, 40.887, 696, M, 4.42
THOUSAND OAKS 2.1 WSW, Ventura, CA06, -118.898, 34.177, 692, M, 3.20
FRAZIER PARK 10.7 WSW, Ventura, CA06, -119.110, 34.746, 5274, M, 2.15
SIMI VALLEY 3.8 SW, Ventura, CA06, -118.805, 34.231, 1081, M, 3.31
NEWBURY PARK 0.4 SE, Ventura, CA06, -118.909, 34.179, 709, M, 0.00
VENTURA 0.5 WNW, Ventura, CA06, -119.276, 34.273, 56, M, 2.73
OJAI 0.3 WNW, Ventura, CA06, -119.251, 34.451, 797, M, 3.09
SIMI VALLEY 1.0 NW, Ventura, CA06, -118.764, 34.272, 848, M, 3.03
THOUSAND OAKS 2.5 WSW, Ventura, CA06, -118.909, 34.179, 703, M, 2.75
CHALLENGE-BROWNSVILLE 1.3 WSW, Yuba, CA02, -121.280, 39.452, 2049, M, 10.80
DAVIS 1.2 SE, Yolo, CA02, -121.721, 38.543, 36, M, 3.65
DAVIS 0.8 NE, Yolo, CA02, -121.724, 38.562, 41, M, 3.57
DAVIS 1.4 SSE, Yolo, CA02, -121.722, 38.538, 4, M, 3.57
DAVIS 6.1 WNW, Yolo, CA02, -121.845, 38.578, 83, M, 3.77
DAVIS 2.7 W, Yolo, CA02, -121.786, 38.552, 57, M, 3.35
WOODLAND 2.8 SE, Yolo, CA02, -121.732, 38.647, 38, M, 2.96
TAHOMA, El Dorado, CA03, -120.129, 39.060, 6315, M, 4.86
CORONA MUNICIPAL AIRPORT, Riverside, -, -117.602, 33.898, 533, 50.6, 1.89
OAKLAND 4.4 NNW, Alameda, CA04, -122.250, 37.832, 191, M, 5.38
SAN LORENZO 0.5 NNW, Alameda, CA04, -122.133, 37.682, 30, M, 3.41
OROVILLE 4.8 E, Butte, CA02, -121.477, 39.493, 668, M, 5.82
MCKINLEYVILLE 4.3 E, Humboldt, CA01, -124.034, 40.953, 173, M, 4.91
BISHOP 8.8 WNW, Inyo, CA07, -118.547, 37.411, 4537, M, 0.38
HANFORD 1.2 WNW, Kings, CA05, -119.667, 36.331, 243, M, 0.50
CLAREMONT 0.5 E, Los Angeles, CA06, -117.707, 34.121, 1465, M, 4.63
LOS ANGELES 4.3 NNW, Los Angeles, CA06, -118.435, 34.171, 675, M, 3.16
LANCASTER 6.5 ENE, Los Angeles, CA07, -118.066, 34.718, 2366, M, 1.18
PACIFIC GROVE 0.6 N, Monterey, CA04, -121.925, 36.631, 53, M, 4.43
FOOTHILL RANCH 0.3 NW, Orange, CA06, -117.664, 33.689, 1045, M, 2.50
CORONA 12.5 SE, Riverside, CA06, -117.431, 33.735, 1302, M, 3.57
CARLSBAD 2.2SE, San Diego, CA06, -117.321, 33.143, 22, M, 2.55
DESCANSO 0.3 WNW, San Diego, CA06, -116.621, 32.854, 3442, M, 7.51
SAN DIEGO 5.2WNW, San Diego, CA06, -117.245, 32.735, 251, M, 2.42
OAK RUN 0.2 SE, Shasta, CA02, -122.024, 40.685, 1632, M, 5.33
IGO 0.2 S, Shasta, CA02, -122.541, 40.503, 1074, M, 4.18
SHINGLETOWN 0.6 WSW, Shasta, CA02, -121.900, 40.490, 3461, M, 0.00
PASO ROBLES 1.8 WSW, San Luis Obispo, CA04, -120.693, 35.622, 767, M, 1.60
BELMONT 0.7 WSW, San Mateo, CA04, -122.306, 37.510, 482, M, 4.69
FORESTVILLE 0.7 SW, Sonoma, CA01, -122.897, 38.473, 201, M, 7.96
RIALTO 2.1 N, San Bernardino, CA06, -117.381, 34.144, 1482, M, 3.93
THREE RIVERS 1.7 NE, Tulare, CA05, -118.886, 36.458, 1010, M, 2.73
TRINITY CENTER 0.2 ENE, Trinity, CA01, -122.704, 40.986, 2481, M, 3.38
FILLMORE 2.1 NNW, Ventura, CA06, -118.933, 34.428, 534, M, 4.60
TEHACHAPI 2.2 W, Kern, CA05, -118.480, 35.132, 3945, M, 1.11
DIAMOND BAR 1.9 NNE, Los Angeles, CA06, -117.796, 34.023, 935, M, 3.17
MARIPOSA 12.5 E, Mariposa, CA05, -119.740, 37.462, 2940, M, 7.98
BIG SUR 7.2 NNW, Monterey, CA04, -121.818, 36.353, 2434, M, 7.99
SAN DIEGO 7.6 NNW, San Diego, CA06, -117.188, 32.916, 383, M, 2.60
CHULA VISTA 3.1SE, San Diego, CA06, -117.051, 32.604, 200, M, 2.03
BURLINGAME 2.0 WSW, San Mateo, CA04, -122.398, 37.584, 447, M, 8.09
BENICIA 1.2 SW, Solano, CA01, -122.168, 38.058, 40, M, 4.88
ARBUCKLE BASIN CALIFORNIA, Shasta, CA02, -122.833, 40.398, 1900, 44.8, M
ACTON CALIFORNIA, Los Angeles, CA06, -118.200, 34.446, 2600, 46.9, M
ARROYO GRANDE CALIFORNIA, San Luis Obispo, CA04, -120.392, 35.179, 1048, 49.9, M
ALDER SPRINGS CALIFORNIA, Glenn, CA02, -122.724, 39.651, 4300, 40.1, M
ALPINE CALIFORNIA, San Diego, CA06, -116.739, 32.834, 2041, 51.5, M
LOS ALTOS CALIFORNIA, Santa Clara, CA04, -122.147, 37.358, 645, 49.7, M
AMMO DUMP CALIFORNIA, San Diego, CA06, -117.286, 33.381, 1068, 53.9, M
ANZA CALIFORNIA, Riverside, CA06, -116.673, 33.555, 3920, 41.9, M
ALDER POINT CALIFORNIA, Humboldt, CA01, -123.590, 40.187, 923, 43.7, M
ARROYO SECO (MT. DIABLO) CALIF, Monterey, CA04, -121.492, 36.230, 980, 48.8, M
ASH CREEK CALIFORNIA, Siskiyou, CA02, -121.979, 41.277, 3200, 34.8, M
ASH VALLEY CALIFORNIA, Lassen, CA02, -120.686, 41.052, 5100, 29.5, M
BACKBONE CALIFORNIA, Trinity, CA01, -123.142, 40.889, 4700, 38.3, M
BALD MTN LOC CALIFORNIA, El Dorado, CA02, -120.697, 38.906, 4680, 40.4, M
BARNABY CALIFORNIA, Marin, CA01, -122.702, 38.028, 1240, 49.5, M
BATTERSON CALIFORNIA, Madera, CA05, -119.508, 37.232, 3160, 44.0, M
BIG BAR CALIFORNIA, Trinity, CA01, -123.233, 40.733, 1500, 43.0, M
BELL CANYON CALIFORNIA, Orange, CA06, -117.592, 33.542, 700, 54.1, M
BRADLEY CALIFORNIA, Monterey, CA04, -120.803, 35.864, 537, 46.7, M
BEAR PEAK CALIFORNIA, Tulare, CA05, -118.052, 35.884, 8228, 30.7, M
BENTON CALIFORNIA, Mono, CA07, -118.478, 37.843, 5450, 36.7, M
BEAUMONT CALIFORNIA, Riverside, CA06, -116.950, 33.931, 2604, 48.3, M
BEVERLY HILLS CALIFORNIA, Los Angeles, CA06, -118.412, 34.125, 1260, 56.2, M
BANGOR CALIFORNIA, Butte, CA02, -121.386, 39.398, 803, 48.3, M
BIG HILL CALIFORNIA, Humboldt, CA01, -123.636, 41.098, 3570, 38.6, M
BIG PINES CALIFORNIA, Los Angeles, CA07, -117.692, 34.379, 6917, 36.7, M
BIG ROCK CALIFORNIA, Marin, CA01, -122.570, 38.039, 1500, 43.5, M
BLACK DIAMOND CALIFORNIA, Contra Costa, CA04, -121.884, 37.950, 1600, 46.9, M
BLUE DOOR CALIFORNIA, Lassen, CA02, -120.337, 41.055, 5615, 29.5, M
BEN BOLT CALIFORNIA, El Dorado, CA05, -120.934, 38.591, 905, 46.3, M
BEN LOMOND CALIFORNIA, Santa Cruz, CA04, -122.170, 37.132, 2630, 44.5, M
BOGARD R.S. CALIFORNIA, Lassen, CA02, -121.083, 40.598, 5650, 26.4, M
BOONVILLE CALIFORNIA, Mendocino, CA01, -123.349, 38.988, 644, 46.1, M
BIG PINE FLAT CALIFORNIA, San Bernardino, CA07, -117.013, 34.319, 6861, 34.4, M
BRIDGEPORT 4NW CALIFORNIA, Mono, CA03, -119.289, 38.272, 6650, 29.1, M
BRANCH MOUNTAIN CALIFORNIA, San Luis Obispo, CA04, -120.083, 35.189, 3770, 42.3, M
BEAR FLAT CALIFORNIA, Modoc, CA02, -120.313, 41.295, 6200, 29.2, M
BRIONES CALIFORNIA, Contra Costa, CA04, -122.118, 37.944, 1450, 47.7, M
BLACKROCK CALIFORNIA, Tulare, CA05, -118.260, 36.093, 8200, 30.8, M
BROOKS CALIFORNIA, Yolo, CA02, -122.145, 38.738, 354, 49.0, M
BIG SUR CALIFORNIA, Monterey, CA04, -121.785, 36.236, 450, 51.2, M
BUCK MEADOWS CALIFORNIA, Tuolumne, CA05, -120.097, 37.823, 3200, 40.9, M
BULL FLAT CALIFORNIA, Lassen, CA03, -120.114, 40.481, 4395, 30.0, M
BURNS CANYON CALIFORNIA, San Bernardino, CA07, -116.634, 34.210, 6000, 39.2, M
BUTTERCUP CALIFORNIA, Imperial, CA07, -114.884, 32.740, 217, 57.8, M
BEAVER CAMP LOC CALIFORNIA, Amador, CA05, -120.325, 38.488, 5000, 41.8, M
BRAZIE RANCH CALIFORNIA, Siskiyou, CA01, -122.594, 41.685, 3000, 39.1, M
CAHUILLA CALIFORNIA, Imperial, CA07, -115.174, 32.974, 278, 58.6, M
CALLAHAN CALIFORNIA, Siskiyou, CA01, -122.796, 41.308, 3136, 39.8, M
CAMERON FIRE STATION CALIFORNI, San Diego, CA06, -116.463, 32.721, 3443, 44.6, M
CANBY CALIFORNIA, Modoc, CA02, -120.868, 41.434, 4312, 32.8, M
CARRIZO CALIFORNIA, San Luis Obispo, CA05, -119.773, 35.096, 2490, 46.9, M
CASE SPRINGS CALIFORNIA, San Diego, CA06, -117.418, 33.445, 2320, 48.4, M
CATHEYS VALLEY CALIFORNIA, Mariposa, CA05, -120.111, 37.468, 1200, 50.1, M
CEDAR GROVE CALIFORNIA, Fresno, CA05, -118.656, 36.788, 4720, 37.6, M
CHEESEBORO CALIFORNIA, Ventura, CA06, -118.717, 34.185, 1650, 52.7, M
CHICO CALIFORNIA, Butte, CA02, -121.779, 39.712, 230, 48.0, M
CHILAO CALIFORNIA, Los Angeles, CA06, -118.030, 34.332, 5450, 41.7, M
CHUCHUPATE CALIFORNIA, Ventura, CA05, -119.012, 34.808, 4900, 35.7, M
CLAREMONT CALIFORNIA, Los Angeles, CA06, -117.707, 34.137, 1645, 50.9, M
CLEAR CREEK CALIFORNIA, Los Angeles, CA06, -118.152, 34.271, 3000, 47.2, M
CLARK CALIFORNIA, Riverside, CA06, -117.309, 33.877, 1720, 50.7, M
CASE MOUNTAIN CALIFORNIA, Tulare, CA05, -118.809, 36.411, 6450, 37.1, M
CORONA CALIFORNIA, Riverside, CA06, -117.549, 33.874, 640, 54.7, M
COHASSET CALIFORNIA, Butte, CA02, -121.769, 39.872, 1733, 48.1, M
COLLINS BALDY CALIFORNIA, Siskiyou, CA01, -122.950, 41.775, 5493, 33.4, M
CONVERSE CALIFORNIA, San Bernardino, CA06, -116.913, 34.194, 5618, 39.9, M
COOSKIE MOUNTAIN CALIFORNIA, Humboldt, CA01, -124.266, 40.257, 2950, 41.6, M
CORRALITOS CALIFORNIA, Santa Cruz, CA04, -121.798, 36.991, 450, 49.3, M
COUNTY LINE CALIFORNIA, Lake, CA02, -122.412, 39.019, 2085, 46.9, M
CAMP 9 CALIFORNIA, Los Angeles, CA06, -118.422, 34.362, 4000, 44.4, M
CRANE FLAT LOOKOUT CALIFORNIA, Mariposa, CA05, -119.825, 37.762, 6644, 36.0, M
CRESTVIEW CALIFORNIA, Mono, CA07, -118.983, 37.745, 7600, 25.8, M
CORNING CALIFORNIA, Tehama, CA02, -122.170, 39.939, 294, 49.1, M
CARPENTER RIDGE CALIFORNIA, Butte, CA02, -121.582, 40.069, 4812, 37.2, M
CRANSTON CALIFORNIA, Riverside, CA06, -116.841, 33.740, 1950, 51.3, M
CRAZY PEAK CALIFORNIA, Del Norte, CA01, -123.604, 41.992, 3970, 38.1, M
CASHMAN CALIFORNIA, Plumas, CA02, -120.915, 40.002, 4520, 37.9, M
DESCANSO CALIFORNIA, San Diego, CA06, -116.622, 32.857, 3480, 45.0, M
DEVILS GARDEN CALIFORNIA, Modoc, CA02, -120.671, 41.530, 5022, 30.7, M
DIABLO GRANDE CALIFORNIA, Stanislaus, CA05, -121.294, 37.329, 1850, 46.6, M
DEMOCRAT CALIFORNIA, Kern, CA05, -118.630, 35.532, 2356, 47.5, M
DINKEY CALIFORNIA, Fresno, CA05, -119.039, 37.066, 5668, 32.8, M
DOG VALLEY CALIFORNIA, Sierra, CA03, -120.048, 39.562, 5976, 29.9, M
DOYLE CALIFORNIA, Lassen, CA03, -120.106, 40.022, 4240, 34.5, M
DEL VALLE CALIFORNIA, Los Angeles, CA06, -118.683, 34.431, 1278, 52.1, M
DEVORE CALIFORNIA, San Bernardino, CA06, -117.404, 34.221, 2057, 50.8, M
EAGLE PEAK CALIFORNIA, Tehama, CA02, -122.657, 39.928, 3713, 41.3, M
EEL RIVER CAMP CALIFORNIA, Humboldt, CA01, -123.824, 40.138, 446, 45.4, M
EEL RIVER CALIFORNIA, Mendocino, CA01, -123.083, 39.833, 1500, 43.7, M
EL CARISO CALIFORNIA, Riverside, CA06, -117.411, 33.647, 3038, 50.3, M
MOUNT ELIZABETH CALIFORNIA, Tuolumne, CA05, -120.247, 38.063, 4933, 39.5, M
EL MIRAGE CALIFORNIA, San Bernardino, CA07, -117.550, 34.634, 2880, 44.6, M
ESPERANZA CALIFORNIA, Calaveras, CA05, -120.515, 38.243, 2559, 42.8, M
FANCHER CREEK CALIFORNIA, Fresno, CA05, -119.466, 36.884, 920, 50.6, M
FAWNSKIN CALIFORNIA, San Bernardino, CA06, -116.899, 34.266, 6900, 35.6, M
FENCE MEADOW CALIFORNIA, Fresno, CA05, -119.175, 36.961, 5048, 40.0, M
FORT HUNTER LIGGET CALIFORNIA, Monterey, CA04, -121.242, 36.012, 1100, 46.7, M
FIGUEROA CALIFORNIA, Santa Barbara, CA06, -120.007, 34.733, 3200, 47.5, M
FISH CREEK MTN CALIFORNIA, Imperial, CA07, -116.067, 32.990, 760, 59.9, M
FIVE MILE CALIFORNIA, Inyo, CA07, -117.918, 35.872, 4150, 46.8, M
FORT ORD #2 CALIFORNIA, Monterey, CA04, -121.786, 36.627, 490, 49.9, M
FORESTHILL CALIFORNIA, Placer, CA02, -120.732, 39.091, 4355, 41.4, M
FOUNTAIN SPRINGS CALIFORNIA, Tulare, CA05, -118.915, 35.892, 210, 47.1, M
FREMONT CANYON CALIFORNIA, Orange, CA06, -117.711, 33.808, 1781, 53.6, M
FRIEND MOUNTAIN CALIFORNIA, Trinity, CA01, -123.342, 40.505, 4000, 38.3, M
GASQUET CALIFORNIA, Del Norte, CA01, -123.979, 41.846, 500, 43.9, M
GRASSHOPPER CALIFORNIA, Lassen, CA03, -120.784, 40.782, 6158, 28.6, M
GOOSE VALLEY CALIFORNIA, San Diego, CA06, -116.846, 33.074, 1530, 49.6, M
GORDON CALIFORNIA, Lassen, CA03, -120.896, 40.759, 6200, 29.8, M
GREEN SPRING CALIFORNIA, Tuolumne, CA05, -120.500, 37.833, 1020, 46.5, M
HASTINGS CALIFORNIA, Monterey, CA04, -121.552, 36.389, 1885, 46.7, M
HAWKEYE CALIFORNIA, Sonoma, CA01, -122.917, 38.782, 2000, 47.5, M
HAYFORK CALIFORNIA, Trinity, CA01, -123.165, 40.550, 2323, 39.7, M
HELL HOLE CALIFORNIA, Placer, CA02, -120.422, 39.072, 5240, 36.8, M
HERNANDEZ CALIFORNIA, San Benito, CA04, -120.856, 36.383, 3733, 42.1, M
HIGH GLADE LOOKOUT CALIFORNIA, Lake, CA02, -122.808, 39.208, 4840, 40.6, M
HIGH SIERRA CALIFORNIA, Fresno, CA05, -119.038, 37.315, 7403, 31.5, M
HOPLAND CALIFORNIA, Mendocino, CA01, -123.081, 39.031, 2682, 45.2, M
HOLLISTER CALIFORNIA, San Benito, CA04, -121.362, 36.842, 404, 49.3, M
HUNTER MOUNTAIN CALIFORNIA, Inyo, CA07, -117.474, 36.563, 6880, 32.6, M
HORSE LAKE CALIFORNIA, Lassen, CA03, -120.503, 40.631, 5100, 30.9, M
HOOPA CALIFORNIA, Humboldt, CA01, -123.671, 41.048, 375, 45.0, M
HORSE THIEF SPRINGS CALIFORNIA, San Bernardino, CA07, -115.909, 35.771, 5000, 41.2, M
HURLEY CALIFORNIA, Fresno, CA05, -119.568, 37.015, 1201, 44.1, M
INDIAN WELL CALIFORNIA, Siskiyou, CA01, -121.538, 41.742, 4770, 34.3, M
JARBO GAP CALIFORNIA, Butte, CA02, -121.489, 39.736, 2490, 44.5, M
JERSEYDALE CALIFORNIA, Mariposa, CA05, -119.839, 37.544, 3900, 42.8, M
JOHNSONDALE CALIFORNIA, Tulare, CA05, -118.545, 35.972, 4700, 36.9, M
JUANITA LAKE CALIFORNIA, Siskiyou, CA01, -122.006, 41.786, 5400, 33.8, M
JULIAN CALIFORNIA, San Diego, CA07, -116.591, 33.076, 4240, 41.6, M
JUNIPER CREEK CALIFORNIA, Modoc, CA02, -120.472, 41.332, 4372, 32.4, M
KEENWILD CALIFORNIA, Riverside, CA06, -116.767, 33.667, 4920, 42.4, M
KETTLEMAN HILLS CALIFORNIA, Kings, CA05, -120.057, 36.033, 810, 50.8, M
KNOXVILLE CREEK CALIFORNIA, Lake, CA02, -122.417, 38.862, 2200, 45.5, M
KONOCTI CALIFORNIA, Lake, CA02, -122.706, 38.912, 2163, 46.6, M
LOS BANOS CALIFORNIA, Merced, CA05, -121.053, 37.055, 350, 50.4, M
MT. LAGUNA CALIFORNIA, San Diego, CA07, -116.420, 32.880, 5760, 37.9, M
LA HONDA CALIFORNIA, San Mateo, CA04, -122.255, 37.305, 872, 48.4, M
LA PANZA CALIFORNIA, San Luis Obispo, CA04, -120.187, 35.381, 1630, 42.9, M
LAURAL MOUNTAIN CALIFORNIA, Kern, CA07, -117.699, 35.478, 4390, 43.1, M
LASSEN LODGE CALIFORNIA, Tehama, CA02, -121.714, 40.344, 4159, 41.2, M
LAUFMAN CALIFORNIA, Lassen, CA03, -120.353, 40.142, 5800, 33.7, M
LAYTONVILLE CALIFORNIA, Mendocino, CA01, -123.485, 39.702, 1820, 43.1, M
LADDER BUTTE CALIFORNIA, Lassen, CA02, -121.297, 40.807, 5750, 31.9, M
LEO CARRILLO CALIFORNIA, Los Angeles, CA06, -118.936, 34.046, 50, 54.3, M
LOS GATOS CALIFORNIA, Santa Clara, CA04, -121.943, 37.203, 2000, 47.5, M
LOST HORSE CALIFORNIA, Riverside, CA07, -116.188, 34.018, 4200, 42.5, M
LINCOLN CALIFORNIA, Placer, CA02, -121.268, 38.883, 200, 47.7, M
LOWER KLAMATH CALIFORNIA, Siskiyou, CA01, -121.700, 41.999, 4098, 32.0, M
LOS PRIETOS CALIFORNIA, Santa Barbara, CA06, -119.783, 34.536, 1020, 50.4, M
LAS TABLAS CALIFORNIA, San Luis Obispo, CA04, -120.924, 35.656, 994, 45.6, M
LITTLE TUJUNGA CALIFORNIA, Los Angeles, CA06, -118.361, 34.294, 1390, 52.4, M
LYONS VALLEY CALIFORNIA, Lake, CA01, -123.074, 39.126, 3200, 43.5, M
LYTLE CREEK CALIFORNIA, San Bernardino, CA06, -117.480, 34.234, 2792, 48.8, M
MAD RIVER CALIFORNIA, Trinity, CA01, -123.524, 40.463, 2775, 41.4, M
MALIBU HILLS CALIFORNIA, Los Angeles, CA06, -118.633, 34.058, 1575, 53.2, M
MANZANITA LAKE CALIFORNIA, Shasta, CA02, -121.580, 40.540, 5660, 32.8, M
MARIPOSA GROVE CALIFORNIA, Mariposa, CA05, -119.605, 37.513, 6400, 36.7, M
MILL CREEK (BDF) CALIFORNIA, San Bernardino, CA06, -117.035, 34.084, 2950, 49.6, M
MCGUIRES CALIFORNIA, Mendocino, CA01, -123.601, 39.353, 593, 45.7, M
MEANS LAKE CALIFORNIA, San Bernardino, CA07, -116.517, 34.391, 2900, 46.7, M
METCALF GAP CALIFORNIA, Madera, CA05, -119.768, 37.409, 3077, 44.2, M
MEYERS CALIFORNIA, El Dorado, CA03, -120.018, 38.849, 6310, 29.3, M
MID HILLS CALIFORNIA, San Bernardino, CA07, -115.411, 35.123, 5413, 38.8, M
MILL CREEK (ANF) CALIFORNIA, Los Angeles, CA06, -118.082, 34.390, 5021, 40.7, M
MILO CALIFORNIA, Tulare, CA05, -118.869, 36.231, 1923, 48.2, M
MALLORY RIDGE CALIFORNIA, Contra Costa, CA05, -121.779, 37.817, 2040, 45.8, M
MONTECITO CALIFORNIA, Santa Barbara, CA06, -119.648, 34.461, 1500, 54.3, M
MODOC NWR CALIFORNIA, Modoc, CA02, -120.354, 41.459, 4380, 32.1, M
MOJAVE RIVER SINK CALIFORNIA, San Bernardino, CA07, -116.079, 35.053, 950, 51.7, M
MORMON ROCK CALIFORNIA, San Bernardino, CA06, -117.502, 34.318, 3300, 46.5, M
MOUNTAIN REST CALIFORNIA, Fresno, CA05, -119.371, 37.054, 4100, 41.4, M
MARKLEEVILLE CALIFORNIA, Alpine, CA03, -119.767, 38.683, 5501, 32.4, M
MT. SHASTA CALIFORNIA, Siskiyou, CA02, -122.316, 41.316, -, 36.3, M
MARIPOSA CALIFORNIA, Mariposa, CA05, -119.987, 37.504, 2231, 43.4, M
MT. DIABLO CALIFORNIA, Contra Costa, CA05, -121.914, 37.882, 3849, 45.0, M
MOUNT ZION CALIFORNIA, Amador, CA05, -120.651, 38.389, 2960, 44.5, M
NORTH FORK CALIFORNIA, Madera, CA05, -119.505, 37.233, 2720, 44.5, M
OAK KNOLL CALIFORNIA, Siskiyou, CA01, -122.850, 41.839, 1940, 40.7, M
OAK MOUNTAIN CALIFORNIA, Shasta, CA02, -121.983, 41.006, 1700, 42.8, M
OAK CREEK CALIFORNIA, Inyo, CA07, -118.259, 36.843, 4855, 43.1, M
OJAI CALIFORNIA, Ventura, CA06, -119.230, 34.448, 765, 49.2, M
OAK GROVE CALIFORNIA, San Diego, CA06, -116.795, 33.393, 2752, 47.8, M
OAKLAND NORTH CALIFORNIA, Contra Costa, CA04, -122.221, 37.865, 1403, 47.2, M
OAK OPENING CALIFORNIA, Tulare, CA05, -118.702, 36.175, 3240, 45.3, M
OAKLAND SOUTH CALIFORNIA, Alameda, CA04, -122.145, 37.786, 1095, 47.8, M
OPAL MOUNTAIN CALIFORNIA, San Bernardino, CA07, -117.176, 35.154, 3240, 46.7, M
OWENS CAMP LOC CALIFORNIA, El Dorado, CA02, -120.245, 38.733, 5240, 39.2, M
OWENS VALLEY CALIFORNIA, Inyo, CA07, -118.551, 37.390, 4640, 41.3, M
OZENA CALIFORNIA, Ventura, CA06, -119.354, 34.682, 3670, 43.5, M
PANAMINT CALIFORNIA, Inyo, CA07, -117.088, 36.120, 6880, 37.4, M
PARKFIELD CALIFORNIA, Monterey, CA04, -120.432, 35.899, 1535, 44.8, M
PATTY MOCUS CALIFORNIA, Tehama, CA02, -122.867, 40.295, 3500, 41.5, M
PINE HILLS CALIFORNIA, San Diego, CA06, -116.634, 33.016, -, 45.0, M
PIERCE CALIFORNIA, Plumas, CA02, -120.642, 40.246, 5700, 31.6, M
PINEHURST CALIFORNIA, Fresno, CA05, -119.000, 36.685, 4060, 41.7, M
PIKE COUNTY LOOKOUT CALIFORNIA, Yuba, CA02, -121.202, 39.475, 3714, 42.0, M
PILOT HILL CALIFORNIA, El Dorado, CA02, -121.009, 38.833, 1200, 45.3, M
PIRU CALIFORNIA, Ventura, CA06, -118.810, 34.404, 614, 52.3, M
PARK RIDGE CALIFORNIA, Tulare, CA05, -118.942, 36.724, 7540, 34.2, M
PINNACLES CALIFORNIA, San Benito, CA04, -121.147, 36.471, 1322, 48.3, M
POPPY PARK CALIFORNIA, Los Angeles, CA07, -118.383, 34.733, 2760, 44.8, M
POTRERO CALIFORNIA, San Diego, CA06, -116.609, 32.606, 2345, 46.6, M
POVERTY CALIFORNIA, Santa Clara, CA04, -121.771, 37.443, 2066, 54.6, M
PANOCHE ROAD CALIFORNIA, Fresno, CA05, -120.766, 36.727, 2032, 46.8, M
PULGAS CALIFORNIA, San Mateo, CA04, -122.298, 37.475, 644, 50.6, M
QUARTZ HILL CALIFORNIA, Siskiyou, CA01, -122.934, 41.599, 4225, 37.0, M
QUINCY RD CALIFORNIA, Plumas, CA02, -120.942, 39.973, 3500, 38.5, M
RAVENDALE CALIFORNIA, Lassen, CA03, -120.316, 40.731, 5298, 30.6, M
RANCHITA CALIFORNIA, San Diego, CA07, -116.497, 33.222, 4415, 42.6, M
READER RANCH CALIFORNIA, Nevada, CA02, -121.117, 39.304, 1968, 45.7, M
REDDING AIRPORT CALIFORNIA, Shasta, CA02, -122.291, 40.516, 500, 48.8, M
RICE VALLEY CALIFORNIA, Riverside, CA07, -114.732, 34.061, 820, 53.9, M
DESCANSO 3.7 NNW, San Diego, CA06, -116.626, 32.906, 3278, M, 4.69
WOODSIDE 3.4 S, San Mateo, CA04, -122.264, 37.375, 1592, M, 16.02
ADELANTO 3.1 S, San Bernardino, CA07, -117.433, 34.525, 3085, M, 0.79
YUCCA VALLEY 1.1 SW, San Bernardino, CA07, -116.443, 34.100, 3628, M, 6.73
ROCK CREEK, Mono, CA07, -118.667, 37.551, 7040, 29.4, M
RODEO VALLEY, Mendocino, CA01, -123.321, 39.668, 2428, 42.1, M
ROSE VALLEY CALIFORNIA, Ventura, CA06, -119.184, 34.543, 3331, 40.8, M
ROUND MOUNTAIN, Siskiyou, CA02, -121.464, 41.427, 5258, 31.0, M
ROSE PEAK CALIFORNIA, Alameda, CA04, -121.735, 37.502, 3060, 42.0, M
RUSH CREEK CALIFORNIA, Modoc, CA02, -120.864, 41.294, 4800, 32.0, M
RUTH CALIFORNIA, Trinity, CA01, -123.316, 40.251, 2732, 40.8, M
SACRAMENTO NWR CALIFORNIA, Glenn, CA02, -122.182, 39.417, 120, 49.5, M
SADDLEBACK BUTTE CALIFORNIA, Los Angeles, CA07, -117.821, 34.685, 2590, 44.0, M
SAUGUS CALIFORNIA, Los Angeles, CA06, -118.525, 34.425, 1450, 52.0, M
SAWYERS BAR CALIFORNIA, Siskiyou, CA01, -123.132, 41.300, 2192, 40.7, M
SANTA BARBARA ISLAND CALIFORNI, Santa Barbara, CA06, -119.033, 33.483, 176, 54.3, M
SANTA CRUZ ISLAND CALIFORNIA, Santa Barbara, CA06, -119.722, 33.996, 250, 50.5, M
SCORPION CALIFORNIA, Trinity, CA01, -122.697, 41.112, 4400, 41.2, M
SECRET TOWN CALIFORNIA, Nevada, CA02, -120.885, 39.184, 2826, 42.6, M
SANTA FE DAM CALIFORNIA, Los Angeles, CA06, -117.946, 34.121, 500, 55.4, M
SHAVER CALIFORNIA, Fresno, CA05, -119.256, 37.135, 5746, 33.6, M
SCHOOL HOUSE CALIFORNIA, Humboldt, CA01, -123.906, 41.138, 2640, 41.2, M
SHIP MTN. CALIFORNIA, Del Norte, CA01, -123.792, 41.736, 5300, 33.8, M
SHADEQUARTER CALIFORNIA, Tulare, CA05, -118.956, 36.567, 4069, 41.3, M
SIMS CALIFORNIA, Shasta, CA02, -122.373, 41.075, 2400, 43.7, M
SIMI VALLEY CALIFORNIA, Ventura, CA06, -118.814, 34.291, 914, 51.4, M
SAN MIGUEL CALIFORNIA, San Diego, CA06, -116.974, 32.685, 425, 55.5, M
SAN LUIS NWR CALIFORNIA, Merced, CA05, -120.794, 37.182, 65, 48.5, M
SANTA RITA CALIFORNIA, San Benito, CA05, -120.598, 36.348, 5000, 40.0, M
SOLDIER MOUNTAIN CALIFORNIA, Shasta, CA02, -121.586, 40.926, 3710, 37.0, M
SOMES BAR CALIFORNIA, Siskiyou, CA01, -123.496, 41.390, 920, 44.8, M
SQUAW SPRINGS CALIFORNIA, San Bernardino, CA07, -117.568, 35.370, 3620, 46.0, M
SQUAW LAKE CALIFORNIA, Imperial, CA07, -114.494, 32.908, 300, 57.8, M
SANTA ROSA ISLAND CALIFORNIA, Santa Barbara, CA06, -120.078, 33.978, 1298, 51.4, M
SANTA ROSA PLATEAU CALIFORNIA, Riverside, CA06, -117.231, 33.529, 1980, 50.8, M
SANTA ROSA CALIFORNIA, Sonoma, CA01, -122.712, 38.479, 576, 49.6, M
STAMPEDE CALIFORNIA, Sierra, CA03, -120.075, 39.483, 6867, 35.3, M
STONYFORD CALIFORNIA, Colusa, CA02, -122.575, 39.367, 1200, 46.4, M
SUGARLOAF (SHF) CALIFORNIA, Shasta, CA02, -122.438, 40.917, 4200, 41.2, M
SPRING VALLEY CALIFORNIA, San Mateo, CA04, -122.436, 37.563, 1075, 48.1, M
TALEGA CALIFORNIA, San Diego, CA06, -117.486, 33.478, 1203, 54.9, M
TANBARK CALIFORNIA, Los Angeles, CA06, -117.761, 34.207, 2600, 48.5, M
TARGET RANGE CALIFORNIA, San Diego, CA06, -117.359, 33.372, 918, M, M
TEMESCAL (LPF) CALIFORNIA, Ventura, CA06, -118.756, 34.481, 1140, 51.3, M
THOMES CREEK CALIFORNIA, Tehama, CA02, -122.610, 39.864, 1040, 49.4, M
THOUSAND OAKS CALIFORNIA, Ventura, CA06, -118.870, 34.210, 795, 51.5, M
TIMBER MOUNTAIN CALIFORNIA, Modoc, CA01, -121.298, 41.629, 4960, 25.7, M
TEMESCAL (CNF) CALIFORNIA, Riverside, CA06, -117.483, 33.763, 1125, 53.3, M
MOUNT TOM CALIFORNIA, Fresno, CA05, -119.178, 37.376, 9018, 26.7, M
LAS TRAMPAS CALIFORNIA, Contra Costa, CA04, -122.067, 37.834, 1760, 46.3, M
TRINITY CAMP CALIFORNIA, Trinity, CA01, -122.804, 40.786, 3308, 38.6, M
TRIMMER CALIFORNIA, Fresno, CA05, -119.305, 36.911, 1540, 47.0, M
GAYLOR MEADOW CALIFORNIA, Tuolumne, CA05, -119.318, 37.868, 9270, 22.3, M
UHL / HOT SPRINGS, Tulare, CA05, -118.633, 35.889, 3720, 42.8, M
UNDERWOOD CALIFORNIA, Trinity, CA01, -123.495, 40.722, 2600, 42.3, M
VALLEY CENTER CALIFORNIA, San Diego, CA06, -117.009, 33.237, 1483, 51.0, M
VAN BREMMER CALIFORNIA, Siskiyou, CA01, -121.794, 41.643, 4928, 33.0, M
VALYERMO CALIFORNIA, Los Angeles, CA07, -117.851, 34.446, 3780, 43.7, M
VANDENBERG CALIFORNIA, Santa Barbara, CA06, -120.486, 34.759, 1050, 51.4, M
WALKER CALIFORNIA, Mono, CA03, -119.459, 38.565, 5440, 37.0, M
WALKER PASS CALIFORNIA, Kern, CA05, -118.057, 35.665, 5572, 41.1, M
WARM SPRINGS CALIFORNIA, Los Angeles, CA06, -118.579, 34.596, 4930, 44.3, M
WEED AIRPORT CALIFORNIA, Siskiyou, CA01, -122.454, 41.479, 2930, 37.6, M
WESTWOOD CALIFORNIA, Lassen, CA02, -120.900, 40.307, 5800, 30.6, M
WHITE CLOUD CALIFORNIA, Nevada, CA02, -120.837, 39.317, 4320, 40.8, M
WHITTIER HILLS CALIFORNIA, Los Angeles, CA06, -118.010, 33.984, 950, 55.4, M
WHITMORE CALIFORNIA, Shasta, CA02, -121.899, 40.619, 2417, 44.1, M
WILEY RIDGE CALIFORNIA, Ventura, CA06, -118.841, 34.372, 1645, 51.7, M
WOFFORD HEIGHTS CALIFORNIA, Kern, CA05, -118.499, 35.722, 3150, 43.8, M
WOLVERTON CALIFORNIA, Tulare, CA05, -118.703, 36.445, 5240, 44.3, M
WHITAKER PEAK CALIFORNIA, Los Angeles, CA06, -118.740, 34.569, 4120, 44.3, M
WHITE WOLF CALIFORNIA, Tuolumne, CA05, -119.650, 37.851, 8025, 29.8, M
YOLLA BOLLA CALIFORNIA, Trinity, CA01, -123.066, 40.338, 4524, 38.7, M
YUCCA VALLEY CALIFORNIA, San Bernardino, CA07, -116.408, 34.123, 3260, 45.5, M
YUROK CALIFORNIA, Humboldt, CA01, -123.857, 41.290, 495, 45.9, M
HAGAN'S MEADOW, El Dorado, CA03, -119.940, 38.850, 7776, 26.7, 6.10
BLUE LAKES, Alpine, CA05, -119.920, 38.610, 8057, 23.5, 7.50
POISON FLAT, Alpine, CA03, -119.630, 38.510, 7736, 24.5, 5.10
SONORA PASS, Mono, CA03, -119.600, 38.310, 8827, 24.0, 6.10
LEAVITT MEADOWS, Mono, CA03, -119.550, 38.300, 7198, 27.3, 6.00
VIRGINIA LAKES RIDGE, Mono, CA03, -119.230, 38.070, 9445, 24.0, 4.40
LOBDELL LAKE, Mono, CA03, -119.370, 38.440, 9233, 22.5, 3.50
EBBETTS PASS, Alpine, CA03, -119.800, 38.550, 8765, 25.3, 7.90
HEAVENLY VALLEY, El Dorado, CA03, -119.920, 38.920, 8582, 25.2, 5.70
LEAVITT LAKE, Mono, CA03, -119.610, 38.280, 9617, 22.8, 11.10
SPRATT CREEK, Alpine, CA03, -119.820, 38.670, 6115, 31.2, 5.80
MONITOR PASS, Alpine, CA03, -119.610, 38.670, 8310, 26.3, 5.00
BURNSIDE LAKE, Alpine, CA03, -119.890, 38.720, 8129, 21.9, 8.30
SUMMIT MEADOW, Mono, CA03, -119.540, 38.400, 9313, 23.8, 5.40
FORESTDALE CREEK, Alpine, CA03, -119.960, 38.680, 8017, 27.1, 9.00
HORSE MEADOW, Alpine, CA03, -119.890, 38.840, 8557, 25.8, 5.10
CARSON PASS, Alpine, CA02, -119.990, 38.690, 8353, 25.1, 8.20
CROWDER FLAT, Modoc, CA01, -120.750, 41.890, 5170, 30.1, 2.00
CEDAR PASS, Modoc, CA02, -120.300, 41.580, 7030, 27.2, 2.60
DISMAL SWAMP, Modoc, CA03, -120.180, 41.990, 7360, 25.0, 5.20
BENICIA 1.3 W, Solano, CA01, -122.178, 38.075, 304, M, 1.72
SANTA CRUZ 2.6 ESE, Santa Cruz, CA04, -121.991, 36.961, 36, M, 5.72
ADIN MTN, Modoc, CA02, -120.790, 41.240, 6190, 27.0, 4.20
INDEPENDENCE CREEK, Sierra, CA03, -120.280, 39.490, 6456, 27.2, 6.00
INDEPENDENCE CAMP, Sierra, CA03, -120.290, 39.450, 7003, 25.8, 7.20
INDEPENDENCE LAKE, Nevada, CA03, -120.310, 39.430, 8352, 24.7, 10.90
TRUCKEE #2, Placer, CA03, -120.180, 39.300, 6509, 30.2, 8.00
WARD CREEK #3, Placer, CA03, -120.220, 39.140, 6655, 28.6, 10.20
TAHOE CITY CROSS, Placer, CA03, -120.150, 39.170, 6797, 30.8, 8.00
SQUAW VALLEY G.C., Placer, CA03, -120.260, 39.190, 8029, 26.4, 7.00
CSS LAB, Nevada, CA02, -120.370, 39.330, 6855, 29.0, 12.10
RUBICON #2, El Dorado, CA03, -120.130, 39.000, 7689, 28.3, 7.00
ECHO PEAK, El Dorado, CA03, -120.080, 38.850, 7670, 29.0, 10.30
FALLEN LEAF, El Dorado, CA03, -120.050, 38.930, 6236, 29.7, 6.80
GARBERVILLE 1.1 WSW, Humboldt, CA01, -123.810, 40.089, 510, M, 5.61
BARSTOW 0.8 SSE, San Bernardino, CA07, -117.059, 34.867, 2609, M, 0.54
MCOLF CAMP PENDLETON RED BEACH AIRPORT, San Diego, -, -117.456, 33.286, 89, 53.1, 1.70
CAMPO ASOS, San Diego, CA07, -116.468, 32.626, 2641, 43.5, 4.93
Burbank Glendale Pasadena Area, -, -, -, -, -, 52.7, 2.89
Camarillo Area, -, -, -, -, -, 52.6, 2.22
Needles Area, -, -, -, -, -, 54.8, 0.72
Oxnard Area, -, -, -, -, -, M, 2.31
Palm Springs Area, -, -, -, -, -, 56.3, 1.33
Riverside Area, -, -, -, -, -, 53.3, 1.93
Ramona Area, -, -, -, -, -, 47.7, 4.81
Northern CA 8 Station Index, -, -, -, -, -, M, 8.83
San Joaquin 5 Station Index, -, -, -, -, -, M, 6.92
Crescent City Area, -, -, -, -, -, 45.3, 5.31
Escondido Area, -, -, -, -, -, 54.0, 2.91
Sacramento Downtown Area, -, -, -, -, -, 49.7, 3.88
Tahoe City Area, -, -, -, -, -, 27.3, 6.55
Ukiah Area, -, -, -, -, -, 45.8, 4.48
Alturas Area, -, -, -, -, -, 29.7, 0.73
Mount Shasta Area, -, -, -, -, -, 35.5, 4.84
Palmdale Area, -, -, -, -, -, 44.6, 0.69
Lancaster Area, -, -, -, -, -, 44.1, 1.32
El Cajon Area, -, -, -, -, -, 53.2, 3.80
Hanford Area, -, -, -, -, -, 47.1, 0.96
El Centro Area, -, -, -, -, -, 55.2, 0.64
Madera Area, -, -, -, -, -, 47.6, 1.44
Merced Area, -, -, -, -, -, 47.6, 1.94
San Jose Area, -, -, -, -, -, 50.7, 3.15