Name, County, ClimateDivision, Longitude, Latitude, Elevation, MeanAvgTemperature, TotalPrecipitation
IMPERIAL, Imperial, CA07, -115.567, 32.849, -64, 58.7, 0.18
EL CAPITAN DAM, San Diego, CA06, -116.815, 32.886, 600, 57.5, 4.57
LAKESIDE 2 E, San Diego, CA06, -116.895, 32.854, 690, M, 3.68
POWAY VALLEY, San Diego, CA06, -117.031, 33.020, 648, 56.8, 4.10
JULIAN CDF, San Diego, CA06, -116.592, 33.076, 4215, 48.7, 4.45
CARLSBAD MCCLELLAN PALOMAR AP, San Diego, CA06, -117.277, 33.130, 313, 59.1, 2.85
HENSHAW DAM, San Diego, CA06, -116.761, 33.237, 2700, 48.6, 3.71
VISTA, San Diego, CA06, -117.232, 33.235, 430, 59.0, 2.31
OCEANSIDE MARINA, San Diego, CA06, -117.395, 33.210, 10, 57.3, 2.68
NILAND, Imperial, CA07, -115.524, 33.278, -60, M, 0.35
BORREGO DESERT PARK, San Diego, CA07, -116.404, 33.256, 810, 61.0, 0.55
PALOMAR MTN OBSERVATORY, San Diego, CA06, -116.840, 33.378, 5550, 47.0, 3.14
MECCA FIRE STATION, Riverside, CA07, -116.073, 33.570, -183, 60.8, 0.14
LAGUNA BEACH, Orange, CA06, -117.781, 33.545, 44, M, 0.87
BLYTHE ASOS, Riverside, CA07, -114.715, 33.619, 395, 60.6, 0.29
DESERT RESORTS REGIONAL AP, Riverside, CA07, -116.164, 33.632, -118, 57.9, 0.26
BARSTOW-DAGGETT AIRPORT, San Bernardino, CA07, -116.787, 34.854, 1919, 53.5, 0.28
MERCED, Merced, CA05, -120.516, 37.289, 154, 50.6, 1.06
SAN DIEGO MONTGOMERY FIELD, San Diego, CA06, -117.137, 32.815, 418, 58.7, 3.08
SAN DIEGO INTERNATIONAL AP, San Diego, CA06, -117.183, 32.734, 15, 60.2, 3.12
SAN DIEGO MIRAMAR NAS, San Diego, CA06, -117.133, 32.867, 477, 58.7, 3.39
NORTH ISLAND NAS, San Diego, CA06, -117.210, 32.692, 14, 62.8, 3.08
SAN FRANCISCO INTERNATIONAL AP, San Mateo, CA04, -122.366, 37.620, 10, 53.8, 1.55
SAN LUIS OBISPO MCCHESNEY FIELD, San Luis Obispo, CA04, -120.644, 35.238, 183, 56.3, 2.75
CEDARVILLE, Modoc, CA03, -120.179, 41.530, 4688, 36.5, 0.64
CHICO UNIVERSITY FARM, Butte, CA02, -121.821, 39.691, 185, 51.9, 1.59
CHULA VISTA, San Diego, CA06, -117.086, 32.640, 56, 59.3, 3.71
COLFAX, Placer, CA02, -120.947, 39.090, 2373, 50.7, 1.78
CUYAMACA, San Diego, CA06, -116.587, 32.990, 4640, 46.0, 5.86
DAVIS 2 WSW EXP FARM, Yolo, CA02, -121.776, 38.535, 60, 51.2, 1.22
DEATH VALLEY NATIONAL PARK, Inyo, CA07, -116.867, 36.463, -194, 60.4, 0.01
FAIRMONT, Los Angeles, CA07, -118.430, 34.705, 3060, 51.2, 1.42
FORT BRAGG 5 N, Mendocino, CA01, -123.756, 39.510, 123, 48.4, 4.47
HANFORD 1 S, Kings, CA05, -119.637, 36.316, 237, 51.4, 0.80
HAPPY CAMP RANGER STATION, Siskiyou, CA01, -123.375, 41.796, 1142, 43.1, 8.16
HEALDSBURG, Sonoma, CA01, -122.866, 38.629, 177, 51.4, 3.09
INDIO FIRE STATION, Riverside, CA07, -116.215, 33.709, -21, 61.2, 0.32
LEMON COVE, Tulare, CA05, -119.026, 36.382, 513, 52.8, 1.07
LIVERMORE, Alameda, CA04, -121.751, 37.682, 529, 51.8, 0.93
LODI, San Joaquin, CA05, -121.288, 38.106, 40, 50.4, 1.19
MERCED MUNICIPAL AP, Merced, CA05, -120.518, 37.286, 152, 52.3, 0.88
NAPA STATE HOSPITAL, Napa, CA01, -122.265, 38.278, 35, 51.9, 1.55
OJAI, Ventura, CA06, -119.227, 34.448, 745, 52.8, 1.78
ORLAND, Glenn, CA02, -122.200, 39.746, 254, 51.3, 2.68
ORLEANS, Humboldt, CA01, -123.532, 41.309, 403, 47.6, 5.05
PASADENA, Los Angeles, CA06, -118.145, 34.148, 864, 61.1, 2.55
PASO ROBLES, San Luis Obispo, CA04, -120.685, 35.628, 730, 51.3, 1.93
PETALUMA AIRPORT, Sonoma, CA01, -122.608, 38.258, 20, 50.4, 1.62
QUINCY, Plumas, CA02, -120.947, 39.937, 3420, 38.6, 1.50
REDLANDS, San Bernardino, CA06, -117.195, 34.037, 1410, 57.4, 1.19
SANTA BARBARA, Santa Barbara, CA06, -119.684, 34.417, 16, 57.3, 1.99
SANTA CRUZ, Santa Cruz, CA04, -122.000, 36.988, 70, 52.4, 2.54
SANTA ROSA, Sonoma, CA01, -122.713, 38.456, 166, 52.2, 2.07
TAHOE CITY, Placer, CA03, -120.143, 39.168, 6230, 35.7, 0.96
UKIAH, Mendocino, CA01, -123.210, 39.147, 636, 49.9, 2.37
WASCO, Kern, CA05, -119.352, 35.589, 291, 55.6, 1.06
WEAVERVILLE, Trinity, CA01, -122.940, 40.737, 2058, 42.9, 3.02
WILLOWS 6 W, Glenn, CA02, -122.305, 39.523, 234, 51.7, 2.67
YOSEMITE PARK HEADQUARTERS, Mariposa, CA05, -119.590, 37.750, 4018, 42.6, 1.07
YREKA, Siskiyou, CA01, -122.641, 41.703, 2709, 40.1, 1.13
BERKELEY, Alameda, CA04, -122.260, 37.874, 310, 54.3, 1.19
BLYTHE, Riverside, CA07, -114.597, 33.613, 268, 61.8, 0.00
EUREKA WFO WOODLEY ISLAND, Humboldt, CA01, -124.160, 40.810, 20, 48.8, 3.86
INDEPENDENCE, Inyo, CA07, -118.204, 36.798, 3950, 46.7, 0.42
SAN LUIS OBISPO POLY, San Luis Obispo, CA04, -120.662, 35.306, 308, 58.3, 3.20
BURNEY, Shasta, CA02, -121.655, 40.880, 3198, 38.0, 1.10
IMPERIAL BEACH REAM FIELD NAS, San Diego, CA06, -117.117, 32.568, 24, 60.6, T
CAMPO, San Diego, CA06, -116.470, 32.626, 2630, 51.3, 3.39
EL CENTRO 2 SSW, Imperial, CA07, -115.562, 32.767, -30, 63.3, 0.13
IMPERIAL COUNTY AP, Imperial, CA07, -115.577, 32.835, -55, 61.0, 0.13
EL CENTRO NAF, Imperial, CA07, -115.664, 32.832, -46, M, 0.00
ALPINE, San Diego, CA06, -116.777, 32.836, 1695, 56.7, 5.00
DEEP CANYON LAB, Riverside, CA07, -116.376, 33.651, 1200, M, 0.36
ELSINORE, Riverside, CA06, -117.346, 33.686, 1268, 57.8, 1.37
SANTA ANA JOHN WAYNE AP, Orange, CA06, -117.867, 33.680, 43, 59.8, 1.22
HAYFIELD PUMPING PLANT, Riverside, CA07, -115.629, 33.704, 1370, 56.4, 0.22
IDYLLWILD FIRE DEPT, Riverside, CA06, -116.707, 33.757, 5380, 45.4, 3.60
SAN JACINTO, Riverside, CA06, -116.975, 33.797, 1525, 56.8, 2.47
HEMET, Riverside, CA06, -116.894, 33.738, 1811, 55.7, 2.13
SANTA ANA FIRE STATION, Orange, CA06, -117.867, 33.744, 135, 61.0, 1.67
EAGLE MOUNTAIN, Riverside, CA07, -115.451, 33.809, 973, 59.2, 0.18
PALM SPRINGS, Riverside, CA07, -116.510, 33.828, 425, 63.8, 0.16
LONG BEACH DAUGHERTY AP, Los Angeles, CA06, -118.147, 33.812, 34, 59.5, 1.25
PALOS VERDES ES FC43D, Los Angeles, CA06, -118.391, 33.800, 220, M, 1.90
FULLERTON MUNICIPAL AP, Orange, CA06, -117.986, 33.872, 86, 61.1, 1.20
BEAUMONT #2, Riverside, CA07, -116.990, 33.926, 2591, M, 2.82
MARCH AFB, Riverside, CA06, -117.250, 33.900, 1536, 53.3, 1.29
YORBA LINDA, Orange, CA06, -117.819, 33.890, 350, M, 0.00
DOWNEY FIRE DEPT. FC107C, Los Angeles, CA06, -118.145, 33.930, 110, M, 1.33
HAWTHORNE MUNICIPAL AP, Los Angeles, CA06, -118.333, 33.924, 55, 61.6, 1.31
LOS ANGELES INTL AP, Los Angeles, CA06, -118.387, 33.938, 97, 59.1, 1.69
RIVERSIDE FIRE STATION 3, Riverside, CA06, -117.388, 33.951, 840, 59.5, 1.05
RIVERSIDE MUNICIPAL AP, Riverside, CA06, -117.435, 33.953, 845, 58.5, 1.28
CHINO AP, San Bernardino, CA06, -117.625, 33.976, 636, 56.1, 1.01
WHITTIER CITY YARD FC106C, Los Angeles, CA06, -118.022, 33.976, 446, M, 1.21
CULVER CITY, Los Angeles, CA06, -118.414, 34.005, 92, 60.0, 0.02
SANTA MONICA MUNICIPAL AP, Los Angeles, CA06, -118.447, 34.021, 175, 59.3, 1.61
SANTA MONICA PIER, Los Angeles, CA06, -118.500, 34.008, 14, M, 0.49
ONTARIO INTL AP, San Bernardino, CA06, -117.577, 34.053, 924, 57.3, 1.46
POMONA/FAIRPLEX, Los Angeles, CA06, -117.766, 34.082, 999, 57.1, 0.61
COVINA CITY YARD FC387B, Los Angeles, CA06, -117.880, 34.092, 607, M, 1.61
U C L A, Los Angeles, CA06, -118.443, 34.070, 430, 61.9, 2.36
TOPANGA PATROL FC-6, Los Angeles, CA06, -118.599, 34.084, 745, M, 2.04
IRON MOUNTAIN, San Bernardino, CA07, -115.122, 34.147, 922, 60.9, 0.16
TWENTYNINE PALMS, San Bernardino, CA07, -116.037, 34.128, 1975, 56.0, 0.04
JOSHUA TREE, San Bernardino, CA07, -116.275, 34.147, 2563, 53.3, 0.19
SAN DIMAS FIRE FC 95, Los Angeles, CA06, -117.802, 34.105, 958, M, 1.90
SAN GABRIEL FIRE DEPT, Los Angeles, CA06, -118.100, 34.084, 363, M, 2.05
POINT MUGU NF, Ventura, CA06, -119.123, 34.124, 12, 56.4, 0.49
ALTADENA, Los Angeles, CA06, -118.138, 34.182, 1127, M, 2.00
SAN GABRIEL CANYON PH, Los Angeles, CA06, -117.908, 34.155, 744, 61.7, 1.76
WOODLAND HILLS PIERCE COLLEGE, Los Angeles, CA06, -118.574, 34.182, 790, 57.6, 1.74
LYTLE CREEK R S, San Bernardino, CA06, -117.471, 34.238, 2730, M, 0.00
SAN GABRIEL DAM FC425B-E, Los Angeles, CA06, -117.861, 34.205, 1481, M, 1.85
MT WILSON CBS, Los Angeles, CA06, -118.071, 34.231, 5710, 48.9, 0.87
VAN NUYS AP, Los Angeles, CA06, -118.491, 34.212, 785, 56.3, 2.22
CAMARILLO AP, Ventura, CA06, -119.088, 34.211, 71, 59.7, 1.80
OXNARD VENTURA COUNTY AP, Ventura, CA06, -119.204, 34.200, 39, 59.0, 1.45
PARKER RESRVOIR, San Bernardino, CA07, -114.171, 34.290, 738, 62.2, 0.72
TWENTYNINE PALMS MC, San Bernardino, CA07, -116.147, 34.294, 2003, M, 0.03
BIG BEAR LAKE, San Bernardino, CA06, -116.917, 34.243, 6753, 39.2, 1.14
LAKE ARROWHEAD, San Bernardino, CA07, -117.188, 34.247, 5205, M, 0.20
CHATSWORTH FC 24 F, Los Angeles, CA06, -118.600, 34.250, 950, M, 2.75
CRYSTAL LAKE FC238C, Los Angeles, CA06, -117.842, 34.318, 5345, M, 2.66
BIG TUJUNGA DAM FC46, Los Angeles, CA06, -118.188, 34.295, 2326, M, 1.95
PACOIMA DAM FC33A-E, Los Angeles, CA06, -118.400, 34.329, 1550, M, 1.66
PIRU 2 ESE, Ventura, CA06, -118.757, 34.406, 712, M, 0.32
SANTA BARBARA MUNI AP, Santa Barbara, CA06, -119.842, 34.424, 8, 54.7, 3.03
JUNCAL DAM, Santa Barbara, CA06, -119.507, 34.491, 2260, M, 2.47
VICTORVILLE, San Bernardino, CA07, -117.293, 34.529, 2880, 47.7, 0.64
ACTON ESCONDIDO FC261, Los Angeles, CA06, -118.271, 34.494, 2833, M, 1.64
GIBRALTAR DAM NO. 2, Santa Barbara, CA06, -119.682, 34.523, 1558, M, 2.26
AMBOY, San Bernardino, CA07, -115.744, 34.559, 648, 59.1, 0.06
PALMDALE, Los Angeles, CA07, -118.094, 34.588, 2612, 51.2, 0.38
SAUGUS POWER PLANT 1, Los Angeles, CA06, -118.454, 34.590, 2161, 52.4, 1.62
LOS PRIETOS RS, Santa Barbara, CA06, -119.791, 34.544, 1024, M, 0.75
CACHUMA LAKE, Santa Barbara, CA06, -119.982, 34.582, 789, 54.1, 2.81
SALSIPUEDES GAGING STATION, Santa Barbara, CA06, -120.408, 34.585, 254, M, 2.41
PALMDALE AP, Los Angeles, CA07, -118.083, 34.629, 2509, 49.9, 0.45
LOMPOC, Santa Barbara, CA06, -120.451, 34.654, 75, 55.7, 1.95
LANCASTER, Los Angeles, CA06, -118.213, 34.741, 2338, 48.9, 0.57
SANDBERG, Los Angeles, CA06, -118.724, 34.744, 4510, 46.3, 1.49
LEBEC, Kern, CA05, -118.865, 34.833, 3575, 46.0, 0.92
NEW CUYAMA FIRE STATION, Santa Barbara, CA06, -119.683, 34.946, 2160, 50.2, 0.76
TWITCHELL DAM, Santa Barbara, CA06, -120.321, 34.988, 582, 57.6, 1.96
TEHACHAPI AP, Kern, CA05, -118.432, 35.131, 3960, 45.3, 0.45
PISMO BEACH, San Luis Obispo, CA04, -120.683, 35.160, 39, 55.4, 2.41
BAKER, San Bernardino, CA07, -116.063, 35.276, 962, 54.1, 0.41
SALINAS DAM, San Luis Obispo, CA04, -120.504, 35.337, 1392, 52.6, 3.02
RANDSBURG, Kern, CA07, -117.652, 35.369, 3570, 49.4, 0.29
SANTA MARGARITA BOOST, San Luis Obispo, CA04, -120.637, 35.374, 1148, 53.9, 4.10
MORRO BAY FIRE DEPT, San Luis Obispo, CA04, -120.845, 35.367, 118, 58.7, 2.60
BAKERSFIELD AP, Kern, CA05, -119.055, 35.434, 490, 53.3, 0.76
BUTTONWILLOW, Kern, CA05, -119.470, 35.403, 225, 53.5, 1.01
GLENNVILLE, Kern, CA05, -118.701, 35.727, 3140, 45.0, 1.17
TRONA, San Bernardino, CA07, -117.391, 35.764, 1695, 52.6, 0.23
DELANO, Kern, CA05, -119.260, 35.768, 302, 52.4, 0.89
BRADLEY TELEMETERING, Monterey, CA04, -120.868, 35.930, 443, M, 1.72
PORTERVILLE MUNICIPAL AIRPORT, Tulare, CA05, -119.062, 36.029, 442, 52.1, 0.66
KETTLEMAN CITY, Kings, CA05, -119.960, 36.007, 240, 51.0, 1.10
HAIWEE, Inyo, CA07, -117.953, 36.139, 3825, 48.4, 0.44
CORCORAN IRRIGATION DIST., Kings, CA05, -119.582, 36.098, 200, 50.9, 1.23
COALINGA, Fresno, CA05, -120.361, 36.136, 670, 53.4, 0.98
PRIEST VALLEY, Monterey, CA04, -120.695, 36.188, 2300, 44.3, 2.62
KING CITY, Monterey, CA04, -121.138, 36.207, 320, 53.1, 1.42
LINDSAY, Tulare, CA05, -119.054, 36.203, 435, 51.3, 1.08
BIG SUR STATION, Monterey, CA04, -121.780, 36.247, 200, 53.0, 2.84
VISALIA, Tulare, CA05, -119.300, 36.328, 303, 53.4, 0.37
FIVE POINTS 5 SSW, Fresno, CA05, -120.156, 36.364, 285, 52.2, 0.72
SAN CLEMENTE DAM, Monterey, CA04, -121.709, 36.438, 600, M, 1.59
ASH MOUNTAIN, Tulare, CA05, -118.825, 36.491, 1708, 51.6, 1.69
THREE RIVERS EDISON PH 1, Tulare, CA05, -118.862, 36.465, 1140, 51.3, 1.44
PINNACLES NATIONAL PARK, San Benito, CA04, -121.182, 36.482, 1307, 50.4, 1.81
CARMEL VALLEY, Monterey, CA04, -121.724, 36.481, 480, 52.6, 1.32
LODGEPOLE, Tulare, CA05, -118.732, 36.604, 6735, 31.7, 2.02
PANOCHE 2 W, San Benito, CA05, -120.884, 36.607, 1400, M, 0.89
MONTEREY, Monterey, CA04, -121.855, 36.593, 122, 53.3, 2.12
SALINAS NO. 2, Monterey, CA04, -121.666, 36.659, 45, 53.4, 2.02
SALINAS AP, Monterey, CA04, -121.609, 36.664, 73, 54.4, 1.78
GRANT GROVE, Tulare, CA05, -118.962, 36.738, 6580, 38.7, 2.68
PINE FLAT DAM, Fresno, CA05, -119.337, 36.821, 615, 52.0, 1.15
LOS BANOS ARBURUA RANCH, Merced, CA05, -120.939, 36.875, 843, M, 0.58
HOLLISTER 2, San Benito, CA04, -121.421, 36.848, 275, 51.5, 1.43
BALCH POWER HOUSE, Fresno, CA05, -119.088, 36.909, 1735, 48.4, 1.61
WATSONVILLE WATERWORKS, Santa Cruz, CA04, -121.769, 36.931, 95, 53.2, 2.10
FRIANT GOVERNMENT CAMP, Fresno, CA05, -119.707, 36.997, 410, 52.5, 1.07
MADERA, Madera, CA05, -120.038, 36.954, 270, 51.1, 0.81
WISHON DAM, Fresno, CA05, -118.984, 37.007, 6550, 43.0, 1.59
GILROY, Santa Clara, CA04, -121.561, 37.003, 194, 53.7, 1.53
AUBERRY 2 NW, Fresno, CA05, -119.513, 37.092, 2090, 49.9, 1.37
LOS BANOS, Merced, CA05, -120.867, 37.056, 120, 52.5, 0.88
BEN LOMOND NO. 4, Santa Cruz, CA04, -122.080, 37.086, 420, 53.5, 4.01
MORGAN HILL, Santa Clara, CA04, -121.602, 37.136, 375, M, M
ASPENDELL, Inyo, CA01, -118.599, 37.232, 8470, 35.1, 0.58
HUNTINGTON LAKE, Fresno, CA05, -119.221, 37.228, 7020, M, 1.08
NORTH FORK RS, Madera, CA05, -119.510, 37.233, 2645, 47.8, 1.49
LOS GATOS, Santa Clara, CA04, -121.959, 37.232, 365, 51.4, 1.30
NEWMAN, Stanislaus, CA05, -121.018, 37.281, 90, 53.9, 0.97
MOUNT HAMILTON, Santa Clara, CA04, -121.635, 37.343, 4220, 43.8, 1.76
BISHOP AIRPORT, Inyo, CA07, -118.359, 37.371, 4110, 40.5, 0.14
MOFFETT FEDERAL AIRFIELD, Santa Clara, CA04, -122.048, 37.406, 39, 56.6, 0.61
WOODSIDE FIRE STATION 1, San Mateo, CA04, -122.256, 37.429, 380, 51.9, 2.18
TURLOCK #2, Stanislaus, CA05, -120.846, 37.502, 103, 52.6, 0.48
PALO ALTO, Santa Clara, CA04, -122.140, 37.444, 25, 51.0, 0.77
REDWOOD CITY, San Mateo, CA04, -122.239, 37.477, 31, 52.4, 1.21
HALF MOON BAY, San Mateo, CA04, -122.443, 37.473, 27, 51.7, 1.76
SO ENTRANCE YOSEMITE N.P., Mariposa, CA05, -119.633, 37.512, 5047, 38.9, 1.27
MARIPOSA R S, Mariposa, CA05, -119.986, 37.495, 2100, M, 0.00
NEWARK, Alameda, CA04, -122.032, 37.515, 10, 54.3, 0.67
EXCHEQUER DAM, Mariposa, CA05, -120.267, 37.585, 442, 55.2, 0.81
MODESTO AP, Stanislaus, CA05, -120.955, 37.625, 87, 52.3, 0.72
HAYWARD AIR TERMINAL, Alameda, CA04, -122.121, 37.659, 31, 52.7, 0.88
TRACY CARBONA, San Joaquin, CA05, -121.347, 37.682, 135, 53.7, 0.29
LIVERMORE MUNICIPAL AP, Alameda, CA04, -121.815, 37.693, 393, 51.8, 0.82
OAKLAND INTERNATIONAL AIRPORT, Alameda, CA04, -122.233, 37.718, 5, 56.1, 1.27
UPPER SAN LEANDRO FILTERS, Alameda, CA04, -122.167, 37.772, 394, M, 1.68
SAN FRANCISCO DOWNTOWN, San Francisco, CA04, -122.427, 37.771, 150, 54.6, 1.74
SAN FRANCISCO OCEANSIDE, San Francisco, CA04, -122.505, 37.728, 8, 53.9, 2.88
GROVELAND 2, Tuolumne, CA05, -120.226, 37.844, 2800, 45.5, 1.62
TRACY PUMPING PLANT, Alameda, CA05, -121.583, 37.796, 61, 53.1, 0.97
OAKLAND MUSEUM, Alameda, CA04, -122.264, 37.798, 30, 56.0, 0.89
TUOLUMNE MEADOWS R.S., Tuolumne, CA05, -119.344, 37.877, 8694, 31.0, 0.32
MOUNT DIABLO JUNCTION, Contra Costa, CA04, -121.930, 37.879, 2170, 49.9, 1.32
STOCKTON AP, San Joaquin, CA05, -121.226, 37.890, 27, 51.0, 0.75
RICHMOND, Contra Costa, CA04, -122.377, 37.919, 20, 55.0, 1.18
MUIR WOODS, Marin, CA01, -122.569, 37.898, 220, M, 2.51
HETCH HETCHY, Tuolumne, CA05, -119.783, 37.961, 3870, 43.5, 1.82
CHERRY VALLEY DAM, Tuolumne, CA05, -119.916, 37.975, 4765, 43.5, 1.71
SONORA, Tuolumne, CA05, -120.387, 37.967, 1675, 48.0, 1.12
STOCKTON FIRE STA 4, San Joaquin, CA05, -121.318, 37.999, 12, 53.9, 1.10
ANTIOCH PUMPING PLANT #3, Contra Costa, CA05, -121.752, 37.983, 60, 56.3, M
CONCORD BUCHANAN FIELD, Contra Costa, CA04, -122.053, 37.992, 23, 52.0, 0.77
CONCORD WASTEWATER PLANT, Contra Costa, CA04, -122.069, 37.983, 40, 53.7, 0.87
SAN RAFAEL-CIVIC CENTER, Marin, CA01, -122.537, 37.998, 120, 53.7, 1.33
KENTFIELD, Marin, CA01, -122.545, 37.957, 145, 51.5, 3.51
MARTINEZ WATER PLANT, Contra Costa, CA04, -122.114, 38.013, 40, 49.2, 1.08
BODIE CALIFORNIA STATE HISTORIC PARK, Mono, CA03, -119.014, 38.212, 8370, 28.2, 0.33
ACAMPO 5NE, San Joaquin, CA05, -121.201, 38.218, 87, M, 1.14
NAPA COUNTY AIRPORT, Napa, CA04, -122.280, 38.208, 16, 49.6, 2.23
BRIDGEPORT, Mono, CA03, -119.229, 38.258, 6470, 34.4, 0.21
CALAVERAS BIG TREES, Calaveras, CA05, -120.311, 38.277, 4695, 40.6, 1.82
CAMP PARDEE, Calaveras, CA05, -120.843, 38.249, 658, 52.6, 0.87
TRAVIS FIELD AFB, Solano, CA02, -121.933, 38.267, 62, M, 1.81
FAIRFIELD, Solano, CA02, -122.068, 38.274, 40, 52.3, 1.25
SONOMA, Sonoma, CA01, -122.462, 38.299, 97, 50.1, 1.93
SUTTER HILL CDF, Amador, CA05, -120.801, 38.377, 1586, 53.1, 1.16
GRATON, Sonoma, CA01, -122.865, 38.431, 200, 50.6, 3.24
OCCIDENTAL, Sonoma, CA01, -122.966, 38.386, 865, 50.7, 3.66
FIDDLETOWN DEXTER RCH, Amador, CA05, -120.698, 38.525, 2170, M, 1.99
SACRAMENTO AP ASOS, Sacramento, CA02, -121.496, 38.507, 19, 51.5, 0.74
WINTERS, Yolo, CA02, -121.978, 38.525, 135, 52.5, 1.46
LAKE SOLANO, Solano, CA02, -122.004, 38.492, 187, 50.5, 1.54
SAINT HELENA, Napa, CA01, -122.471, 38.507, 225, 51.6, 2.58
SAINT HELENA 4 WSW, Napa, CA01, -122.538, 38.493, 1780, M, 1.84
FORT ROSS, Sonoma, CA01, -123.245, 38.515, 112, 51.4, 3.20
SACRAMENTO 5 ESE, Sacramento, CA02, -121.418, 38.555, 38, 53.1, 0.87
ANGWIN PACIFIC UNION COLLEGE, Napa, CA01, -122.440, 38.573, 1715, 47.9, 2.74
CALISTOGA, Napa, CA01, -122.578, 38.577, 350, 49.2, 3.76
VENADO, Sonoma, CA01, -123.018, 38.609, 1260, M, 5.20
WOODLAND 1 WNW, Yolo, CA02, -121.794, 38.683, 67, 52.3, 1.13
PLACERVILLE IFG, El Dorado, CA02, -120.733, 38.733, 2755, 48.9, 1.00
REPRESA, Sacramento, CA02, -121.161, 38.694, 295, M, 2.29
SACRAMENTO METROPOLITAN AP, Sacramento, CA02, -121.595, 38.701, 24, 50.9, 0.94
PACIFIC HOUSE, El Dorado, CA02, -120.503, 38.758, 3450, 40.8, 2.42
MIDDLETOWN, Lake, CA02, -122.626, 38.748, 1121, M, 3.29
CLOVERDALE, Sonoma, CA01, -123.026, 38.793, 400, 52.3, 3.22
KELSEY 1 N, El Dorado, CA02, -120.821, 38.809, 2000, M, 1.33
SOUTH LAKE TAHOE AP, El Dorado, CA03, -119.996, 38.898, 6257, 37.6, 0.61
GEORGETOWN RS, El Dorado, CA02, -120.801, 38.933, 3001, 47.6, 2.36
AUBURN, Placer, CA02, -121.084, 38.907, 1292, 51.6, 0.84
NICOLAUS #2, Sutter, CA02, -121.545, 38.926, 43, M, 0.93
YORKVILLE, Mendocino, CA01, -123.231, 38.905, 1100, M, 4.04
CLEARLAKE 4 SE, Lake, CA02, -122.567, 38.924, 1349, 48.0, 1.15
FORESTHILL RANGER STATION, Placer, CA02, -120.845, 39.010, 3015, M, 1.98
MARYSVILLE AIRPORT (ASOS), Yuba, CA02, -121.569, 39.102, 62, 51.1, 1.21
UKIAH MUNICIPAL AP, Mendocino, CA01, -123.200, 39.128, 603, 49.3, 2.68
UKIAH 4 WSW, Mendocino, CA01, -123.272, 39.127, 1328, M, 3.74
GOLD RUN 4 SW, Placer, CA02, -120.900, 39.150, 3220, M, 2.71
GRASS VALLEY NO. 2, Nevada, CA02, -121.068, 39.204, 2400, 46.3, 1.99
HARRY L. ENGLEBRIGHT DAM, Nevada, CA02, -121.267, 39.237, 800, M, 1.27
COLUSA 2 SSW, Colusa, CA02, -122.027, 39.188, 50, 50.4, 0.93
BLUE CANYON NYACK AP, Placer, CA02, -120.709, 39.276, 5286, 41.8, 3.12
NEVADA CITY, Nevada, CA02, -121.001, 39.247, 2781, 45.9, 3.02
TRUCKEE AIRPORT, Nevada, CA03, -120.139, 39.320, 5900, 33.6, 1.12
TRUCKEE RS, Nevada, CA03, -120.173, 39.333, 5823, M, 0.63
DONNER MEMORIAL ST PARK, Nevada, CA03, -120.233, 39.324, 5937, 34.2, 1.77
COLGATE POWERHOUSE, Yuba, CA02, -121.192, 39.331, 595, M, 1.26
MOULTON WEIR, Colusa, CA02, -122.017, 39.333, 76, M, 1.76
BOCA, Nevada, CA03, -120.094, 39.389, 5575, 34.9, 1.14
POTTER VALLEY POWERHOUSE, Mendocino, CA01, -123.129, 39.362, 1018, 49.1, 3.76
FARAD, Nevada, CA03, -120.033, 39.428, 5153, M, 0.58
WILLITS 1 NE, Mendocino, CA01, -123.342, 39.419, 1353, 46.4, 3.59
BOWMAN DAM, Nevada, CA02, -120.656, 39.454, 5385, 39.3, 4.55
OROVILLE, Butte, CA02, -121.553, 39.518, 171, 49.6, 1.64
OROVILLE MUNICIPAL AP, Butte, CA02, -121.622, 39.494, 187, 51.0, 1.65
SIERRAVILLE RS, Sierra, CA02, -120.370, 39.583, 4975, 36.2, 0.79
DOWNIEVILLE, Sierra, CA02, -120.824, 39.563, 2915, 41.3, 3.47
STRAWBERRY VALLEY, Yuba, CA02, -121.108, 39.563, 3808, 42.2, 3.56
STONY GORGE RESERVOIR, Glenn, CA02, -122.534, 39.586, 800, 48.3, 1.98
BRUSH CREEK RANGER STATION, Butte, CA02, -121.345, 39.695, 3560, M, 3.26
PARADISE, Butte, CA02, -121.624, 39.754, 1750, 50.9, 2.39
COVELO, Mendocino, CA01, -123.244, 39.816, 1413, 45.6, 2.88
VINTON, Plumas, CA02, -120.186, 39.806, 4950, 38.6, 0.48
PORTOLA, Plumas, CA02, -120.472, 39.805, 4850, 35.3, 1.70
DE SABLA, Butte, CA02, -121.611, 39.872, 2710, 46.4, 2.96
LEGGETT, Mendocino, CA01, -123.720, 39.874, 703, M, 4.04
BUCKS CREEK, Plumas, CA02, -121.315, 39.937, 1891, M, 2.59
DOYLE 4 SSE, Lassen, CA03, -120.083, 39.972, 4390, 37.8, 0.25
DOYLE, Lassen, CA03, -120.105, 40.027, 4293, M, 0.27
CANYON DAM, Plumas, CA02, -121.089, 40.171, 4560, 36.6, 1.52
MIRANDA 4 SE, Humboldt, CA01, -123.776, 40.182, 266, M, 4.28
FORT SEWARD, Humboldt, CA01, -123.632, 40.218, 220, M, 3.68
HONEYDEW 1 SW, Humboldt, CA01, -124.132, 40.238, 373, M, 8.14
CHESTER, Plumas, CA02, -121.242, 40.303, 4530, 37.5, 1.15
MINERAL, Tehama, CA02, -121.609, 40.346, 4875, 36.1, 2.97
COLEMAN FISHERIES STATION, Shasta, CA02, -122.143, 40.400, 420, M, 3.16
VOLTA PH, Shasta, CA02, -121.866, 40.458, 2220, M, 2.32
SCOTIA, Humboldt, CA01, -124.104, 40.483, 136, 51.5, 4.29
MANZANITA LAKE, Shasta, CA02, -121.577, 40.541, 5750, 33.9, 3.23
SHASTA DAM, Shasta, CA02, -122.416, 40.714, 1075, 50.7, 3.59
TRINITY RIVER HATCHERY, Trinity, CA01, -122.795, 40.726, 1861, 44.3, 2.35
BIG BAR 4 E, Trinity, CA01, -123.208, 40.741, 1253, 46.5, 2.95
BUCKHORN, Shasta, CA02, -121.932, 40.880, 3700, M, 4.72
HAT CREEK, Shasta, CA02, -121.543, 40.932, 3015, 40.0, 0.85
PIT RIVER PH 5, Shasta, CA02, -121.977, 40.987, 1458, M, 3.46
WILLOW CREEK 1 NW, Humboldt, CA01, -123.636, 40.947, 464, 48.0, 5.69
FALL RIVER MILLS, Shasta, CA02, -121.435, 41.008, 3300, M, 0.68
ADIN RANGER STATION, Modoc, CA02, -120.945, 41.193, 4202, M, 0.85
DUNSMUIR TREATMENT PL, Siskiyou, CA02, -122.282, 41.183, 2169, 42.3, 5.65
JESS VALLEY, Modoc, CA02, -120.295, 41.268, 5400, 35.3, 1.03
MCCLOUD, Siskiyou, CA02, -122.138, 41.252, 3233, 37.8, 4.16
ORICK, Humboldt, CA01, -124.067, 41.283, 5, M, 5.44
CALLAHAN, Siskiyou, CA01, -122.825, 41.338, 3085, 39.7, 0.82
SAWYERS BAR RS, Siskiyou, CA01, -123.133, 41.301, 2255, 44.1, 2.69
ORLEANS RS, Humboldt, CA01, -123.534, 41.303, 433, M, 5.12
ORICK PRAIRIE CREEK PARK, Humboldt, CA01, -124.019, 41.362, 160, 48.3, 5.53
ALTURAS, Modoc, CA02, -120.544, 41.490, 4378, 37.8, 0.17
FORT JONES RS, Siskiyou, CA01, -122.848, 41.601, 2729, 38.6, 1.10
LAVA BEDS NAT MON, Siskiyou, CA01, -121.501, 41.702, 4770, 37.1, 0.26
MOUNT HEBRON RS, Siskiyou, CA01, -122.045, 41.783, 4265, 37.8, 0.14
CRESCENT CITY 3 NNW, Del Norte, CA01, -124.215, 41.796, 43, 47.1, 8.36
CRESCENT CITY MCNAMARA AP, Del Norte, CA01, -124.238, 41.784, 56, 49.1, 7.15
OAK KNOLL W. C., Siskiyou, CA01, -122.850, 41.839, 1980, M, 1.21
FORT BIDWELL, Modoc, CA03, -120.157, 41.872, 4739, 36.7, 1.07
GASQUET RS, Del Norte, CA01, -123.965, 41.845, 387, 46.1, 10.12
FORT DICK RIVER, Del Norte, CA01, -124.135, 41.881, -, M, 8.72
TULELAKE, Siskiyou, CA01, -121.474, 41.960, 4038, 36.8, 0.58
COPCO NO 1 DAM, Siskiyou, CA01, -122.338, 41.980, 2665, 41.6, 1.94
PACIFICA 4 SSE, San Mateo, CA04, -122.472, 37.592, 475, 52.6, 1.66
BARSTOW, San Bernardino, CA07, -117.022, 34.893, 2220, 50.7, 0.81
PEARBLOSSOM, Los Angeles, CA07, -117.897, 34.503, 3101, 51.3, 0.54
EL CAJON, San Diego, CA06, -116.928, 32.801, 495, 58.8, 3.36
MARKLEY COVE, Napa, CA02, -122.124, 38.492, 480, 51.1, 1.87
SUSANVILLE 2SW, Lassen, CA03, -120.663, 40.417, 4212, 38.4, 0.00
TEJON RANCHO, Kern, CA05, -118.750, 35.023, 1425, 55.3, 1.15
BURBANK GLENDALE PASADENA AP, Los Angeles, CA06, -118.365, 34.200, 731, 57.8, 1.93
CAMINO 2.6 ESE, El Dorado, CA02, -120.634, 38.719, 3108, M, 0.66
TOLLHOUSE 2.8 SSE, Fresno, CA05, -119.396, 36.978, 2111, M, 1.30
ARCATA 2.1 NNW, Humboldt, CA01, -124.095, 40.896, 32, M, 1.43
MONTEREY 1.5 WSW, Monterey, CA04, -121.905, 36.590, 235, M, 1.97
AMERICAN CANYON 3.5 NE, Napa, CA01, -122.217, 38.210, 319, M, 2.06
ROCKLIN 1.1 N, Placer, CA02, -121.244, 38.818, 550, M, 0.76
MORGAN HILL 2.7 S, Santa Clara, CA04, -121.632, 37.092, 338, M, 1.69
SAN JOSE 5.8 NNE, Santa Clara, CA04, -121.824, 37.386, 293, M, 0.70
ENCINITAS 2.7N, San Diego, CA06, -117.292, 33.076, 188, M, 3.15
CARLSBAD 8.7SE, San Diego, CA06, -117.221, 33.095, 605, M, 3.24
ESCONDIDO 7.2 SE, San Diego, CA06, -116.992, 33.056, 1585, M, 3.24
MOUNT SHASTA, Siskiyou, CA02, -122.317, 41.322, 3613, 40.1, 3.46
WATSONVILLE MUNICIPAL AIRPORT, Santa Cruz, CA04, -121.790, 36.939, 162, 53.5, 2.19
SANTA ROSA SONOMA CO AP, Sonoma, CA04, -122.811, 38.504, 119, 50.3, 2.41
LORAINE 5 NNE, Kern, CA05, -118.412, 35.384, 4235, 45.6, 0.87
DEL MAR FIRE DEPT, San Diego, CA06, -117.262, 32.972, 12, M, 0.00
IMPERIAL BEACH FIRE DEPT, San Diego, CA06, -117.114, 32.576, 22, M, 0.00
LEMON GROVE FIRE DEPARTMENT, San Diego, CA06, -117.030, 32.738, 427, 60.8, 1.94
SPRING VALLEY FIRE DEPT, San Diego, CA06, -117.006, 32.710, 270, 52.5, 1.30
LEE VINING, Mono, CA07, -119.119, 37.957, 6797, 38.2, 0.18
ANAHEIM, Orange, CA06, -117.842, 33.865, 235, 61.5, 0.46
RED BLUFF TREATMENT PLANT, Tehama, CA02, -122.220, 40.162, 265, M, 2.97
NEW MELONES DAM HQ, Tuolumne, CA05, -120.486, 38.005, 960, 53.2, 3.00
MAMMOTH LAKES RS, Mono, CA07, -118.962, 37.648, 7804, 33.4, 1.47
FRAZIER PARK 9 SW, Ventura, CA05, -119.104, 34.733, 5169, M, 1.15
MONTEREY WFO, Monterey, CA04, -121.855, 36.593, 122, 51.9, 1.44
SKYLINE RIDGE PRESERVE, San Mateo, CA04, -122.185, 37.313, 2270, 48.0, 2.37
FREMONT, Alameda, CA04, -122.016, 37.542, 38, 53.3, 0.71
MAD RIVER 12 SE, Trinity, CA01, -123.374, 40.319, 2763, M, 4.64
NEWHALL 5NW, Los Angeles, CA06, -118.594, 34.393, 1765, 56.9, 1.71
TEHACHAPI 4 SE, Kern, CA05, -118.422, 35.101, 4220, 44.3, 1.68
WRIGHTWOOD, San Bernardino, CA07, -117.639, 34.362, 6000, 33.5, 0.50
REDDING CDF, Shasta, CA02, -122.299, 40.519, 502, M, 2.58
NORTHRIDGE CAL STATE, Los Angeles, CA06, -118.525, 34.245, 904, 58.8, 1.72
OXNARD WFO, Ventura, CA06, -119.137, 34.207, 52, 58.2, 2.13
HANFORD MUNICIPAL AP, Kings, CA05, -119.623, 36.311, 249, 50.2, 0.72
RAMONA AIRPORT, San Diego, CA06, -116.916, 33.038, 1385, 53.2, 3.25
VACAVILLE/NUT TREE AP ASOS, Solano, CA02, -121.959, 38.378, 104, 50.3, 1.55
ALTURAS MUNICIPAL AP, Modoc, CA02, -120.561, 41.484, 4383, 35.3, 0.72
MADERA MUNICIPAL AP, Madera, CA05, -120.111, 36.985, 251, 51.1, 0.87
BAKERSFIELD 5 NW, Kern, CA05, -119.051, 35.419, 470, 54.1, 0.70
FRESNO 5 NE, Fresno, CA05, -119.709, 36.767, 338, 53.7, 0.47
OCEANSIDE MUNICIPAL AP, San Diego, CA06, -117.350, 33.219, 30, 55.8, 2.33
SAN DIEGO SEAWORLD, San Diego, CA06, -117.231, 32.765, 14, 57.4, 3.11
ARCATA EUREKA AP, Humboldt, CA01, -124.105, 40.978, 211, 48.4, 4.64
NEWPORT BEACH HARBOR, Orange, CA06, -117.884, 33.603, 10, 58.7, 0.85
ESCONDIDO NO. 2, San Diego, CA06, -117.090, 33.121, 600, 58.9, 3.10
REDDING AP, Shasta, CA02, -122.298, 40.515, 501, 49.2, 2.62
AVALON CATALINA AP, Los Angeles, CA06, -118.415, 33.404, 1565, 58.0, 2.64
SANTA MARIA PUBLIC AP, Santa Barbara, CA06, -120.452, 34.894, 243, 54.9, 1.50
MOUNT SHASTA, Siskiyou, CA02, -122.333, 41.333, 3535, 39.3, 2.38
RED BLUFF MUNI AP, Tehama, CA02, -122.255, 40.152, 354, 50.6, 2.96
NEEDLES AIRPORT, San Bernardino, CA07, -114.618, 34.768, 888, 61.2, 0.31
CHINA LAKE NAF, Kern, CA07, -117.693, 35.688, 2230, 49.1, 0.26
TWENTYNINE PALMS 12E - WONDER VALLEY, San Bernardino, CA07, -115.850, 34.121, 1376, 55.6, 0.19
MORONGO VALLEY NORTH, San Bernardino, CA07, -116.562, 34.086, 3145, 53.4, 0.32
SHAFTER 6E, Kern, CA05, -119.146, 35.487, 404, 50.8, 1.02
TRUCKEE-TAHOE AP, Nevada, CA03, -120.145, 39.318, 5900, 33.5, 1.12
HEARST CASTLE, San Luis Obispo, CA04, -121.168, 35.684, 1526, 55.6, 2.49
GETTY CENTER, Los Angeles, CA06, -118.479, 34.087, 1117, 59.7, 1.08
HESPERIA 2E, San Bernardino, CA07, -117.266, 34.421, 3055, 51.1, 0.79
RANCHO BERNARDO, San Diego, CA06, -117.081, 33.022, 690, 57.7, 3.92
YOUNTVILLE, Napa, CA01, -122.357, 38.395, 95, 51.6, M
APPLE VALLEY #2, San Bernardino, CA07, -117.279, 34.536, 2780, M, 0.00
OCOTILLO WELLS 2W, San Diego, CA07, -116.169, 33.155, 390, 65.7, 0.30
IRVINE RANCH, Orange, CA06, -117.723, 33.720, 540, 58.8, 1.33
MT. LAGUNA #3, San Diego, CA07, -116.419, 32.867, 5920, 45.0, 3.29
AVALON INLAND, Los Angeles, CA06, -118.330, 33.338, 90, 52.5, 3.62
DESERT CENTER 2 NNE, Riverside, CA07, -115.392, 33.738, 747, 54.5, 0.20
TORRANCE AP, Los Angeles, CA06, -118.342, 33.802, 90, 58.2, 0.26
MERCED 23 WSW, Merced, CA05, -120.882, 37.238, 78, 49.8, 0.84
REDDING 12 WNW, Shasta, CA02, -122.607, 40.651, 1418, 47.4, 2.45
STOVEPIPE WELLS 1 SW, Inyo, CA07, -117.145, 36.602, 84, 58.6, 0.02
LOS ANGELES DOWNTOWN/USC, Los Angeles, CA06, -118.291, 34.024, 179, 60.1, 1.58
FRESNO YOSEMITE INT'L, Fresno, CA05, -119.720, 36.780, 334, 53.5, 0.67
MONTEREY PENINSUL AP, Monterey, CA04, -121.849, 36.590, 160, 53.0, 1.32
PASO ROBLES MUNICIPAL AP, San Luis Obispo, CA04, -120.629, 35.669, 820, 51.5, 1.74
MONTAGUE SISKIYOU AIRPORT, Siskiyou, CA01, -122.468, 41.774, 2645, 39.5, 0.59
SAN JOSE, Santa Clara, CA04, -121.924, 37.359, 49, 53.5, 0.70
PALM SPRINGS ASOS, Riverside, CA07, -116.504, 33.822, 409, 61.5, 0.42
FILLMORE 2 W, Ventura, CA06, -118.945, 34.409, 495, M, 1.80
SAN DIEGO BROWN FIELD, San Diego, CA06, -116.994, 32.576, 521, 57.9, 3.02
Bakersfield Area, -, -, -, -, -, 53.3, 0.76
Bishop Area, -, -, -, -, -, 40.5, 0.14
Los Angeles Downtown Area, -, -, -, -, -, 60.1, 1.58
Eureka Area, -, -, -, -, -, 48.8, 3.86
Fresno Area, -, -, -, -, -, 53.5, 0.67
Los Angeles Airport Area, -, -, -, -, -, 59.1, 1.69
Long Beach Area, -, -, -, -, -, 59.5, 1.25
Redding Area, -, -, -, -, -, 49.2, 2.62
Sacramento Area, -, -, -, -, -, 51.5, 0.74
San Diego Area, -, -, -, -, -, 60.2, 3.12
Stockton Area, -, -, -, -, -, 51.0, 0.75
San Francisco Airport Area, -, -, -, -, -, 53.8, 1.55
Santa Maria Area, -, -, -, -, -, 54.9, 1.50
CAMP PENDLETON MCAS, San Diego, CA06, -117.355, 33.304, 70, 57.1, 2.29
LEMOORE REEVES NAS, Fresno, CA05, -119.950, 36.333, 232, 51.0, 1.11
MOUNTAIN PASS 1SE, San Bernardino, CA07, -115.531, 35.459, 4777, 43.5, 0.27
ARVIN, Kern, CA05, -118.834, 35.211, 450, 54.3, 0.70
CHIRIACO SUMMIT, Riverside, CA07, -115.721, 33.662, 1706, 56.1, 0.28
EDWARDS AFB NORTH AUXILIARY AIRFIELD, Kern, CA07, -117.865, 34.988, 2283, 47.8, 0.06
FALLBROOK 5 NE, San Diego, CA06, -117.190, 33.439, 1140, 60.0, 2.08
SANTA BARBARA 11 W, Santa Barbara, CA06, -119.880, 34.414, 18, 54.6, 3.11
BODEGA 6 WSW, Sonoma, CA01, -123.075, 38.321, 63, 51.5, 2.26
YOSEMITE VILLAGE 12 W, Mariposa, CA05, -119.821, 37.759, 6620, 40.2, 1.80
YUCCA MESA, San Bernardino, CA07, -116.407, 34.218, 3445, 52.5, 0.14
YUCCA VALLEY, San Bernardino, CA07, -116.388, 34.129, 3249, 50.5, 0.34
JOHNSON VALLEY, San Bernardino, CA07, -116.538, 34.359, 3167, 50.6, 0.07
REDONDO BEACH, Los Angeles, CA06, -118.376, 33.834, 142, M, 1.64
BURBANK VALLEY PUMP PLANT, Los Angeles, CA06, -118.348, 34.187, 655, 57.6, 2.23
PIEDMONT 1.0 SE, Alameda, CA04, -122.216, 37.812, 372, M, 1.11
CASTRO VALLEY 0.5 WSW, Alameda, CA04, -122.069, 37.708, 287, M, 1.59
CASTRO VALLEY 0.4 NNE, Alameda, CA04, -122.059, 37.717, 536, M, 1.48
PLEASANTON 1.8 SSE, Alameda, CA04, -121.875, 37.648, 351, M, 1.19
FREMONT 2.6 ESE, Alameda, CA04, -121.952, 37.515, 30, M, 0.85
BERKELEY 3.8 ESE, Alameda, CA04, -122.230, 37.856, 882, M, 1.91
PLEASANTON 0.4 ESE, Alameda, CA04, -121.881, 37.670, 344, M, 1.36
VOLCANO 5.4 NE, Amador, CA05, -120.560, 38.497, 3488, M, 1.09
VOLCANO 6.4 NE, Amador, CA05, -120.536, 38.499, 3659, M, 1.75
OROVILLE 2.7 ENE, Butte, CA02, -121.518, 39.514, 535, M, 1.95
CHICO 2.8 ESE, Butte, CA02, -121.760, 39.734, 375, M, 1.72
MARTINEZ 0.8 SSE, Contra Costa, CA04, -122.108, 37.990, 252, M, 1.39
PLEASANT HILL 1.2 ESE, Contra Costa, CA04, -122.054, 37.949, 57, M, 0.87
WALNUT CREEK 1.7 SSE, Contra Costa, CA04, -122.034, 37.878, 243, M, 1.39
LAFAYETTE 0.7 E, Contra Costa, CA04, -122.104, 37.894, 248, M, 1.62
CROCKETT 0.7 WNW, Contra Costa, CA04, -122.233, 38.054, 213, M, 1.34
LAFAYETTE 1.9 WSW, Contra Costa, CA04, -122.153, 37.888, 518, M, 1.55
MARTINEZ 2.2 SW, Contra Costa, CA04, -122.138, 37.974, 692, M, 1.51
ANTIOCH 2.2 WSW, Contra Costa, CA05, -121.838, 37.979, 178, M, 1.10
ALAMO 1.0 WSW, Contra Costa, CA04, -122.016, 37.854, 331, M, 1.23
CONCORD 0.8 WNW, Contra Costa, CA04, -122.013, 37.978, 124, M, 0.95
WALNUT CREEK 1.4 SSE, Contra Costa, CA04, -122.028, 37.885, 277, M, 1.18
WALNUT CREEK 1.4 NE, Contra Costa, CA04, -122.023, 37.916, 156, M, 0.37
ANTIOCH 2.2 SSE, Contra Costa, CA05, -121.781, 37.959, 245, M, 0.85
WALLACE 0.3 NE, Calaveras, CA05, -120.973, 38.197, 298, M, 1.17
CRESCENT CITY 5.5 NNE, Del Norte, CA01, -124.148, 41.824, 65, M, 8.64
PLACERVILLE 3.7 SW, El Dorado, CA02, -120.849, 38.695, 1755, M, 2.33
CAMERON PARK 0.9 SE, El Dorado, CA05, -120.976, 38.672, 1414, M, 1.31
FAIR PLAY 2.8 ESE, El Dorado, CA05, -120.609, 38.592, 3390, M, 1.89
PLACERVILLE 0.9 NE, El Dorado, CA02, -120.785, 38.739, 2036, M, 1.39
FRESNO 3.4 SSE, Fresno, CA05, -119.811, 36.780, 303, M, 0.30
CLOVIS 2.9 N, Fresno, CA05, -119.693, 36.861, 382, M, 1.08
TOLLHOUSE 2.0 SSE, Fresno, CA05, -119.397, 36.990, 1673, M, 1.52
TOLLHOUSE 6.2 SSE, Fresno, CA05, -119.359, 36.934, 1397, M, 1.37
SANGER 6.8 N, Fresno, CA05, -119.553, 36.798, 418, M, 0.46
FRESNO 4.3 NNW, Fresno, CA05, -119.829, 36.836, 333, M, 1.03
HELM 2.7 NNE, Fresno, CA05, -120.089, 36.570, 183, M, 0.85
ARCATA 1.1 NE, Humboldt, CA01, -124.069, 40.881, 420, M, 2.81
BAYSIDE 1.8 SE, Humboldt, CA01, -124.038, 40.825, 77, M, 4.84
ORICK 5.9 SSW, Humboldt, CA01, -124.103, 41.208, 567, M, 5.89
MCKINLEYVILLE 2.7 SE, Humboldt, CA01, -124.084, 40.923, 325, M, 5.44
MCKINLEYVILLE 7.3 ESE, Humboldt, CA01, -123.998, 40.896, 366, M, 5.76
TRINIDAD 1.5 NNW, Humboldt, CA01, -124.152, 41.078, 201, M, 5.45
HONEYDEW 3.1 WNW, Humboldt, CA01, -124.182, 40.252, 316, M, 7.66
MCKINLEYVILLE 2.3 NE, Humboldt, CA01, -124.086, 40.978, 270, M, 5.25
REDWAY 4.3 W, Humboldt, CA01, -123.901, 40.108, 612, M, 6.16
FORTUNA 1.5 NW, Humboldt, CA01, -124.161, 40.600, 98, M, 4.50
REDWAY 4.8 WNW, Humboldt, CA01, -123.906, 40.139, 1820, M, 5.22
MIRANDA 4.1 SW, Humboldt, CA01, -123.894, 40.209, 539, M, 4.51
BAYVIEW 0.8 SE, Humboldt, CA01, -124.166, 40.756, 176, M, 4.34
FORTUNA 1.3 S, Humboldt, CA01, -124.136, 40.567, 195, M, 5.37
ARCATA 1.4 NNE, Humboldt, CA01, -124.072, 40.887, 289, M, 5.47
WILLOW CREEK 4.5 NNE, Humboldt, CA01, -123.624, 40.939, 655, M, 5.12
EUREKA 0.4 NW, Humboldt, CA01, -124.162, 40.800, 61, M, 1.67
ARCATA 1.0 NW, Humboldt, CA01, -124.096, 40.876, 15, M, 2.31
BRIDGEVILLE 5.2 ENE, Humboldt, CA01, -123.701, 40.473, 2675, M, 8.34
FORTUNA 0.1 NW, Humboldt, CA01, -124.141, 40.587, 65, M, 4.59
GARBERVILLE 2.2 SW, Humboldt, CA01, -123.824, 40.077, 415, M, 4.54
GARBERVILLE 2.9 SW, Humboldt, CA01, -123.830, 40.068, 389, M, 4.82
KNEELAND 4.8 WNW, Humboldt, CA01, -124.080, 40.790, 106, M, 3.85
EUREKA 2.2 S, Humboldt, CA01, -124.148, 40.764, 194, M, 4.34
SHELTER COVE 1.2 ENE, Humboldt, CA01, -124.052, 40.037, 1107, M, 7.42
BISHOP 0.6 SE, Inyo, CA07, -118.388, 37.363, 4140, M, 0.21
BISHOP 8.5 WSW, Inyo, CA07, -118.540, 37.323, 6002, M, 0.27
BISHOP 1.7 NW, Inyo, CA07, -118.414, 37.388, 4181, M, 0.22
LEMOORE 0.9 ESE, Kings, CA05, -119.772, 36.293, 223, M, 0.00
LEMOORE 0.3 SW, Kings, CA05, -119.791, 36.295, 223, M, 0.92
HANFORD 3.6 N, Kings, CA05, -119.653, 36.377, 258, M, 0.88
HANFORD 1.7 WNW, Kings, CA05, -119.674, 36.335, 245, M, 0.83
INYOKERN 9.4 WSW, Kern, CA07, -117.978, 35.635, 4319, M, 0.88
FRAZIER PARK 0.6 WNW, Kern, CA05, -118.955, 34.827, 5023, M, 1.62
PINE MOUNTAIN CLUB 0.9 SSW, Kern, CA05, -119.163, 34.835, 6017, M, 1.87
PINE MOUNTAIN CLUB 1.4 ENE, Kern, CA05, -119.133, 34.850, 5269, M, 2.45
ONYX 2.8 ENE, Kern, CA05, -118.174, 35.702, 3039, M, 0.96
GLENDALE 2.4 WSW, Los Angeles, CA06, -118.295, 34.169, 511, M, 2.05
TORRANCE 2.8 SW, Los Angeles, CA06, -118.337, 33.790, 200, M, 1.94
ALTADENA 0.7 ESE, Los Angeles, CA06, -118.124, 34.187, 1323, M, 2.13
WOODLAND HILLS 2.6 WNW, Los Angeles, CA06, -118.650, 34.181, 894, M, 2.38
MONTE NIDO 0.2 SSW, Los Angeles, CA06, -118.687, 34.079, 682, M, 2.60
SHERMAN OAKS 1.7 ENE, Los Angeles, CA06, -118.420, 34.154, 638, M, 2.61
WHITTIER 2.9 WNW, Los Angeles, CA06, -118.066, 33.986, 171, M, 1.80
REDONDO BEACH 2.6 S, Los Angeles, CA06, -118.377, 33.819, 117, M, 1.75
WINNETKA 0.7 SSE, Los Angeles, CA06, -118.568, 34.203, 768, M, 1.93
SOUTH GATE 1.1 WNW, Los Angeles, CA06, -118.209, 33.951, 108, M, 0.83
CANYON COUNTRY 2.6 E, Los Angeles, CA06, -118.427, 34.427, 1617, M, 1.33
ARCADIA 2.1 NNE, Los Angeles, CA06, -118.028, 34.162, 652, M, 1.85
LAKEPORT 4.5 N, Lake, CA02, -122.909, 39.107, 1437, M, 2.92
LAKEPORT 2.5 N, Lake, CA02, -122.917, 39.079, 1370, M, 2.19
MIDDLETOWN 3.3 SSE, Lake, CA02, -122.603, 38.706, 1273, M, 3.28
LOWER LAKE 4.0 SE, Lake, CA02, -122.564, 38.865, 1585, M, 3.67
SUSANVILLE 3.2 SSW, Lassen, CA03, -120.674, 40.368, 4353, M, 0.66
OAKHURST 7.5 N, Madera, CA05, -119.632, 37.442, 4274, M, 1.81
UKIAH 8.4 NW, Mendocino, CA01, -123.331, 39.221, 2492, M, 3.94
BOONVILLE 2.2 WSW, Mendocino, CA01, -123.408, 39.006, 1061, M, 3.67
ELK 1.8 NNE, Mendocino, CA01, -123.706, 39.105, 147, M, 2.49
UKIAH 1.2 NW, Mendocino, CA01, -123.225, 39.158, 746, M, 3.06
UKIAH 0.6 ESE, Mendocino, CA01, -123.199, 39.141, 601, M, 2.79
HOPLAND 2.4 WNW, Mendocino, CA01, -123.158, 38.984, 574, M, 2.98
WILLITS 6.0 WSW, Mendocino, CA01, -123.450, 39.370, 1873, M, 2.74
REDWOOD VALLEY 1.3 WNW, Mendocino, CA01, -123.227, 39.272, 810, M, 3.26
REDWOOD VALLEY 1.5 ENE, Mendocino, CA01, -123.178, 39.272, 912, M, 2.80
UKIAH 4.3 S, Mendocino, CA01, -123.219, 39.083, 691, M, 3.28
LAYTONVILLE 1.1 SW, Mendocino, CA01, -123.490, 39.672, 1647, M, 4.49
POINT ARENA 4.8 ESE, Mendocino, CA01, -123.610, 38.883, 1048, M, 4.02
LEE VINING 5.9 NW, Mono, CA03, -119.170, 38.034, 7094, M, 0.34
MARIPOSA 3.7 NNW, Mariposa, CA05, -119.988, 37.540, 2942, M, 0.54
MARIPOSA 12.5 E, Mariposa, CA05, -119.742, 37.461, 2952, M, 1.48
LA GRANGE 7.8 ESE, Mariposa, CA05, -120.327, 37.635, 1114, M, 0.73
CATHEYS VALLEY 1.2 S, Mariposa, CA05, -120.100, 37.415, 1172, M, 1.02
WOODACRE 0.6 SW, Marin, CA01, -122.635, 38.005, 439, M, 3.93
SAN ANSELMO 1.2 NNW, Marin, CA01, -122.580, 37.997, 370, M, 3.03
NOVATO 4.8 WNW, Marin, CA01, -122.644, 38.106, 246, M, 3.46
SAN ANSELMO 0.4 NE, Marin, CA01, -122.564, 37.987, 107, M, 2.62
IGNACIO 0.6 SW, Marin, CA01, -122.546, 38.065, 57, M, 2.69
NOVATO 1.4 WNW, Marin, CA01, -122.580, 38.102, 23, M, 2.64
PETALUMA 10.1 W, Marin, CA01, -122.812, 38.248, 119, M, 2.11
DILLON BEACH 0.3 NNE, Marin, CA01, -122.963, 38.256, 366, M, 2.14
TOMALES 1.3 ENE, Marin, CA01, -122.883, 38.251, 128, M, 2.23
SAN RAFAEL 3.9 NW, Marin, CA01, -122.547, 38.027, 72, M, 2.32
MILL VALLEY 1.5 S, Marin, CA01, -122.544, 37.886, 209, M, 2.67
CARMEL VALLEY VILLAGE 0.8 SSW, Monterey, CA04, -121.728, 36.476, 359, M, 1.23
LOCKWOOD 3.6 NW, Monterey, CA04, -121.117, 35.981, 1181, M, 2.63
KING CITY 13.2 S, Monterey, CA04, -121.174, 36.025, 1104, M, 3.14
CASTROVILLE 1.6 ENE, Monterey, CA04, -121.728, 36.776, 18, M, 1.77
MONTEREY 1.5 ESE, Monterey, CA04, -121.856, 36.594, 108, M, 1.44
KING CITY 2.0 SSW, Monterey, CA04, -121.146, 36.187, 371, M, 1.57
PACIFIC GROVE 1.5 SSW, Monterey, CA04, -121.932, 36.602, 280, M, 1.92
BIG SUR 4.0 SE, Monterey, CA04, -121.763, 36.224, 824, M, 2.84
BIG SUR 3.2 SE, Monterey, CA04, -121.769, 36.236, 739, M, 2.14
AROMAS 2.0 SSW, Monterey, CA04, -121.650, 36.850, 344, M, 1.78
CARMEL VALLEY VILLAGE 0.7 SSE, Monterey, CA04, -121.720, 36.476, 446, M, 1.34
CASTROVILLE 1.6 ENE, Monterey, CA04, -121.727, 36.777, 17, M, 1.68
MARINA 0.8 SSE, Monterey, CA04, -121.784, 36.673, 118, M, 1.38
CARMEL VALLEY VILLAGE 5.4 WNW, Monterey, CA04, -121.810, 36.522, 133, M, 1.37
BIG SUR 9.5 NNW, Monterey, CA04, -121.869, 36.398, 1100, M, 2.81
SALINAS 5.9 SSW, Monterey, CA04, -121.671, 36.604, 361, M, 1.34
CALISTOGA 0.4 SSE, Napa, CA01, -122.578, 38.576, 348, M, 2.31
ST. HELENA 1.1 S, Napa, CA01, -122.462, 38.489, 248, M, 2.49
AMERICAN CANYON 0.3 S, Napa, CA01, -122.260, 38.169, 37, M, 0.90
NEVADA CITY 3.4 NNW, Nevada, CA02, -121.040, 39.307, 2390, M, 2.26
KINGVALE 1.3 WSW, Nevada, CA02, -120.452, 39.317, 6035, M, 3.11
GRASS VALLEY 5.5 ESE, Nevada, CA02, -120.963, 39.190, 2763, M, 2.45
GRASS VALLEY 5.0 S, Nevada, CA02, -121.042, 39.149, 2312, M, 1.23
ALTA SIERRA 1.3 S, Nevada, CA02, -121.057, 39.104, 2154, M, 0.08
LAKE OF THE PINES 1.0 WSW, Nevada, CA02, -121.077, 39.032, 1576, M, 1.68
ALTA SIERRA 0.4 WSW, Nevada, CA02, -121.060, 39.120, 2303, M, 1.27
LAKE OF THE PINES 1.3 NNW, Nevada, CA02, -121.070, 39.056, 1528, M, 1.59
NEVADA CITY 5.4 W, Nevada, CA02, -121.121, 39.268, 1982, M, 1.67
ALTA SIERRA 1.4 SSW, Nevada, CA02, -121.058, 39.103, 2057, M, 1.40
GRASS VALLEY 0.5 NNW, Nevada, CA02, -121.059, 39.229, 2669, M, 2.04
LAKE OF THE PINES 4.7 WNW, Nevada, CA02, -121.146, 39.054, 1480, M, 1.05
ORANGE 3.5 ENE, Orange, CA06, -117.770, 33.829, 811, M, 1.52
LAGUNA NIGUEL 0.9 W, Orange, CA06, -117.720, 33.528, 477, M, 1.78
SILVERADO 1.0 ESE, Orange, CA06, -117.620, 33.746, 1394, M, 2.35
LAGUNA BEACH 3.2 SSE, Orange, CA06, -117.739, 33.498, 194, M, 0.62
NEWPORT BEACH 3.1 ESE, Orange, CA06, -117.865, 33.589, 84, M, 1.35
MISSION VIEJO 1.6 ENE, Orange, CA06, -117.627, 33.624, 1018, M, 1.70
MISSION VIEJO 1.3 SSE, Orange, CA06, -117.644, 33.595, 704, M, 1.88
SAN CLEMENTE 2.2 W, Orange, CA06, -117.649, 33.447, 132, M, 0.00
ANAHEIM 4.9 ENE, Orange, CA06, -117.792, 33.863, 298, M, 1.38
SODA SPRINGS 1.5 SSW, Placer, CA02, -120.384, 39.302, 6887, M, 4.72
LINCOLN 0.9 SSW, Placer, CA02, -121.322, 38.888, 131, M, 0.04
ROSEVILLE 4.7 WNW, Placer, CA02, -121.377, 38.780, 96, M, 0.74
PENRYN 0.4 SE, Placer, CA02, -121.158, 38.847, 610, M, 1.11
COLFAX 3.1 SW, Placer, CA02, -120.991, 39.061, 2077, M, 1.89
AUBURN 3.1 N, Placer, CA02, -121.068, 38.936, 1528, M, 0.75
NEWCASTLE 1.6 SSE, Placer, CA02, -121.123, 38.851, 800, M, 0.92
LINCOLN 4.3 SSE, Placer, CA02, -121.284, 38.842, 172, M, 0.82
IDYLLWILD 1.8 NW, Riverside, CA06, -116.735, 33.763, 6325, M, 4.13
DESERT HOT SPRINGS 3.0 NW, Riverside, CA07, -116.541, 33.985, 1339, M, 0.33
HEMET 4.1 ENE, Riverside, CA06, -116.920, 33.753, 1698, M, 2.33
CORONA 12.8 SE, Riverside, CA06, -117.428, 33.731, 1404, M, 1.87
LAKE ELSINORE 3.5 WSW, Riverside, CA06, -117.381, 33.657, 1356, M, 2.21
NORCO 1.2 S, Riverside, CA06, -117.548, 33.908, 661, M, 1.30
PERRIS 8.5 WNW, Riverside, CA06, -117.365, 33.826, 1639, M, 1.99
BEAUMONT 2.5 NW, Riverside, CA06, -117.012, 33.954, 2532, M, 2.10
RIVERSIDE 3.8 NW, Riverside, CA06, -117.454, 33.979, 841, M, 1.38
NORCO 2.3 SE, Riverside, CA06, -117.518, 33.906, 1091, M, 1.23
RIVERSIDE 2.6 E, Riverside, CA06, -117.353, 33.935, 1301, M, 1.01
CARMICHAEL 1.6 SW, Sacramento, CA02, -121.340, 38.617, 102, M, 0.43
SACRAMENTO 8.0 NE, Sacramento, CA02, -121.361, 38.635, 95, M, 1.01
FOLSOM 3.4 ESE, Sacramento, CA05, -121.091, 38.655, 594, M, 1.16
CARMICHAEL 0.9 NE, Sacramento, CA02, -121.306, 38.643, 130, M, 0.99
CARMICHAEL 1.4 W, Sacramento, CA02, -121.345, 38.638, 109, M, 0.90
FOLSOM 1.2 SSE, Sacramento, CA02, -121.140, 38.660, 362, M, 1.04
CARMICHAEL 0.9 S, Sacramento, CA02, -121.319, 38.621, 108, M, 0.42
FOLSOM 2.4 SW, Sacramento, CA02, -121.176, 38.651, 194, M, 1.02
SACRAMENTO 13.7 SE, Sacramento, CA05, -121.283, 38.456, 97, M, 1.10
SACRAMENTO 2.0 SE, Sacramento, CA02, -121.437, 38.550, 34, M, 1.00
SACRAMENTO 4.1 NE, Sacramento, CA02, -121.412, 38.609, 46, M, 0.85
SACRAMENTO 5.7 SSE, Sacramento, CA02, -121.419, 38.493, 28, M, 0.74
FOLSOM 0.6 NE, Sacramento, CA02, -121.138, 38.682, 399, M, 0.98
LA RIVIERA 1.0 NE, Sacramento, CA02, -121.340, 38.575, 64, M, 0.83
GOLETA 3.7 WNW, Santa Barbara, CA06, -119.896, 34.440, 158, M, 3.04
BUELLTON 0.3 SSW, Santa Barbara, CA06, -120.204, 34.622, 421, M, 3.22
SANTA BARBARA 1.9 NE, Santa Barbara, CA06, -119.700, 34.450, 811, M, 2.01
MOUNTAIN VIEW 1.2 S, Santa Clara, CA04, -122.075, 37.385, 109, M, 0.79
SUNNYVALE 1.9 SE, Santa Clara, CA04, -122.004, 37.365, 85, M, 0.86
SAN JOSE 5.4 SW, Santa Clara, CA04, -121.775, 37.305, 223, M, 1.26
MONTE SERENO 0.4 SSW, Santa Clara, CA04, -121.990, 37.232, 467, M, 1.70
SAN JOSE 4.6 NE, Santa Clara, CA04, -121.795, 37.354, 318, M, 1.01
LOS ALTOS 0.6 NNW, Santa Clara, CA04, -122.100, 37.378, 156, M, 0.85
SAN JOSE 2.7 SSW, Santa Clara, CA04, -121.876, 37.271, 162, M, 0.69
CAMBRIAN PARK 2.2 SE, Santa Clara, CA04, -121.897, 37.234, 252, M, 1.24
SAN JOSE 3.5 ENE, Santa Clara, CA04, -121.789, 37.319, 200, M, 1.03
SAN JOSE 2.3 SSW, Santa Clara, CA04, -121.866, 37.273, 161, M, 0.81
SARATOGA 0.5 N, Santa Clara, CA04, -122.023, 37.275, 373, M, 1.40
PALO ALTO 1.2 NE, Santa Clara, CA04, -122.149, 37.452, 32, M, 0.85
SAN JOSE 3.0 WSW, Santa Clara, CA04, -121.927, 37.309, 159, M, 0.97
LOS GATOS 6.1 S, Santa Clara, CA04, -121.972, 37.143, 1732, M, 3.29
PALO ALTO 0.8 NNE, Santa Clara, CA04, -122.135, 37.410, 60, M, 0.74
SAN JOSE 6.2 W, Santa Clara, CA04, -121.961, 37.319, 139, M, 1.00
SANTA CLARA 3.1 ESE, Santa Clara, CA04, -121.911, 37.356, 61, M, 0.47
LOS GATOS 5.4 SSW, Santa Clara, CA04, -121.988, 37.156, 1662, M, 2.93
SAN MARCOS 2.5 ENE, San Diego, CA06, -117.132, 33.147, 666, M, 3.08
IMPERIAL BEACH 3.3 E, San Diego, CA06, -117.062, 32.574, 138, M, 2.91
OCEANSIDE 8.4NE, San Diego, CA06, -117.266, 33.270, 252, M, 2.14
EL CAJON 2.3ENE, San Diego, CA06, -116.925, 32.811, 610, M, 2.32
ENCINITAS 3.34ENE, San Diego, CA06, -117.237, 33.050, 193, M, 3.46
ESCONDIDO 5.2NNW, San Diego, CA06, -117.128, 33.185, 1474, M, 3.14
EL CAJON 1.5WSW, San Diego, CA06, -116.987, 32.791, 727, M, 3.12
ESCONDIDO 2.5 SSE, San Diego, CA06, -117.048, 33.106, 690, M, 3.19
POWAY 3.2NE, San Diego, CA06, -117.004, 32.996, 1206, M, 3.18
JAMUL 9.9ESE, San Diego, CA06, -116.706, 32.680, 2737, M, 4.54
BORREGO SPRINGS 2.4 WSW, San Diego, CA07, -116.390, 33.223, 777, M, 0.53
LA JOLLA 2.5SE, San Diego, CA06, -117.240, 32.825, 508, M, 1.48
CHULA VISTA 6.3E, San Diego, CA06, -116.975, 32.638, 555, M, 3.32
OCEANSIDE 5.6NE, San Diego, CA06, -117.313, 33.254, 60, M, 1.46
POWAY 1.4SW, San Diego, CA06, -117.059, 32.949, 444, M, 3.18
CARDIFF BY THE SEA 0.2 E, San Diego, CA06, -117.271, 33.027, 266, M, 3.54
CHULA VISTA 2.5SE, San Diego, CA06, -117.052, 32.617, 266, M, 3.49
PAUMA VALLEY 1.7 SE, San Diego, CA06, -116.957, 33.290, 1132, M, 2.72
FALLBROOK 6.5 NE, San Diego, CA06, -117.160, 33.436, 1377, M, 2.38
SAN DIEGO 3.5NE, San Diego, CA06, -117.110, 32.747, 344, M, 3.60
SANTEE 1.8NW, San Diego, CA06, -116.996, 32.856, 470, M, 3.14
SAN DIEGO 7.9NE, San Diego, CA06, -117.073, 32.806, 242, M, 3.10
LA JOLLA 2.1 SE, San Diego, CA06, -117.250, 32.826, 491, M, 3.24
RANCHO BERNARDO 0.5SE, San Diego, CA06, -117.067, 33.018, 483, M, 3.60
EL CAJON 0.7 S, San Diego, CA06, -116.959, 32.792, 444, M, 3.12
LA JOLLA 2.2 NE, San Diego, CA06, -117.248, 32.870, 371, M, 3.17
LEMON GROVE 1.8 WNW, San Diego, CA06, -117.060, 32.747, 466, M, 3.33
VISTA 1.5NNW, San Diego, CA06, -117.254, 33.219, 417, M, 2.34
EL CAJON 2.3 S, San Diego, CA06, -116.959, 32.770, 738, M, 3.26
SAN DIEGO 9NE, San Diego, CA06, -117.059, 32.817, 292, M, 3.38
POWAY 4.7NNW, San Diego, CA06, -117.047, 33.026, 739, M, 3.34
SAN DIEGO COUNTRY ESTATES 1.5 WNW, San Diego, CA06, -116.807, 33.016, 1474, M, 3.66
SAN FRANCISCO 2.8 WNW, San Francisco, CA04, -122.470, 37.783, 173, M, 2.64
SAN FRANCISCO 1.1 SW, San Francisco, CA04, -122.435, 37.765, 194, M, 1.96
COTTONWOOD 0.5 NNE, Shasta, CA02, -122.276, 40.397, 452, M, 2.58
SHINGLETOWN 5.3 ENE, Shasta, CA02, -121.796, 40.524, 3964, M, 3.10
REDDING 2.9 NNE, Shasta, CA02, -122.339, 40.609, 652, M, 3.60
REDDING 2.7 NNW, Shasta, CA02, -122.380, 40.610, 708, M, 3.67
REDDING 7.9 NNE, Shasta, CA02, -122.291, 40.672, 681, M, 3.37
REDDING 3.7 N, Shasta, CA02, -122.358, 40.626, 618, M, 3.63
REDDING 3.6 N, Shasta, CA02, -122.354, 40.623, 604, M, 3.72
REDDING 0.6 NW, Shasta, CA02, -122.373, 40.580, 475, M, 3.17
REDDING 2.6 NNE, Shasta, CA02, -122.347, 40.607, 590, M, 3.70
REDDING 4.1 N, Shasta, CA02, -122.358, 40.631, 616, M, 3.72
ANDERSON 2.6 NE, Shasta, CA02, -122.261, 40.478, 409, M, 2.48
LINDEN 5.8 ENE, San Joaquin, CA05, -121.008, 38.063, 146, M, 1.01
STOCKTON 2.1 NW, San Joaquin, CA05, -121.333, 37.991, 7, M, 1.10
STOCKTON 5.8 NNE, San Joaquin, CA05, -121.255, 38.038, 35, M, 1.09
LODI 1.0 NNW, San Joaquin, CA05, -121.304, 38.136, 43, M, 1.19
STOCKTON 3.3 SE, San Joaquin, CA05, -121.259, 37.942, 23, M, 0.78
TRACY 2.1 W, San Joaquin, CA05, -121.470, 37.735, 52, M, 0.46
YREKA 4.5 S, Siskiyou, CA01, -122.621, 41.665, 2937, M, 1.24
WEED 5.4 N, Siskiyou, CA01, -122.370, 41.495, 3064, M, 0.31
ETNA 3.9 NNW, Siskiyou, CA01, -122.923, 41.511, 2966, M, 1.12
YREKA 0.9 WNW, Siskiyou, CA01, -122.649, 41.733, 2692, M, 1.35
MONTAGUE 1.6 ESE, Siskiyou, CA01, -122.501, 41.718, 2556, M, 0.46
SANTA MARGARITA 8.9 ESE, San Luis Obispo, CA04, -120.453, 35.381, 2005, M, 2.32
PACIFICA 0.3 W, San Mateo, CA04, -122.483, 37.612, 227, M, 2.80
FOSTER CITY 1.3 SW, San Mateo, CA04, -122.259, 37.549, 7, M, 1.01
HALF MOON BAY 0.5 SSW, San Mateo, CA04, -122.441, 37.463, 54, M, 1.85
REDWOOD CITY 2.5 SW, San Mateo, CA04, -122.240, 37.493, 17, M, 1.17
PORTOLA VALLEY 1.3 ENE, San Mateo, CA04, -122.198, 37.382, 531, M, 1.59
ROHNERT PARK 1.6 WNW, Sonoma, CA01, -122.727, 38.352, 93, M, 1.31
GEYSERVILLE 10.6 WNW, Sonoma, CA01, -123.098, 38.737, 1328, M, 3.62
SANTA ROSA 3.1 W, Sonoma, CA01, -122.758, 38.451, 107, M, 2.18
SEBASTOPOL 3.7 WSW, Sonoma, CA01, -122.893, 38.385, 383, M, 3.38
SANTA ROSA 2.7 WSW, Sonoma, CA01, -122.745, 38.432, 123, M, 1.62
CALISTOGA 4.6 WNW, Sonoma, CA01, -122.658, 38.612, 497, M, 2.33
SEBASTOPOL 4.5 WSW, Sonoma, CA01, -122.904, 38.375, 423, M, 3.54
SEBASTOPOL 0.3 WNW, Sonoma, CA01, -122.830, 38.401, 122, M, 2.60
PETALUMA 1.0 N, Sonoma, CA01, -122.623, 38.256, 52, M, 1.72
GRATON 2.7 NNE, Sonoma, CA01, -122.840, 38.472, 69, M, 2.91
WINDSOR 1.5 WNW, Sonoma, CA01, -122.823, 38.555, 123, M, 3.06
CLOVERDALE 0.8 SSW, Sonoma, CA01, -123.022, 38.789, 365, M, 0.00
WINDSOR 1.4 SE, Sonoma, CA01, -122.780, 38.532, 140, M, 2.68
SANTA ROSA 4.7 S, Sonoma, CA01, -122.725, 38.378, 94, M, 2.14
SANTA ROSA 3.1 NW, Sonoma, CA01, -122.744, 38.479, 140, M, 2.11
CLOVERDALE 3.2 ESE, Sonoma, CA01, -122.963, 38.781, 797, M, 3.41
WINDSOR 1.8 SE, Sonoma, CA01, -122.777, 38.526, 142, M, 2.70
SEBASTOPOL 2.6 SSE, Sonoma, CA01, -122.804, 38.366, 214, M, 2.52
SANTA ROSA 3.8 W, Sonoma, CA01, -122.771, 38.441, 95, M, 0.82
SANTA ROSA 2.9 ENE, Sonoma, CA01, -122.655, 38.471, 292, M, 2.07
MONTE RIO 1.6 W, Sonoma, CA01, -123.042, 38.464, 20, M, 3.91
SEBASTOPOL 3.0 SW, Sonoma, CA01, -122.869, 38.372, 539, M, 3.07
SANTA ROSA 4.4 NNW, Sonoma, CA01, -122.719, 38.511, 392, M, 2.53
SEBASTOPOL 1.1 SSE, Sonoma, CA01, -122.819, 38.384, 168, M, 2.74
WINDSOR 1.2 NNW, Sonoma, CA01, -122.805, 38.562, 155, M, 2.85
HEALDSBURG 7.5 NW, Sonoma, CA01, -122.963, 38.693, 203, M, 3.10
SANTA ROSA 2.6 NE, Sonoma, CA01, -122.664, 38.473, 273, M, 2.05
SONOMA 1.9 E, Sonoma, CA01, -122.425, 38.290, 124, M, 1.64
SANTA ROSA 1.3 NW, Sonoma, CA01, -122.715, 38.464, 173, M, 1.93
PETALUMA 1.3 SW, Sonoma, CA01, -122.639, 38.226, 36, M, 2.03
WINDSOR 0.6 NNE, Sonoma, CA01, -122.793, 38.553, 157, M, 2.85
SANTA ROSA 0.4 NW, Sonoma, CA01, -122.705, 38.453, 181, M, 1.81
SEBASTOPOL 0.9 WNW, Sonoma, CA01, -122.841, 38.407, 213, M, 2.95
GLEN ELLEN 1.9 WNW, Sonoma, CA01, -122.572, 38.365, 956, M, 1.49
ROHNERT PARK 0.9 SW, Sonoma, CA01, -122.711, 38.339, 96, M, 1.89
CLOVERDALE 0.6 W, Sonoma, CA01, -123.028, 38.799, 382, M, 3.33
ROHNERT PARK 0.9 ESE, Sonoma, CA01, -122.681, 38.345, 125, M, 1.65
GLEN ELLEN 1.5 N, Sonoma, CA01, -122.534, 38.378, 337, M, 2.57
SANTA ROSA 2.7 ENE, Sonoma, CA01, -122.659, 38.470, 281, M, 2.00
BOYES HOT SPRINGS 0.5 ENE, Sonoma, CA01, -122.473, 38.316, 295, M, 2.62
SEBASTOPOL 3.3 WSW, Sonoma, CA01, -122.885, 38.384, 362, M, 3.41
OCCIDENTAL 2.8 SW, Sonoma, CA01, -122.974, 38.365, 614, M, 3.12
HEALDSBURG 12.6 NNW, Sonoma, CA01, -122.963, 38.784, 1026, M, 3.30
BENICIA 0.2 SSW, Solano, CA01, -122.155, 38.070, 403, M, 1.30
APPLE VALLEY 2.6 SSW, San Bernardino, CA07, -117.235, 34.496, 2881, M, 0.79
WRIGHTWOOD 1.2 WNW, San Bernardino, CA07, -117.651, 34.365, 6148, M, 1.69
UPLAND 0.5 ESE, San Bernardino, CA06, -117.650, 34.115, 1415, M, 1.57
APPLE VALLEY 2.6 SE, San Bernardino, CA07, -117.181, 34.504, 2941, M, 0.77
JOSHUA TREE 2.0 S, San Bernardino, CA07, -116.318, 34.097, 3409, M, 0.34
CRESTLINE 0.2 WSW, San Bernardino, CA07, -117.299, 34.246, 4530, M, 3.01
LANDERS 1.6 NE, San Bernardino, CA07, -116.375, 34.283, 2954, M, 0.14
BARSTOW 3.0 W, San Bernardino, CA07, -117.118, 34.880, 2229, M, 0.45
HESPERIA 3.9 SW, San Bernardino, CA07, -117.340, 34.373, 3578, M, 0.99
PINON HILLS 3.5 N, San Bernardino, CA07, -117.644, 34.485, 3495, M, 0.73
APPLE VALLEY 1.9 N, San Bernardino, CA07, -117.211, 34.556, 2935, M, 0.77
KNIGHTS FERRY 5.2 WSW, Stanislaus, CA05, -120.752, 37.789, 144, M, 0.94
OAKDALE 4.2 ENE, Stanislaus, CA05, -120.777, 37.782, 232, M, 0.68
SAN JUAN BAUTISTA 0.5 S, San Benito, CA04, -121.537, 36.839, 252, M, 1.75
HOLLISTER 5.4 NNE, San Benito, CA04, -121.370, 36.931, 247, M, 0.81
HOLLISTER 2.1 ESE, San Benito, CA04, -121.365, 36.842, 389, M, 1.25
DAVENPORT 4.2 NW, Santa Cruz, CA04, -122.218, 37.065, 495, M, 3.93
BOULDER CREEK 3.6 NE, Santa Cruz, CA04, -122.091, 37.181, 1724, M, 2.38
SCOTTS VALLEY 1.7 SW, Santa Cruz, CA04, -122.029, 37.040, 573, M, 4.37
APTOS 2.6 E, Santa Cruz, CA04, -121.854, 36.996, 383, M, 2.57
SCOTTS VALLEY 1.4 W, Santa Cruz, CA04, -122.033, 37.055, 362, M, 3.61
FELTON 0.1 SE, Santa Cruz, CA04, -122.071, 37.042, 238, M, 4.19
BONNY DOON 2.0 NE, Santa Cruz, CA04, -122.133, 37.068, 1880, M, 2.49
SOQUEL 1.8 N, Santa Cruz, CA04, -121.950, 37.019, 152, M, 2.56
SAN DIEGO 9.5 NNW, San Diego, CA06, -117.221, 32.843, 284, M, 3.30
CARLSBAD 3.8SE, San Diego, CA06, -117.304, 33.119, 168, M, 3.24
RANCHO BERNARDO 1NNW, San Diego, CA06, -117.083, 33.034, 517, M, 3.54
LOS OSOS 0.5 N, San Luis Obispo, CA04, -120.832, 35.329, 77, M, 1.84
MENLO PARK 2.4 W, San Mateo, CA04, -122.187, 37.477, 25, M, 1.11
BURLINGAME 2.0 WSW, San Mateo, CA04, -122.398, 37.584, 447, M, 2.44
BODEGA BAY 1.0 SE, Sonoma, CA01, -123.018, 38.312, 226, M, 2.12
BODEGA BAY 0.1 NNW, Sonoma, CA01, -123.030, 38.324, 218, M, 1.99
BENICIA 1.2 SW, Solano, CA01, -122.168, 38.058, 40, M, 1.42
TWENTYNINE PALMS 1.5 SW, San Bernardino, CA07, -116.085, 34.124, 2162, M, 0.19
SUTTER 0.3 W, Sutter, CA02, -121.751, 39.160, 73, M, 1.10
MARYSVILLE 5.0 N, Yuba, CA02, -121.594, 39.224, 73, M, 1.09
WHEATLAND 0.1 ENE, Yuba, CA02, -121.424, 39.013, 85, M, 0.90
BLUE LAKE 0.6 NNW, Humboldt, CA01, -123.994, 40.888, 179, M, 4.92
ARBUCKLE BASIN CALIFORNIA, Shasta, CA02, -122.833, 40.398, 1900, 47.6, M
ACTON CALIFORNIA, Los Angeles, CA06, -118.200, 34.446, 2600, 51.6, M
ARROYO GRANDE CALIFORNIA, San Luis Obispo, CA04, -120.392, 35.179, 1048, 55.4, M
ALDER SPRINGS CALIFORNIA, Glenn, CA02, -122.724, 39.651, 4300, 43.6, M
ALPINE CALIFORNIA, San Diego, CA06, -116.739, 32.834, 2041, 58.0, M
LOS ALTOS CALIFORNIA, Santa Clara, CA04, -122.147, 37.358, 645, 53.0, M
ANZA CALIFORNIA, Riverside, CA06, -116.673, 33.555, 3920, 48.5, M
ALDER POINT CALIFORNIA, Humboldt, CA01, -123.590, 40.187, 923, 48.2, M
ARROYO SECO (MT. DIABLO) CALIF, Monterey, CA04, -121.492, 36.230, 980, 53.6, M
ASH CREEK CALIFORNIA, Siskiyou, CA02, -121.979, 41.277, 3200, 37.0, M
ASH VALLEY CALIFORNIA, Lassen, CA02, -120.686, 41.052, 5100, 35.4, M
BACKBONE CALIFORNIA, Trinity, CA01, -123.142, 40.889, 4700, 41.0, M
BALD MTN LOC CALIFORNIA, El Dorado, CA02, -120.697, 38.906, 4680, 45.8, M
BARNABY CALIFORNIA, Marin, CA01, -122.702, 38.028, 1240, 51.9, M
BATTERSON CALIFORNIA, Madera, CA05, -119.508, 37.232, 3160, 50.0, M
BIG BAR CALIFORNIA, Trinity, CA01, -123.233, 40.733, 1500, 46.9, M
BELL CANYON CALIFORNIA, Orange, CA06, -117.592, 33.542, 700, 60.3, M
BRADLEY CALIFORNIA, Monterey, CA04, -120.803, 35.864, 537, 51.9, M
BEAR PEAK CALIFORNIA, Tulare, CA05, -118.052, 35.884, 8228, 37.6, M
BENTON CALIFORNIA, Mono, CA07, -118.478, 37.843, 5450, 38.8, M
BEAUMONT CALIFORNIA, Riverside, CA06, -116.950, 33.931, 2604, 54.4, M
BEVERLY HILLS CALIFORNIA, Los Angeles, CA06, -118.412, 34.125, 1260, 62.1, M
BANGOR CALIFORNIA, Butte, CA02, -121.386, 39.398, 803, 51.1, M
BIG HILL CALIFORNIA, Humboldt, CA01, -123.636, 41.098, 3570, 41.0, M
BIG PINES CALIFORNIA, Los Angeles, CA07, -117.692, 34.379, 6917, 43.4, M
BIG ROCK CALIFORNIA, Marin, CA01, -122.570, 38.039, 1500, 51.9, M
BLACK DIAMOND CALIFORNIA, Contra Costa, CA04, -121.884, 37.950, 1600, 50.7, M
BLUE DOOR CALIFORNIA, Lassen, CA02, -120.337, 41.055, 5615, 34.7, M
BLUE RIDGE (KNF) CALIFORNIA, Siskiyou, CA01, -123.187, 41.269, 5956, 38.0, M
BEN BOLT CALIFORNIA, El Dorado, CA05, -120.934, 38.591, 905, 50.3, M
BEN LOMOND CALIFORNIA, Santa Cruz, CA04, -122.170, 37.132, 2630, 49.5, M
BOGARD R.S. CALIFORNIA, Lassen, CA02, -121.083, 40.598, 5650, 32.8, M
BOONVILLE CALIFORNIA, Mendocino, CA01, -123.349, 38.988, 644, 50.2, M
BIG PINE FLAT CALIFORNIA, San Bernardino, CA07, -117.013, 34.319, 6861, 41.4, M
BRIDGEPORT 4NW CALIFORNIA, Mono, CA03, -119.289, 38.272, 6650, 38.4, M
BRANCH MOUNTAIN CALIFORNIA, San Luis Obispo, CA04, -120.083, 35.189, 3770, 49.4, M
BEAR FLAT CALIFORNIA, Modoc, CA02, -120.313, 41.295, 6200, 29.8, M
BRIONES CALIFORNIA, Contra Costa, CA04, -122.118, 37.944, 1450, 51.0, M
BLACKROCK CALIFORNIA, Tulare, CA05, -118.260, 36.093, 8200, 37.2, M
BROOKS CALIFORNIA, Yolo, CA02, -122.145, 38.738, 354, 51.2, M
BIG SUR CALIFORNIA, Monterey, CA04, -121.785, 36.236, 450, 55.9, M
BUCK MEADOWS CALIFORNIA, Tuolumne, CA05, -120.097, 37.823, 3200, 46.2, M
BULL FLAT CALIFORNIA, Lassen, CA03, -120.114, 40.481, 4395, 36.6, M
BURNS CANYON CALIFORNIA, San Bernardino, CA07, -116.634, 34.210, 6000, 46.9, M
BUTTERCUP CALIFORNIA, Imperial, CA07, -114.884, 32.740, 217, 64.1, M
BEAVER CAMP LOC CALIFORNIA, Amador, CA05, -120.325, 38.488, 5000, 46.9, M
BRAZIE RANCH CALIFORNIA, Siskiyou, CA01, -122.594, 41.685, 3000, 42.6, M
CAHUILLA CALIFORNIA, Imperial, CA07, -115.174, 32.974, 278, 64.5, M
CONVERSE CALIFORNIA, San Bernardino, CA06, -116.913, 34.194, 5618, 46.0, M
COOSKIE MOUNTAIN CALIFORNIA, Humboldt, CA01, -124.266, 40.257, 2950, 43.8, M
CORRALITOS CALIFORNIA, Santa Cruz, CA04, -121.798, 36.991, 450, 52.4, M
COUNTY LINE CALIFORNIA, Lake, CA02, -122.412, 39.019, 2085, 49.3, M
CAMP 9 CALIFORNIA, Los Angeles, CA06, -118.422, 34.362, 4000, 51.4, M
CRANE FLAT LOOKOUT CALIFORNIA, Mariposa, CA05, -119.825, 37.762, 6644, 41.5, M
CRESTVIEW CALIFORNIA, Mono, CA07, -118.983, 37.745, 7600, 33.1, M
CORNING CALIFORNIA, Tehama, CA02, -122.170, 39.939, 294, 50.3, M
CARPENTER RIDGE CALIFORNIA, Butte, CA02, -121.582, 40.069, 4812, 41.2, M
CRANSTON CALIFORNIA, Riverside, CA06, -116.841, 33.740, 1950, 58.2, M
CRAZY PEAK CALIFORNIA, Del Norte, CA01, -123.604, 41.992, 3970, 41.1, M
CASHMAN CALIFORNIA, Plumas, CA02, -120.915, 40.002, 4520, 41.5, M
DESCANSO CALIFORNIA, San Diego, CA06, -116.622, 32.857, 3480, 51.6, M
DEVILS GARDEN CALIFORNIA, Modoc, CA02, -120.671, 41.530, 5022, 36.2, M
DIABLO GRANDE CALIFORNIA, Stanislaus, CA05, -121.294, 37.329, 1850, 51.4, M
DEMOCRAT CALIFORNIA, Kern, CA05, -118.630, 35.532, 2356, 52.3, M
DINKEY CALIFORNIA, Fresno, CA05, -119.039, 37.066, 5668, 38.5, M
DOG VALLEY CALIFORNIA, Sierra, CA03, -120.048, 39.562, 5976, 34.8, M
DOYLE CALIFORNIA, Lassen, CA03, -120.106, 40.022, 4240, 40.7, M
DUNCAN CALIFORNIA, Placer, CA02, -120.509, 39.144, 7100, 36.5, M
DEL VALLE CALIFORNIA, Los Angeles, CA06, -118.683, 34.431, 1278, 58.0, M
DEVORE CALIFORNIA, San Bernardino, CA06, -117.404, 34.221, 2057, 56.6, M
EAGLE PEAK CALIFORNIA, Tehama, CA02, -122.657, 39.928, 3713, 45.6, M
EEL RIVER CAMP CALIFORNIA, Humboldt, CA01, -123.824, 40.138, 446, 49.4, M
EEL RIVER CALIFORNIA, Mendocino, CA01, -123.083, 39.833, 1500, 47.6, M
EL CARISO CALIFORNIA, Riverside, CA06, -117.411, 33.647, 3038, 56.8, M
MOUNT ELIZABETH CALIFORNIA, Tuolumne, CA05, -120.247, 38.063, 4933, 45.4, M
EL MIRAGE CALIFORNIA, San Bernardino, CA07, -117.550, 34.634, 2880, 49.1, M
ESPERANZA CALIFORNIA, Calaveras, CA05, -120.515, 38.243, 2559, 48.4, M
FANCHER CREEK CALIFORNIA, Fresno, CA05, -119.466, 36.884, 920, 54.9, M
FAWNSKIN CALIFORNIA, San Bernardino, CA06, -116.899, 34.266, 6900, 38.8, M
FENCE MEADOW CALIFORNIA, Fresno, CA05, -119.175, 36.961, 5048, 46.2, M
FORT HUNTER LIGGET CALIFORNIA, Monterey, CA04, -121.242, 36.012, 1100, 51.5, M
FIGUEROA CALIFORNIA, Santa Barbara, CA06, -120.007, 34.733, 3200, 55.0, M
FISH CREEK MTN CALIFORNIA, Imperial, CA07, -116.067, 32.990, 760, 66.8, M
FIVE MILE CALIFORNIA, Inyo, CA07, -117.918, 35.872, 4150, 51.5, M
FORESTHILL CALIFORNIA, Placer, CA02, -120.732, 39.091, 4355, 46.0, M
FOUNTAIN SPRINGS CALIFORNIA, Tulare, CA05, -118.915, 35.892, 210, 52.0, M
FREMONT CANYON CALIFORNIA, Orange, CA06, -117.711, 33.808, 1781, 59.6, M
FRIEND MOUNTAIN CALIFORNIA, Trinity, CA01, -123.342, 40.505, 4000, 40.9, M
GASQUET CALIFORNIA, Del Norte, CA01, -123.979, 41.846, 500, 47.1, M
GRASSHOPPER CALIFORNIA, Lassen, CA03, -120.784, 40.782, 6158, 33.9, M
GOOSE VALLEY CALIFORNIA, San Diego, CA06, -116.846, 33.074, 1530, 57.1, M
GORDON CALIFORNIA, Lassen, CA03, -120.896, 40.759, 6200, 34.6, M
GREEN SPRING CALIFORNIA, Tuolumne, CA05, -120.500, 37.833, 1020, 51.9, M
HASTINGS CALIFORNIA, Monterey, CA04, -121.552, 36.389, 1885, 52.1, M
HAWKEYE CALIFORNIA, Sonoma, CA01, -122.917, 38.782, 2000, 49.9, M
HAYFORK CALIFORNIA, Trinity, CA01, -123.165, 40.550, 2323, 42.8, M
HELL HOLE CALIFORNIA, Placer, CA02, -120.422, 39.072, 5240, 42.5, M
HERNANDEZ CALIFORNIA, San Benito, CA04, -120.856, 36.383, 3733, 48.8, M
HIGH GLADE LOOKOUT CALIFORNIA, Lake, CA02, -122.808, 39.208, 4840, 43.3, M
HIGH SIERRA CALIFORNIA, Fresno, CA05, -119.038, 37.315, 7403, 37.2, M
HOPLAND CALIFORNIA, Mendocino, CA01, -123.081, 39.031, 2682, 47.9, M
HOLLISTER CALIFORNIA, San Benito, CA04, -121.362, 36.842, 404, 52.5, M
HORSE LAKE CALIFORNIA, Lassen, CA03, -120.503, 40.631, 5100, 35.3, M
HOOPA CALIFORNIA, Humboldt, CA01, -123.671, 41.048, 375, 48.4, M
HORSE THIEF SPRINGS CALIFORNIA, San Bernardino, CA07, -115.909, 35.771, 5000, 47.4, M
HURLEY CALIFORNIA, Fresno, CA05, -119.568, 37.015, 1201, 47.7, M
INDIAN WELL CALIFORNIA, Siskiyou, CA01, -121.538, 41.742, 4770, 38.8, M
JARBO GAP CALIFORNIA, Butte, CA02, -121.489, 39.736, 2490, 47.5, M
JERSEYDALE CALIFORNIA, Mariposa, CA05, -119.839, 37.544, 3900, 47.3, M
CALLAHAN CALIFORNIA, Siskiyou, CA01, -122.796, 41.308, 3136, 42.4, M
CAMERON FIRE STATION CALIFORNI, San Diego, CA06, -116.463, 32.721, 3443, 50.1, M
CANBY CALIFORNIA, Modoc, CA02, -120.868, 41.434, 4312, 36.9, M
CARRIZO CALIFORNIA, San Luis Obispo, CA05, -119.773, 35.096, 2490, 53.3, M
CATHEYS VALLEY CALIFORNIA, Mariposa, CA05, -120.111, 37.468, 1200, 52.5, M
CEDAR GROVE CALIFORNIA, Fresno, CA05, -118.656, 36.788, 4720, 42.5, M
CHEESEBORO CALIFORNIA, Ventura, CA06, -118.717, 34.185, 1650, 59.3, M
CHICO CALIFORNIA, Butte, CA02, -121.779, 39.712, 230, 50.7, M
CHILAO CALIFORNIA, Los Angeles, CA06, -118.030, 34.332, 5450, 49.1, M
CHUCHUPATE CALIFORNIA, Ventura, CA05, -119.012, 34.808, 4900, 41.8, M
CLAREMONT CALIFORNIA, Los Angeles, CA06, -117.707, 34.137, 1645, 56.8, M
CLEAR CREEK CALIFORNIA, Los Angeles, CA06, -118.152, 34.271, 3000, 54.2, M
CLARK CALIFORNIA, Riverside, CA06, -117.309, 33.877, 1720, 56.6, M
CALAVERAS ROAD CALIFORNIA, Alameda, CA04, -121.844, 37.553, 1230, 51.9, M
CASE MOUNTAIN CALIFORNIA, Tulare, CA05, -118.809, 36.411, 6450, 43.5, M
CORONA CALIFORNIA, Riverside, CA06, -117.549, 33.874, 640, 59.1, M
COHASSET CALIFORNIA, Butte, CA02, -121.769, 39.872, 1733, 51.2, M
COLLINS BALDY CALIFORNIA, Siskiyou, CA01, -122.950, 41.775, 5493, 36.0, M
JOHNSONDALE CALIFORNIA, Tulare, CA05, -118.545, 35.972, 4700, 41.3, M
JUANITA LAKE CALIFORNIA, Siskiyou, CA01, -122.006, 41.786, 5400, 37.6, M
JULIAN CALIFORNIA, San Diego, CA07, -116.591, 33.076, 4240, 48.0, M
JUNIPER CREEK CALIFORNIA, Modoc, CA02, -120.472, 41.332, 4372, 37.3, M
KEENWILD CALIFORNIA, Riverside, CA06, -116.767, 33.667, 4920, 49.5, M
KETTLEMAN HILLS CALIFORNIA, Kings, CA05, -120.057, 36.033, 810, 54.1, M
KNOXVILLE CREEK CALIFORNIA, Lake, CA02, -122.417, 38.862, 2200, 48.4, M
KONOCTI CALIFORNIA, Lake, CA02, -122.706, 38.912, 2163, 49.0, M
LOS BANOS CALIFORNIA, Merced, CA05, -121.053, 37.055, 350, 54.0, M
MT. LAGUNA CALIFORNIA, San Diego, CA07, -116.420, 32.880, 5760, 44.0, M
LA HONDA CALIFORNIA, San Mateo, CA04, -122.255, 37.305, 872, 51.5, M
LA PANZA CALIFORNIA, San Luis Obispo, CA04, -120.187, 35.381, 1630, 47.8, M
LAURAL MOUNTAIN CALIFORNIA, Kern, CA07, -117.699, 35.478, 4390, 48.4, M
LASSEN LODGE CALIFORNIA, Tehama, CA02, -121.714, 40.344, 4159, 44.7, M
LAUFMAN CALIFORNIA, Lassen, CA03, -120.353, 40.142, 5800, 38.8, M
LAYTONVILLE CALIFORNIA, Mendocino, CA01, -123.485, 39.702, 1820, 47.1, M
LADDER BUTTE CALIFORNIA, Lassen, CA02, -121.297, 40.807, 5750, 37.7, M
LEO CARRILLO CALIFORNIA, Los Angeles, CA06, -118.936, 34.046, 50, 59.7, M
LOS GATOS CALIFORNIA, Santa Clara, CA04, -121.943, 37.203, 2000, 52.3, M
LOST HORSE CALIFORNIA, Riverside, CA07, -116.188, 34.018, 4200, 48.1, M
LINCOLN CALIFORNIA, Placer, CA02, -121.268, 38.883, 200, 50.8, M
LOWER KLAMATH CALIFORNIA, Siskiyou, CA01, -121.700, 41.999, 4098, 35.9, M
LOS PRIETOS CALIFORNIA, Santa Barbara, CA06, -119.783, 34.536, 1020, 56.4, M
LAS TABLAS CALIFORNIA, San Luis Obispo, CA04, -120.924, 35.656, 994, 49.8, M
LITTLE TUJUNGA CALIFORNIA, Los Angeles, CA06, -118.361, 34.294, 1390, 57.6, M
GARDEN GROVE 0.8 ESE, Orange, CA06, -117.946, 33.775, 85, M, 1.25
DESCANSO 3.7 NNW, San Diego, CA06, -116.626, 32.906, 3278, M, 4.53
EL CAJON 2.8SE, San Diego, CA06, -116.920, 32.772, 686, M, 3.35
VACAVILLE 7.2 WNW, Solano, CA02, -122.081, 38.415, 1427, M, 2.54
WOODSIDE 3.4 S, San Mateo, CA04, -122.264, 37.375, 1592, M, 5.01
ADELANTO 3.1 S, San Bernardino, CA07, -117.433, 34.525, 3085, M, 0.37
RIO VISTA 8.5 S, Sacramento, CA05, -121.703, 38.050, 5, M, 0.53
YUCCA VALLEY 1.1 SW, San Bernardino, CA07, -116.443, 34.100, 3628, M, 0.44
LYONS VALLEY CALIFORNIA, Lake, CA01, -123.074, 39.126, 3200, 45.6, M
LYTLE CREEK CALIFORNIA, San Bernardino, CA06, -117.480, 34.234, 2792, 53.8, M
MAD RIVER CALIFORNIA, Trinity, CA01, -123.524, 40.463, 2775, 44.5, M
MALIBU HILLS CALIFORNIA, Los Angeles, CA06, -118.633, 34.058, 1575, 59.3, M
MANZANITA LAKE CALIFORNIA, Shasta, CA02, -121.580, 40.540, 5660, 36.2, M
MARIPOSA GROVE CALIFORNIA, Mariposa, CA05, -119.605, 37.513, 6400, 46.7, M
MILL CREEK (BDF) CALIFORNIA, San Bernardino, CA06, -117.035, 34.084, 2950, 56.2, M
MCGUIRES CALIFORNIA, Mendocino, CA01, -123.601, 39.353, 593, 49.0, M
MEANS LAKE CALIFORNIA, San Bernardino, CA07, -116.517, 34.391, 2900, 51.2, M
MENDOCINO PASS CALIFORNIA, Mendocino, CA01, -122.945, 39.808, 5420, 39.0, M
METCALF GAP CALIFORNIA, Madera, CA05, -119.768, 37.409, 3077, 50.7, M
MEYERS CALIFORNIA, El Dorado, CA03, -120.018, 38.849, 6310, 36.9, M
MID HILLS CALIFORNIA, San Bernardino, CA07, -115.411, 35.123, 5413, 45.5, M
MILL CREEK (ANF) CALIFORNIA, Los Angeles, CA06, -118.082, 34.390, 5021, 47.9, M
MILO CALIFORNIA, Tulare, CA05, -118.869, 36.231, 1923, 53.2, M
MALLORY RIDGE CALIFORNIA, Contra Costa, CA05, -121.779, 37.817, 2040, 49.8, M
MONTECITO CALIFORNIA, Santa Barbara, CA06, -119.648, 34.461, 1500, 59.4, M
MODOC NWR CALIFORNIA, Modoc, CA02, -120.354, 41.459, 4380, 36.7, M
MOJAVE RIVER SINK CALIFORNIA, San Bernardino, CA07, -116.079, 35.053, 950, 54.0, M
MORMON ROCK CALIFORNIA, San Bernardino, CA06, -117.502, 34.318, 3300, 51.7, M
MOUNTAIN REST CALIFORNIA, Fresno, CA05, -119.371, 37.054, 4100, 48.1, M
MARKLEEVILLE CALIFORNIA, Alpine, CA03, -119.767, 38.683, 5501, 39.8, M
MT. SHASTA CALIFORNIA, Siskiyou, CA02, -122.316, 41.316, -, 39.8, M
MARIPOSA CALIFORNIA, Mariposa, CA05, -119.987, 37.504, 2231, 49.7, M
MT. DIABLO CALIFORNIA, Contra Costa, CA05, -121.914, 37.882, 3849, 44.5, M
MOUNT ZION CALIFORNIA, Amador, CA05, -120.651, 38.389, 2960, 50.2, M
NORTH FORK CALIFORNIA, Madera, CA05, -119.505, 37.233, 2720, 49.9, M
OAK KNOLL CALIFORNIA, Siskiyou, CA01, -122.850, 41.839, 1940, 43.6, M
OAK MOUNTAIN CALIFORNIA, Shasta, CA02, -121.983, 41.006, 1700, 45.1, M
OAK CREEK CALIFORNIA, Inyo, CA07, -118.259, 36.843, 4855, 46.3, M
OJAI CALIFORNIA, Ventura, CA06, -119.230, 34.448, 765, 54.5, M
OAK GROVE CALIFORNIA, San Diego, CA06, -116.795, 33.393, 2752, 54.8, M
OAKLAND NORTH CALIFORNIA, Contra Costa, CA04, -122.221, 37.865, 1403, 50.3, M
OAK OPENING CALIFORNIA, Tulare, CA05, -118.702, 36.175, 3240, 50.2, M
OAKLAND SOUTH CALIFORNIA, Alameda, CA04, -122.145, 37.786, 1095, 51.1, M
OPAL MOUNTAIN CALIFORNIA, San Bernardino, CA07, -117.176, 35.154, 3240, 52.0, M
OWENS CAMP LOC CALIFORNIA, El Dorado, CA02, -120.245, 38.733, 5240, 43.7, M
OWENS VALLEY CALIFORNIA, Inyo, CA07, -118.551, 37.390, 4640, 44.9, M
OZENA CALIFORNIA, Ventura, CA06, -119.354, 34.682, 3670, 49.6, M
PANAMINT CALIFORNIA, Inyo, CA07, -117.088, 36.120, 6880, 42.4, M
PARKFIELD CALIFORNIA, Monterey, CA04, -120.432, 35.899, 1535, 49.4, M
PATTY MOCUS CALIFORNIA, Tehama, CA02, -122.867, 40.295, 3500, 44.4, M
PINE HILLS CALIFORNIA, San Diego, CA06, -116.634, 33.016, -, 52.1, M
PIERCE CALIFORNIA, Plumas, CA02, -120.642, 40.246, 5700, 37.6, M
PINEHURST CALIFORNIA, Fresno, CA05, -119.000, 36.685, 4060, 48.1, M
PIKE COUNTY LOOKOUT CALIFORNIA, Yuba, CA02, -121.202, 39.475, 3714, 46.7, M
PILOT HILL CALIFORNIA, El Dorado, CA02, -121.009, 38.833, 1200, 49.5, M
PIRU CALIFORNIA, Ventura, CA06, -118.810, 34.404, 614, 59.5, M
PARK RIDGE CALIFORNIA, Tulare, CA05, -118.942, 36.724, 7540, 42.6, M
PINNACLES CALIFORNIA, San Benito, CA04, -121.147, 36.471, 1322, 53.0, M
POPPY PARK CALIFORNIA, Los Angeles, CA07, -118.383, 34.733, 2760, 50.7, M
POTRERO CALIFORNIA, San Diego, CA06, -116.609, 32.606, 2345, 53.0, M
PANOCHE ROAD CALIFORNIA, Fresno, CA05, -120.766, 36.727, 2032, 51.6, M
PULGAS CALIFORNIA, San Mateo, CA04, -122.298, 37.475, 644, 53.7, M
QUARTZ HILL CALIFORNIA, Siskiyou, CA01, -122.934, 41.599, 4225, 40.7, M
QUINCY RD CALIFORNIA, Plumas, CA02, -120.942, 39.973, 3500, 41.7, M
RAVENDALE CALIFORNIA, Lassen, CA03, -120.316, 40.731, 5298, 36.1, M
RANCHITA CALIFORNIA, San Diego, CA07, -116.497, 33.222, 4415, 49.5, M
READER RANCH CALIFORNIA, Nevada, CA02, -121.117, 39.304, 1968, 49.7, M
REDDING AIRPORT CALIFORNIA, Shasta, CA02, -122.291, 40.516, 500, 49.6, M
RICE VALLEY CALIFORNIA, Riverside, CA07, -114.732, 34.061, 820, 59.8, M
BENICIA 1.3 W, Solano, CA01, -122.178, 38.075, 304, M, 0.21
SANTA CRUZ 2.6 ESE, Santa Cruz, CA04, -121.991, 36.961, 36, M, 2.28
SANTA ROSA ISLAND CALIFORNIA, Santa Barbara, CA06, -120.078, 33.978, 1298, 55.9, M
SANTA ROSA PLATEAU CALIFORNIA, Riverside, CA06, -117.231, 33.529, 1980, 57.0, M
SANTA ROSA CALIFORNIA, Sonoma, CA01, -122.712, 38.479, 576, 52.6, M
STAMPEDE CALIFORNIA, Sierra, CA03, -120.075, 39.483, 6867, 36.6, M
STONYFORD CALIFORNIA, Colusa, CA02, -122.575, 39.367, 1200, 48.1, M
SUGARLOAF (SHF) CALIFORNIA, Shasta, CA02, -122.438, 40.917, 4200, 44.3, M
SPRING VALLEY CALIFORNIA, San Mateo, CA04, -122.436, 37.563, 1075, 51.1, M
TANBARK CALIFORNIA, Los Angeles, CA06, -117.761, 34.207, 2600, 55.8, M
TEMESCAL (LPF) CALIFORNIA, Ventura, CA06, -118.756, 34.481, 1140, 56.3, M
THOMES CREEK CALIFORNIA, Tehama, CA02, -122.610, 39.864, 1040, 51.8, M
THOUSAND OAKS CALIFORNIA, Ventura, CA06, -118.870, 34.210, 795, 57.3, M
TIMBER MOUNTAIN CALIFORNIA, Modoc, CA01, -121.298, 41.629, 4960, 36.5, M
TEMESCAL (CNF) CALIFORNIA, Riverside, CA06, -117.483, 33.763, 1125, 58.6, M
MOUNT TOM CALIFORNIA, Fresno, CA05, -119.178, 37.376, 9018, 35.3, M
LAS TRAMPAS CALIFORNIA, Contra Costa, CA04, -122.067, 37.834, 1760, 49.9, M
TRINITY CAMP CALIFORNIA, Trinity, CA01, -122.804, 40.786, 3308, 41.2, M
TRIMMER CALIFORNIA, Fresno, CA05, -119.305, 36.911, 1540, 51.7, M
UHL / HOT SPRINGS, Tulare, CA05, -118.633, 35.889, 3720, 48.7, M
UNDERWOOD CALIFORNIA, Trinity, CA01, -123.495, 40.722, 2600, 44.5, M
VALLEY CENTER CALIFORNIA, San Diego, CA06, -117.009, 33.237, 1483, 57.3, M
VAN BREMMER CALIFORNIA, Siskiyou, CA01, -121.794, 41.643, 4928, 37.2, M
VALYERMO CALIFORNIA, Los Angeles, CA07, -117.851, 34.446, 3780, 48.0, M
VANDENBERG CALIFORNIA, Santa Barbara, CA06, -120.486, 34.759, 1050, 57.0, M
WALKER CALIFORNIA, Mono, CA03, -119.459, 38.565, 5440, 43.4, M
WALKER PASS CALIFORNIA, Kern, CA05, -118.057, 35.665, 5572, 45.5, M
WARM SPRINGS CALIFORNIA, Los Angeles, CA06, -118.579, 34.596, 4930, 50.0, M
WEED AIRPORT CALIFORNIA, Siskiyou, CA01, -122.454, 41.479, 2930, 41.3, M
WESTWOOD CALIFORNIA, Lassen, CA02, -120.900, 40.307, 5800, 36.2, M
WHITE CLOUD CALIFORNIA, Nevada, CA02, -120.837, 39.317, 4320, 45.8, M
WHITTIER HILLS CALIFORNIA, Los Angeles, CA06, -118.010, 33.984, 950, 62.3, M
WHITMORE CALIFORNIA, Shasta, CA02, -121.899, 40.619, 2417, 46.6, M
WILEY RIDGE CALIFORNIA, Ventura, CA06, -118.841, 34.372, 1645, 57.2, M
WOFFORD HEIGHTS CALIFORNIA, Kern, CA05, -118.499, 35.722, 3150, 48.1, M
WOLVERTON CALIFORNIA, Tulare, CA05, -118.703, 36.445, 5240, 47.7, M
WHITAKER PEAK CALIFORNIA, Los Angeles, CA06, -118.740, 34.569, 4120, 50.2, M
WHITE WOLF CALIFORNIA, Tuolumne, CA05, -119.650, 37.851, 8025, 36.7, M
YOLLA BOLLA CALIFORNIA, Trinity, CA01, -123.066, 40.338, 4524, 41.0, M
YUCCA VALLEY CALIFORNIA, San Bernardino, CA07, -116.408, 34.123, 3260, 49.8, M
YUROK CALIFORNIA, Humboldt, CA01, -123.857, 41.290, 495, 48.7, M
HAGAN'S MEADOW, El Dorado, CA03, -119.940, 38.850, 7776, 34.5, 1.80
BLUE LAKES, Alpine, CA05, -119.920, 38.610, 8057, 34.7, 1.60
POISON FLAT, Alpine, CA03, -119.630, 38.510, 7736, 33.8, 0.80
SONORA PASS, Mono, CA03, -119.600, 38.310, 8827, 33.6, 1.50
LEAVITT MEADOWS, Mono, CA03, -119.550, 38.300, 7198, 35.9, 1.50
VIRGINIA LAKES RIDGE, Mono, CA03, -119.230, 38.070, 9445, 33.0, 1.00
LOBDELL LAKE, Mono, CA03, -119.370, 38.440, 9233, 31.8, 0.70
EBBETTS PASS, Alpine, CA03, -119.800, 38.550, 8765, 34.0, 2.30
HEAVENLY VALLEY, El Dorado, CA03, -119.920, 38.920, 8582, 33.0, 1.80
LEAVITT LAKE, Mono, CA03, -119.610, 38.280, 9617, 32.1, 2.50
SPRATT CREEK, Alpine, CA03, -119.820, 38.670, 6115, 38.6, 0.80
MONITOR PASS, Alpine, CA03, -119.610, 38.670, 8310, 35.0, 0.80
BURNSIDE LAKE, Alpine, CA03, -119.890, 38.720, 8129, 31.2, 1.60
SUMMIT MEADOW, Mono, CA03, -119.540, 38.400, 9313, 32.5, 0.90
FORESTDALE CREEK, Alpine, CA03, -119.960, 38.680, 8017, 35.4, 2.20
HORSE MEADOW, Alpine, CA03, -119.890, 38.840, 8557, 34.2, 0.80
CARSON PASS, Alpine, CA02, -119.990, 38.690, 8353, 32.9, 1.60
CROWDER FLAT, Modoc, CA01, -120.750, 41.890, 5170, 34.7, 1.40
CEDAR PASS, Modoc, CA02, -120.300, 41.580, 7030, 32.0, 2.20
DISMAL SWAMP, Modoc, CA03, -120.180, 41.990, 7360, 29.2, 3.30
ADIN MTN, Modoc, CA02, -120.790, 41.240, 6190, 31.9, 2.00
INDEPENDENCE CREEK, Sierra, CA03, -120.280, 39.490, 6456, 34.8, 1.70
INDEPENDENCE CAMP, Sierra, CA03, -120.290, 39.450, 7003, 36.1, 1.50
ROCK CREEK, Mono, CA07, -118.667, 37.551, 7040, 36.4, M
RODEO VALLEY, Mendocino, CA01, -123.321, 39.668, 2428, 46.2, M
ROSE VALLEY CALIFORNIA, Ventura, CA06, -119.184, 34.543, 3331, 46.8, M
ROUND MOUNTAIN, Siskiyou, CA02, -121.464, 41.427, 5258, 36.3, M
ROSE PEAK CALIFORNIA, Alameda, CA04, -121.735, 37.502, 3060, 47.8, M
RUSH CREEK CALIFORNIA, Modoc, CA02, -120.864, 41.294, 4800, 36.8, M
RUTH CALIFORNIA, Trinity, CA01, -123.316, 40.251, 2732, 44.2, M
SACRAMENTO NWR CALIFORNIA, Glenn, CA02, -122.182, 39.417, 120, 51.8, M
SADDLEBACK BUTTE CALIFORNIA, Los Angeles, CA07, -117.821, 34.685, 2590, 48.6, M
SAUGUS CALIFORNIA, Los Angeles, CA06, -118.525, 34.425, 1450, 57.8, M
SAWYERS BAR CALIFORNIA, Siskiyou, CA01, -123.132, 41.300, 2192, 43.9, M
SANTA BARBARA ISLAND CALIFORNI, Santa Barbara, CA06, -119.033, 33.483, 176, 57.8, M
SANTA CRUZ ISLAND CALIFORNIA, Santa Barbara, CA06, -119.722, 33.996, 250, 56.9, M
SCORPION CALIFORNIA, Trinity, CA01, -122.697, 41.112, 4400, 42.6, M
SODA CREEK CALIFORNIA, Lake, CA01, -122.977, 39.425, 1773, 45.3, M
SADDLEBACK CALIFORNIA, Sierra, CA02, -120.865, 39.638, 6670, 37.2, M
SECRET TOWN CALIFORNIA, Nevada, CA02, -120.885, 39.184, 2826, 47.5, M
SANTA FE DAM CALIFORNIA, Los Angeles, CA06, -117.946, 34.121, 500, 62.1, M
SHAVER CALIFORNIA, Fresno, CA05, -119.256, 37.135, 5746, 39.5, M
SCHOOL HOUSE CALIFORNIA, Humboldt, CA01, -123.906, 41.138, 2640, 44.5, M
SHIP MTN. CALIFORNIA, Del Norte, CA01, -123.792, 41.736, 5300, 35.1, M
SHADEQUARTER CALIFORNIA, Tulare, CA05, -118.956, 36.567, 4069, 47.6, M
SIMS CALIFORNIA, Shasta, CA02, -122.373, 41.075, 2400, 44.3, M
SIMI VALLEY CALIFORNIA, Ventura, CA06, -118.814, 34.291, 914, 58.6, M
SLATER BUTTE CALIFORNIA, Siskiyou, CA01, -123.352, 41.859, 4670, 37.6, M
SAN MIGUEL CALIFORNIA, San Diego, CA06, -116.974, 32.685, 425, 60.9, M
SAN LUIS NWR CALIFORNIA, Merced, CA05, -120.794, 37.182, 65, 51.8, M
SANTA RITA CALIFORNIA, San Benito, CA05, -120.598, 36.348, 5000, 46.0, M
SOLDIER MOUNTAIN CALIFORNIA, Shasta, CA02, -121.586, 40.926, 3710, 41.2, M
SOMES BAR CALIFORNIA, Siskiyou, CA01, -123.496, 41.390, 920, 48.3, M
SQUAW SPRINGS CALIFORNIA, San Bernardino, CA07, -117.568, 35.370, 3620, 51.4, M
SQUAW LAKE CALIFORNIA, Imperial, CA07, -114.494, 32.908, 300, 64.2, M
GARBERVILLE 1.1 WSW, Humboldt, CA01, -123.810, 40.089, 510, M, 1.58
BARSTOW 0.8 SSE, San Bernardino, CA07, -117.059, 34.867, 2609, M, 0.59
MCOLF CAMP PENDLETON RED BEACH AIRPORT, San Diego, -, -117.456, 33.286, 89, 58.9, 2.76
CAMPO ASOS, San Diego, CA07, -116.468, 32.626, 2641, 49.8, 2.94
Burbank Glendale Pasadena Area, -, -, -, -, -, 57.8, 1.93
Camarillo Area, -, -, -, -, -, 59.7, 1.80
Needles Area, -, -, -, -, -, 61.2, 0.31
Oxnard Area, -, -, -, -, -, 58.2, 2.13
Palm Springs Area, -, -, -, -, -, 61.5, 0.42
Riverside Area, -, -, -, -, -, 58.5, 1.28
Ramona Area, -, -, -, -, -, 53.2, 3.25
Northern CA 8 Station Index, -, -, -, -, -, M, 2.69
San Joaquin 5 Station Index, -, -, -, -, -, M, 1.45
INDEPENDENCE LAKE, Nevada, CA03, -120.310, 39.430, 8352, 32.6, 3.10
TRUCKEE #2, Placer, CA03, -120.180, 39.300, 6509, 37.4, 1.60
WARD CREEK #3, Placer, CA03, -120.220, 39.140, 6655, 36.3, 3.30
TAHOE CITY CROSS, Placer, CA03, -120.150, 39.170, 6797, 37.3, 1.60
SQUAW VALLEY G.C., Placer, CA03, -120.260, 39.190, 8029, 34.4, 2.80
CSS LAB, Nevada, CA02, -120.370, 39.330, 6855, 36.1, 3.80
RUBICON #2, El Dorado, CA03, -120.130, 39.000, 7689, 36.3, 1.70
ECHO PEAK, El Dorado, CA03, -120.080, 38.850, 7670, 37.0, 2.20
FALLEN LEAF, El Dorado, CA03, -120.050, 38.930, 6236, 37.1, 0.90
SMARTSVILLE 2.4 S, Yuba, CA02, -121.291, 39.173, 859, M, 0.42
Crescent City Area, -, -, -, -, -, 49.1, 7.15
Escondido Area, -, -, -, -, -, 58.9, 3.10
Sacramento Downtown Area, -, -, -, -, -, 53.1, 0.87
Tahoe City Area, -, -, -, -, -, 35.7, 0.96
Ukiah Area, -, -, -, -, -, 49.3, 2.68
Alturas Area, -, -, -, -, -, 35.3, 0.72
Mount Shasta Area, -, -, -, -, -, 39.3, 2.38
Palmdale Area, -, -, -, -, -, 49.9, 0.45
Lancaster Area, -, -, -, -, -, 48.9, 0.57
El Cajon Area, -, -, -, -, -, 58.8, 3.36
Hanford Area, -, -, -, -, -, 50.2, 0.72
El Centro Area, -, -, -, -, -, 61.0, 0.13
Madera Area, -, -, -, -, -, 51.1, 0.87
Merced Area, -, -, -, -, -, 52.3, 0.88
San Jose Area, -, -, -, -, -, 53.5, 0.70
APTOS 1.7 SSE, Santa Cruz, CA04, -121.883, 36.971, 309, M, 0.99
BOULDER CREEK 3.0 NW, Santa Cruz, CA04, -122.164, 37.169, 875, M, 3.60
FELTON 4.5 NNE, Santa Cruz, CA04, -122.047, 37.105, 838, M, 3.35
RED BLUFF 4.3 W, Tehama, CA02, -122.322, 40.179, 396, M, 3.19
LINDSAY 0.5 N, Tulare, CA05, -119.088, 36.213, 378, M, 0.00
TERRA BELLA 6.3 W, Tulare, CA05, -119.149, 35.950, 374, M, 0.87
VISALIA 0.7 SSE, Tulare, CA05, -119.318, 36.315, 318, M, 0.87
DOUGLAS CITY 2.4 SW, Trinity, CA01, -122.978, 40.633, 1689, M, 2.26
HAWKINS BAR 0.6 NW, Trinity, CA01, -123.530, 40.877, 674, M, 4.58
MAD RIVER 7.4 SE, Trinity, CA01, -123.376, 40.321, 2762, M, 4.34
HAYFORK 7.1 SE, Trinity, CA01, -123.030, 40.500, 2917, M, 1.53
TRINITY CENTER 0.6 ESE, Trinity, CA01, -122.696, 40.983, 2427, M, 4.22
WEAVERVILLE 2.6 S, Trinity, CA01, -122.941, 40.731, 2017, M, 1.44
SALYER 1.4 ESE, Trinity, CA01, -123.559, 40.887, 696, M, 4.50
THOUSAND OAKS 2.1 WSW, Ventura, CA06, -118.898, 34.177, 692, M, 1.91
FRAZIER PARK 10.7 WSW, Ventura, CA06, -119.110, 34.746, 5274, M, 1.35
SIMI VALLEY 3.8 SW, Ventura, CA06, -118.805, 34.231, 1081, M, 2.20
VENTURA 0.5 WNW, Ventura, CA06, -119.276, 34.273, 56, M, 2.28
OJAI 0.3 WNW, Ventura, CA06, -119.251, 34.451, 797, M, 2.07
SIMI VALLEY 1.0 NW, Ventura, CA06, -118.764, 34.272, 848, M, 2.12
THOUSAND OAKS 2.5 WSW, Ventura, CA06, -118.909, 34.179, 703, M, 2.04
CHALLENGE-BROWNSVILLE 1.3 WSW, Yuba, CA02, -121.280, 39.452, 2049, M, 2.49
DAVIS 1.2 SE, Yolo, CA02, -121.721, 38.543, 36, M, 1.11
DAVIS 0.8 NE, Yolo, CA02, -121.724, 38.562, 41, M, 1.15
DAVIS 1.4 SSE, Yolo, CA02, -121.722, 38.538, 4, M, 1.01
DAVIS 6.1 WNW, Yolo, CA02, -121.845, 38.578, 83, M, 1.24
DAVIS 2.7 W, Yolo, CA02, -121.786, 38.552, 57, M, 1.18
WOODLAND 2.8 SE, Yolo, CA02, -121.732, 38.647, 38, M, 0.21
PLACERVILLE 3 ENE, El Dorado, CA02, -120.742, 38.785, 2658, 48.9, 1.00
TAHOMA, El Dorado, CA03, -120.129, 39.060, 6315, 33.1, 1.38
CORONA MUNICIPAL AIRPORT, Riverside, -, -117.602, 33.898, 533, 54.6, 0.11
OAKLAND 4.4 NNW, Alameda, CA04, -122.250, 37.832, 191, M, 1.81
SAN LORENZO 0.5 NNW, Alameda, CA04, -122.133, 37.682, 30, M, 1.19
OROVILLE 4.8 E, Butte, CA02, -121.477, 39.493, 668, M, 1.86
MCKINLEYVILLE 4.3 E, Humboldt, CA01, -124.034, 40.953, 173, M, 5.96
KNEELAND 0.4 NNW, Humboldt, CA01, -123.999, 40.766, 2008, M, 6.38
MCKINLEYVILLE 1.2 SSW, Humboldt, CA01, -124.126, 40.938, 58, M, 4.50
BISHOP 8.8 WNW, Inyo, CA07, -118.547, 37.411, 4537, M, 0.11
HANFORD 1.2 WNW, Kings, CA05, -119.667, 36.331, 243, M, 0.25
CLAREMONT 0.5 E, Los Angeles, CA06, -117.707, 34.121, 1465, M, 1.78
LOS ANGELES 4.3 NNW, Los Angeles, CA06, -118.435, 34.171, 675, M, 2.40
LANCASTER 6.5 ENE, Los Angeles, CA07, -118.066, 34.718, 2366, M, 0.47
PACIFIC GROVE 0.6 N, Monterey, CA04, -121.925, 36.631, 53, M, 1.80
ANAHEIM HILLS 1.1 SE, Orange, CA06, -117.762, 33.835, 881, M, 1.81
FOOTHILL RANCH 0.3 NW, Orange, CA06, -117.664, 33.689, 1045, M, 1.73
CORONA 12.5 SE, Riverside, CA06, -117.431, 33.735, 1302, M, 1.95
CARLSBAD 2.2SE, San Diego, CA06, -117.321, 33.143, 22, M, 2.41
DESCANSO 0.3 WNW, San Diego, CA06, -116.621, 32.854, 3442, M, 4.45
SAN DIEGO 5.2WNW, San Diego, CA06, -117.245, 32.735, 251, M, 2.66
VISTA 1.2SE, San Diego, CA06, -117.231, 33.186, 505, M, 2.98
IGO 0.2 S, Shasta, CA02, -122.541, 40.503, 1074, M, 3.75
SHINGLETOWN 0.6 WSW, Shasta, CA02, -121.900, 40.490, 3461, M, 2.22
STOCKTON 0.7 E, San Joaquin, CA05, -121.293, 37.969, 16, M, 0.85
PASO ROBLES 1.8 WSW, San Luis Obispo, CA04, -120.693, 35.622, 767, M, 1.88
BELMONT 0.7 WSW, San Mateo, CA04, -122.306, 37.510, 482, M, 1.56
FORESTVILLE 0.7 SW, Sonoma, CA01, -122.897, 38.473, 201, M, 3.63
RIALTO 2.1 N, San Bernardino, CA06, -117.381, 34.144, 1482, M, 1.72
THREE RIVERS 1.7 NE, Tulare, CA05, -118.886, 36.458, 1010, M, 1.31
TRINITY CENTER 0.2 ENE, Trinity, CA01, -122.704, 40.986, 2481, M, 1.21
FILLMORE 2.1 NNW, Ventura, CA06, -118.933, 34.428, 534, M, 1.55
VERDI 2W, Sierra, CA03, -120.027, 39.521, 5429, 38.1, 0.67
CHICO 1.2 NNW, Butte, CA02, -121.814, 39.770, 251, M, 1.54
CARSON 0.7 NW, Los Angeles, CA06, -118.265, 33.844, 15, M, 1.24
PASADENA 2.0 SE, Los Angeles, CA06, -118.116, 34.139, 739, M, 2.13
RAYMOND 6.8 NE, Madera, CA05, -119.802, 37.272, 1802, M, 0.94
SUNNYVALE 3.6 S (W6NW), Santa Clara, CA04, -122.018, 37.334, 170, M, 0.75
CRESCENT CITY 4.2 NE, Del Norte, CA01, -124.143, 41.800, 98, M, 6.74
POLLOCK PINES 0.5 NW, El Dorado, CA02, -120.578, 38.757, 3895, M, 1.49
EUREKA 3.0 SSW, Humboldt, CA01, -124.181, 40.757, 100, M, 4.12
MCKINLEYVILLE 0.7 ESE, Humboldt, CA01, -124.104, 40.950, 127, M, 2.77
TEHACHAPI 2.2 W, Kern, CA05, -118.480, 35.132, 3945, M, 0.76
DIAMOND BAR 1.9 NNE, Los Angeles, CA06, -117.796, 34.023, 935, M, 1.44
LA CRESCENTA-MONTROSE 3.9 NW, Los Angeles, CA06, -118.287, 34.270, 1974, M, 2.42
RANCHO PALOS VERDES 2.0 NW, Los Angeles, CA06, -118.385, 33.780, 1083, M, 2.23
MARIPOSA 12.5 E, Mariposa, CA05, -119.740, 37.462, 2940, M, 1.31
BIG SUR 7.2 NNW, Monterey, CA04, -121.818, 36.353, 2434, M, 2.76
IRVINE 2.9 WSW, Orange, CA06, -117.838, 33.640, 193, M, 1.24
MISSION VIEJO 3.5 SSE(K6WTA), Orange, CA06, -117.639, 33.563, 613, M, 1.65
IRVINE 4.1 NNE, Orange, CA06, -117.772, 33.718, 152, M, 1.72
ANAHEIM 4.9 E, Orange, CA06, -117.787, 33.847, 374, M, 1.16
LOS ALTOS HILLS 1.3 N, Santa Clara, CA04, -122.135, 37.387, 194, M, 0.73
SAN DIEGO 7.6 NNW, San Diego, CA06, -117.188, 32.916, 383, M, 3.17
CHULA VISTA 3.1SE, San Diego, CA06, -117.051, 32.604, 200, M, 3.18