Name, County, ClimateDivision, Longitude, Latitude, Elevation, MeanAvgTemperature, TotalPrecipitation
IMPERIAL, Imperial, CA07, -115.567, 32.849, -64, 85.7, 0.17
EL CAPITAN DAM, San Diego, CA06, -116.815, 32.886, 600, 75.2, 0.12
LAKESIDE 2 E, San Diego, CA06, -116.895, 32.854, 690, M, 0.15
POWAY VALLEY, San Diego, CA06, -117.031, 33.020, 648, 70.9, 0.32
JULIAN CDF, San Diego, CA06, -116.592, 33.076, 4215, 71.3, 0.41
CARLSBAD MCCLELLAN PALOMAR AP, San Diego, CA06, -117.277, 33.130, 313, 67.8, 0.03
HENSHAW DAM, San Diego, CA06, -116.761, 33.237, 2700, 67.8, 0.29
VISTA, San Diego, CA06, -117.232, 33.235, 430, 70.2, 0.02
OCEANSIDE MARINA, San Diego, CA06, -117.395, 33.210, 10, 65.2, 0.00
NILAND, Imperial, CA07, -115.524, 33.278, -60, M, 0.27
BORREGO DESERT PARK, San Diego, CA07, -116.404, 33.256, 810, 88.2, 0.50
PALOMAR MTN OBSERVATORY, San Diego, CA06, -116.840, 33.378, 5550, 70.1, 0.30
MECCA FIRE STATION, Riverside, CA07, -116.073, 33.570, -183, 87.6, 0.00
LAGUNA BEACH, Orange, CA06, -117.781, 33.545, 44, M, 0.03
BLYTHE ASOS, Riverside, CA07, -114.715, 33.619, 395, 88.9, 0.08
DESERT RESORTS REGIONAL AP, Riverside, CA07, -116.164, 33.632, -118, 85.9, 0.58
DEEP CANYON LAB, Riverside, CA07, -116.376, 33.651, 1200, M, 1.24
ELSINORE, Riverside, CA06, -117.346, 33.686, 1268, 77.9, 0.03
SANTA ANA JOHN WAYNE AP, Orange, CA06, -117.867, 33.680, 43, 70.3, 0.07
HAYFIELD PUMPING PLANT, Riverside, CA07, -115.629, 33.704, 1370, 84.3, 1.98
IDYLLWILD FIRE DEPT, Riverside, CA06, -116.707, 33.757, 5380, 66.9, 1.64
SAN JACINTO, Riverside, CA06, -116.975, 33.797, 1525, 77.4, 0.22
HEMET, Riverside, CA06, -116.894, 33.738, 1811, 78.3, 0.00
SANTA ANA FIRE STATION, Orange, CA06, -117.867, 33.744, 135, 72.5, 0.06
EAGLE MOUNTAIN, Riverside, CA07, -115.451, 33.809, 973, 88.0, 0.19
PALM SPRINGS, Riverside, CA07, -116.510, 33.828, 425, 88.4, 0.55
LONG BEACH DAUGHERTY AP, Los Angeles, CA06, -118.147, 33.812, 34, 70.8, 0.02
FULLERTON MUNICIPAL AP, Orange, CA06, -117.986, 33.872, 86, 73.7, 0.06
BEAUMONT #2, Riverside, CA07, -116.990, 33.926, 2591, M, 0.04
MARCH AFB, Riverside, CA06, -117.250, 33.900, 1536, 73.4, 0.03
YORBA LINDA, Orange, CA06, -117.819, 33.890, 350, M, 0.00
HAWTHORNE MUNICIPAL AP, Los Angeles, CA06, -118.333, 33.924, 55, 69.0, 0.03
LOS ANGELES INTL AP, Los Angeles, CA06, -118.387, 33.938, 97, 66.9, 0.01
RIVERSIDE FIRE STATION 3, Riverside, CA06, -117.388, 33.951, 840, 76.7, 0.00
RIVERSIDE MUNICIPAL AP, Riverside, CA06, -117.435, 33.953, 845, 76.4, 0.04
CHINO AP, San Bernardino, CA06, -117.625, 33.976, 636, 74.4, T
WHITTIER CITY YARD FC106C, Los Angeles, CA06, -118.022, 33.976, 446, M, 0.06
BARSTOW-DAGGETT AIRPORT, San Bernardino, CA07, -116.787, 34.854, 1919, 82.7, 0.31
MERCED, Merced, CA05, -120.516, 37.289, 154, 75.3, 0.02
SAN DIEGO MONTGOMERY FIELD, San Diego, CA06, -117.137, 32.815, 418, 69.7, 0.11
SAN DIEGO INTERNATIONAL AP, San Diego, CA06, -117.183, 32.734, 15, 68.8, 0.13
SAN DIEGO MIRAMAR NAS, San Diego, CA06, -117.133, 32.867, 477, 69.6, 0.11
NORTH ISLAND NAS, San Diego, CA06, -117.210, 32.692, 14, 71.4, 0.13
SAN FRANCISCO INTERNATIONAL AP, San Mateo, CA04, -122.366, 37.620, 10, 64.7, 0.01
SAN LUIS OBISPO MCCHESNEY FIELD, San Luis Obispo, CA04, -120.644, 35.238, 183, 66.4, 0.06
CEDARVILLE, Modoc, CA03, -120.179, 41.530, 4688, 66.9, 0.00
CHICO UNIVERSITY FARM, Butte, CA02, -121.821, 39.691, 185, 77.1, 0.00
CHULA VISTA, San Diego, CA06, -117.086, 32.640, 56, 68.3, 0.11
COLFAX, Placer, CA02, -120.947, 39.090, 2373, 75.9, 0.00
CUYAMACA, San Diego, CA06, -116.587, 32.990, 4640, 66.3, 0.31
DAVIS 2 WSW EXP FARM, Yolo, CA02, -121.776, 38.535, 60, 75.3, 0.01
DEATH VALLEY NATIONAL PARK, Inyo, CA07, -116.867, 36.463, -194, 94.5, 0.09
FORT BRAGG 5 N, Mendocino, CA01, -123.756, 39.510, 123, 57.2, 0.30
HANFORD 1 S, Kings, CA05, -119.637, 36.316, 237, 77.4, 0.01
HAPPY CAMP RANGER STATION, Siskiyou, CA01, -123.375, 41.796, 1142, 67.2, 0.28
HEALDSBURG, Sonoma, CA01, -122.866, 38.629, 177, 69.6, 0.00
INDIO FIRE STATION, Riverside, CA07, -116.215, 33.709, -21, 88.2, 0.29
LEMON COVE, Tulare, CA05, -119.026, 36.382, 513, 77.6, 0.01
LIVERMORE, Alameda, CA04, -121.751, 37.682, 529, 72.9, T
LODI, San Joaquin, CA05, -121.288, 38.106, 40, 74.3, 0.02
MERCED MUNICIPAL AP, Merced, CA05, -120.518, 37.286, 152, 77.2, T
NAPA STATE HOSPITAL, Napa, CA01, -122.265, 38.278, 35, 70.4, 0.00
OJAI, Ventura, CA06, -119.227, 34.448, 745, 70.8, 0.01
ORLAND, Glenn, CA02, -122.200, 39.746, 254, 78.2, 0.02
ORLEANS, Humboldt, CA01, -123.532, 41.309, 403, 70.0, 0.22
PASADENA, Los Angeles, CA06, -118.145, 34.148, 864, 75.9, 0.00
PASO ROBLES, San Luis Obispo, CA04, -120.685, 35.628, 730, 70.9, 0.03
PETALUMA AIRPORT, Sonoma, CA01, -122.608, 38.258, 20, 67.9, 0.00
QUINCY, Plumas, CA02, -120.947, 39.937, 3420, 65.1, 0.86
REDLANDS, San Bernardino, CA06, -117.195, 34.037, 1410, 77.4, 0.05
SANTA BARBARA, Santa Barbara, CA06, -119.684, 34.417, 16, 64.4, 0.00
SANTA CRUZ, Santa Cruz, CA04, -122.000, 36.988, 70, 63.2, 0.05
SANTA ROSA, Sonoma, CA01, -122.713, 38.456, 166, 68.1, 0.01
TAHOE CITY, Placer, CA03, -120.143, 39.168, 6230, 58.1, 0.46
UKIAH, Mendocino, CA01, -123.210, 39.147, 636, 71.5, M
WASCO, Kern, CA05, -119.352, 35.589, 291, 80.4, T
WEAVERVILLE, Trinity, CA01, -122.940, 40.737, 2058, 68.3, 0.09
WILLOWS 6 W, Glenn, CA02, -122.305, 39.523, 234, 77.2, 0.07
YOSEMITE PARK HEADQUARTERS, Mariposa, CA05, -119.590, 37.750, 4018, 69.3, 3.42
YREKA, Siskiyou, CA01, -122.641, 41.703, 2709, 67.1, 0.05
BERKELEY, Alameda, CA04, -122.260, 37.874, 310, 64.5, 0.05
BLYTHE, Riverside, CA07, -114.597, 33.613, 268, 92.1, 0.00
EUREKA WFO WOODLEY ISLAND, Humboldt, CA01, -124.160, 40.810, 20, 56.9, 0.37
INDEPENDENCE, Inyo, CA07, -118.204, 36.798, 3950, 76.9, 0.05
SAN LUIS OBISPO POLY, San Luis Obispo, CA04, -120.662, 35.306, 308, 65.5, 0.01
BURNEY, Shasta, CA02, -121.655, 40.880, 3198, 63.0, 0.30
IMPERIAL BEACH REAM FIELD NAS, San Diego, CA06, -117.117, 32.568, 24, 66.4, 0.04
CAMPO, San Diego, CA06, -116.470, 32.626, 2630, 71.2, 0.22
EL CENTRO 2 SSW, Imperial, CA07, -115.562, 32.767, -30, 89.4, 0.02
IMPERIAL COUNTY AP, Imperial, CA07, -115.577, 32.835, -55, 88.6, 0.09
EL CENTRO NAF, Imperial, CA07, -115.664, 32.832, -46, 88.0, 0.39
ALPINE, San Diego, CA06, -116.777, 32.836, 1695, 71.8, 0.20
CULVER CITY, Los Angeles, CA06, -118.414, 34.005, 92, 66.9, 0.04
SANTA MONICA MUNICIPAL AP, Los Angeles, CA06, -118.447, 34.021, 175, 66.7, 0.05
SANTA MONICA PIER, Los Angeles, CA06, -118.500, 34.008, 14, M, 0.00
ONTARIO INTL AP, San Bernardino, CA06, -117.577, 34.053, 924, 75.6, 0.02
POMONA/FAIRPLEX, Los Angeles, CA06, -117.766, 34.082, 999, 74.1, 0.03
COVINA CITY YARD FC387B, Los Angeles, CA06, -117.880, 34.092, 607, M, 0.02
U C L A, Los Angeles, CA06, -118.443, 34.070, 430, 68.5, 0.07
TOPANGA PATROL FC-6, Los Angeles, CA06, -118.599, 34.084, 745, M, 0.00
IRON MOUNTAIN, San Bernardino, CA07, -115.122, 34.147, 922, 88.8, 0.83
TWENTYNINE PALMS, San Bernardino, CA07, -116.037, 34.128, 1975, 83.3, 0.04
JOSHUA TREE, San Bernardino, CA07, -116.275, 34.147, 2563, 81.0, 0.27
SAN DIMAS FIRE FC 95, Los Angeles, CA06, -117.802, 34.105, 958, M, 0.04
SAN GABRIEL FIRE DEPT, Los Angeles, CA06, -118.100, 34.084, 363, M, 0.02
POINT MUGU NF, Ventura, CA06, -119.123, 34.124, 12, 62.8, 0.03
ALTADENA, Los Angeles, CA06, -118.138, 34.182, 1127, M, 0.00
SAN GABRIEL CANYON PH, Los Angeles, CA06, -117.908, 34.155, 744, 76.8, 0.02
WOODLAND HILLS PIERCE COLLEGE, Los Angeles, CA06, -118.574, 34.182, 790, 74.8, 0.07
LYTLE CREEK R S, San Bernardino, CA06, -117.471, 34.238, 2730, M, 0.00
SAN GABRIEL DAM FC425B-E, Los Angeles, CA06, -117.861, 34.205, 1481, M, 0.05
MT WILSON CBS, Los Angeles, CA06, -118.071, 34.231, 5710, 70.7, 0.00
VAN NUYS AP, Los Angeles, CA06, -118.491, 34.212, 785, 73.3, 0.11
CAMARILLO AP, Ventura, CA06, -119.088, 34.211, 71, 68.4, 0.04
OXNARD VENTURA COUNTY AP, Ventura, CA06, -119.204, 34.200, 39, 64.5, 0.03
PARKER RESRVOIR, San Bernardino, CA07, -114.171, 34.290, 738, 90.7, 0.75
TWENTYNINE PALMS MC, San Bernardino, CA07, -116.147, 34.294, 2003, M, 0.08
BIG BEAR LAKE, San Bernardino, CA06, -116.917, 34.243, 6753, 60.0, 1.34
LAKE ARROWHEAD, San Bernardino, CA07, -117.188, 34.247, 5205, M, 0.26
CHATSWORTH FC 24 F, Los Angeles, CA06, -118.600, 34.250, 950, M, 0.00
CRYSTAL LAKE FC238C, Los Angeles, CA06, -117.842, 34.318, 5345, M, 0.23
BIG TUJUNGA DAM FC46, Los Angeles, CA06, -118.188, 34.295, 2326, M, 0.00
PACOIMA DAM FC33A-E, Los Angeles, CA06, -118.400, 34.329, 1550, M, 0.00
PIRU 2 ESE, Ventura, CA06, -118.757, 34.406, 712, M, 0.00
SANTA BARBARA MUNI AP, Santa Barbara, CA06, -119.842, 34.424, 8, 62.9, 0.00
JUNCAL DAM, Santa Barbara, CA06, -119.507, 34.491, 2260, M, 0.00
VICTORVILLE, San Bernardino, CA07, -117.293, 34.529, 2880, 75.7, 0.06
ACTON ESCONDIDO FC261, Los Angeles, CA06, -118.271, 34.494, 2833, M, 0.00
AMBOY, San Bernardino, CA07, -115.744, 34.559, 648, 87.4, 0.53
PALMDALE, Los Angeles, CA07, -118.094, 34.588, 2612, 78.8, 1.45
SAUGUS POWER PLANT 1, Los Angeles, CA06, -118.454, 34.590, 2161, 76.0, 0.37
LOS PRIETOS RS, Santa Barbara, CA06, -119.791, 34.544, 1024, M, 0.05
CACHUMA LAKE, Santa Barbara, CA06, -119.982, 34.582, 789, 70.7, 0.00
SALSIPUEDES GAGING STATION, Santa Barbara, CA06, -120.408, 34.585, 254, M, 0.02
PALMDALE AP, Los Angeles, CA07, -118.083, 34.629, 2509, 77.5, 0.85
LOMPOC, Santa Barbara, CA06, -120.451, 34.654, 75, 63.4, 0.08
LANCASTER, Los Angeles, CA06, -118.213, 34.741, 2338, 76.3, 0.01
SANDBERG, Los Angeles, CA06, -118.724, 34.744, 4510, 73.2, 0.02
LEBEC, Kern, CA05, -118.865, 34.833, 3575, 70.4, T
NEW CUYAMA FIRE STATION, Santa Barbara, CA06, -119.683, 34.946, 2160, 72.7, 1.70
TWITCHELL DAM, Santa Barbara, CA06, -120.321, 34.988, 582, 67.7, 0.07
TEHACHAPI AP, Kern, CA05, -118.432, 35.131, 3960, 67.8, 0.00
PISMO BEACH, San Luis Obispo, CA04, -120.683, 35.160, 39, 59.7, 0.15
TAFT, Kern, CA05, -119.430, 35.150, 773, 83.3, 0.00
BAKER, San Bernardino, CA07, -116.063, 35.276, 962, 85.6, 1.11
SALINAS DAM, San Luis Obispo, CA04, -120.504, 35.337, 1392, 72.8, 0.15
RANDSBURG, Kern, CA07, -117.652, 35.369, 3570, 77.6, T
SANTA MARGARITA BOOST, San Luis Obispo, CA04, -120.637, 35.374, 1148, 70.9, 0.02
MORRO BAY FIRE DEPT, San Luis Obispo, CA04, -120.845, 35.367, 118, 65.7, 0.02
BAKERSFIELD AP, Kern, CA05, -119.055, 35.434, 490, 80.3, T
BUTTONWILLOW, Kern, CA05, -119.470, 35.403, 225, 79.0, 0.00
GLENNVILLE, Kern, CA05, -118.701, 35.727, 3140, 67.0, 0.10
TRONA, San Bernardino, CA07, -117.391, 35.764, 1695, 83.6, 0.00
DELANO, Kern, CA05, -119.260, 35.768, 302, 78.4, 0.02
BRADLEY TELEMETERING, Monterey, CA04, -120.868, 35.930, 443, M, 0.00
PORTERVILLE MUNICIPAL AIRPORT, Tulare, CA05, -119.062, 36.029, 442, 77.8, 0.01
KETTLEMAN CITY, Kings, CA05, -119.960, 36.007, 240, 78.4, 0.00
HAIWEE, Inyo, CA07, -117.953, 36.139, 3825, 77.6, 0.05
CORCORAN IRRIGATION DIST., Kings, CA05, -119.582, 36.098, 200, 77.1, 0.00
COALINGA, Fresno, CA05, -120.361, 36.136, 670, 80.7, 0.01
PRIEST VALLEY, Monterey, CA04, -120.695, 36.188, 2300, 72.4, 0.18
KING CITY, Monterey, CA04, -121.138, 36.207, 320, 69.1, 0.04
LINDSAY, Tulare, CA05, -119.054, 36.203, 435, 76.4, 0.02
BIG SUR STATION, Monterey, CA04, -121.780, 36.247, 200, 63.1, 0.00
VISALIA, Tulare, CA05, -119.300, 36.328, 303, 77.9, 0.00
FIVE POINTS 5 SSW, Fresno, CA05, -120.156, 36.364, 285, 78.0, 0.00
SAN CLEMENTE DAM, Monterey, CA04, -121.709, 36.438, 600, M, 0.00
ASH MOUNTAIN, Tulare, CA05, -118.825, 36.491, 1708, 78.5, 0.02
THREE RIVERS EDISON PH 1, Tulare, CA05, -118.862, 36.465, 1140, 75.8, 0.00
PINNACLES NATIONAL PARK, San Benito, CA04, -121.182, 36.482, 1307, 71.2, 0.01
CARMEL VALLEY, Monterey, CA04, -121.724, 36.481, 480, 66.6, 0.00
LODGEPOLE, Tulare, CA05, -118.732, 36.604, 6735, 56.1, 1.28
PANOCHE 2 W, San Benito, CA05, -120.884, 36.607, 1400, M, T
MONTEREY, Monterey, CA04, -121.855, 36.593, 122, 61.1, 0.03
SALINAS NO. 2, Monterey, CA04, -121.666, 36.659, 45, 63.4, 0.02
SALINAS AP, Monterey, CA04, -121.609, 36.664, 73, 64.2, 0.03
GRANT GROVE, Tulare, CA05, -118.962, 36.738, 6580, 61.4, 0.77
PINE FLAT DAM, Fresno, CA05, -119.337, 36.821, 615, 79.8, 0.00
LOS BANOS ARBURUA RANCH, Merced, CA05, -120.939, 36.875, 843, M, 0.01
HOLLISTER 2, San Benito, CA04, -121.421, 36.848, 275, 66.8, 0.00
BALCH POWER HOUSE, Fresno, CA05, -119.088, 36.909, 1735, 76.9, 0.25
WATSONVILLE WATERWORKS, Santa Cruz, CA04, -121.769, 36.931, 95, 63.0, 0.00
FRIANT GOVERNMENT CAMP, Fresno, CA05, -119.707, 36.997, 410, 77.4, 0.00
MADERA, Madera, CA05, -120.038, 36.954, 270, 76.5, 0.00
WISHON DAM, Fresno, CA05, -118.984, 37.007, 6550, 62.9, 0.75
GILROY, Santa Clara, CA04, -121.561, 37.003, 194, 70.4, 0.00
AUBERRY 2 NW, Fresno, CA05, -119.513, 37.092, 2090, 78.0, 0.03
LOS BANOS, Merced, CA05, -120.867, 37.056, 120, 77.6, 0.00
BEN LOMOND NO. 4, Santa Cruz, CA04, -122.080, 37.086, 420, 68.1, 0.00
MORGAN HILL, Santa Clara, CA04, -121.602, 37.136, 375, M, M
ASPENDELL, Inyo, CA01, -118.599, 37.232, 8470, 57.3, 0.01
HUNTINGTON LAKE, Fresno, CA05, -119.221, 37.228, 7020, M, 0.00
NORTH FORK RS, Madera, CA05, -119.510, 37.233, 2645, 72.1, 0.03
LOS GATOS, Santa Clara, CA04, -121.959, 37.232, 365, 70.2, 0.00
NEWMAN, Stanislaus, CA05, -121.018, 37.281, 90, 78.4, 0.00
MOUNT HAMILTON, Santa Clara, CA04, -121.635, 37.343, 4220, 72.8, T
BISHOP AIRPORT, Inyo, CA07, -118.359, 37.371, 4110, 69.1, 0.16
MOFFETT FEDERAL AIRFIELD, Santa Clara, CA04, -122.048, 37.406, 39, 69.7, T
TURLOCK #2, Stanislaus, CA05, -120.846, 37.502, 103, 75.9, 0.02
PALO ALTO, Santa Clara, CA04, -122.140, 37.444, 25, 66.8, 0.02
REDWOOD CITY, San Mateo, CA04, -122.239, 37.477, 31, 68.1, 0.00
HALF MOON BAY, San Mateo, CA04, -122.443, 37.473, 27, 58.1, 0.03
SO ENTRANCE YOSEMITE N.P., Mariposa, CA05, -119.633, 37.512, 5047, 62.4, 0.41
MARIPOSA R S, Mariposa, CA05, -119.986, 37.495, 2100, M, 0.05
NEWARK, Alameda, CA04, -122.032, 37.515, 10, 67.9, 0.00
EXCHEQUER DAM, Mariposa, CA05, -120.267, 37.585, 442, M, 0.01
MODESTO AP, Stanislaus, CA05, -120.955, 37.625, 87, 76.4, T
HAYWARD AIR TERMINAL, Alameda, CA04, -122.121, 37.659, 31, 67.8, T
TRACY CARBONA, San Joaquin, CA05, -121.347, 37.682, 135, 72.9, 0.00
LIVERMORE MUNICIPAL AP, Alameda, CA04, -121.815, 37.693, 393, 72.8, T
OAKLAND INTERNATIONAL AIRPORT, Alameda, CA04, -122.233, 37.718, 5, 64.3, T
UPPER SAN LEANDRO FILTERS, Alameda, CA04, -122.167, 37.772, 394, M, 0.00
SAN FRANCISCO DOWNTOWN, San Francisco, CA04, -122.427, 37.771, 150, 62.5, 0.00
SAN FRANCISCO OCEANSIDE, San Francisco, CA04, -122.505, 37.728, 8, 58.4, 0.00
GROVELAND 2, Tuolumne, CA05, -120.226, 37.844, 2800, 70.4, 0.10
TRACY PUMPING PLANT, Alameda, CA05, -121.583, 37.796, 61, 76.1, 0.00
OAKLAND MUSEUM, Alameda, CA04, -122.264, 37.798, 30, 65.6, 0.00
MOUNT DIABLO JUNCTION, Contra Costa, CA04, -121.930, 37.879, 2170, 73.4, 0.06
STOCKTON AP, San Joaquin, CA05, -121.226, 37.890, 27, 74.8, T
RICHMOND, Contra Costa, CA04, -122.377, 37.919, 20, M, M
MUIR WOODS, Marin, CA01, -122.569, 37.898, 220, M, 0.14
HETCH HETCHY, Tuolumne, CA05, -119.783, 37.961, 3870, 68.8, 1.99
CHERRY VALLEY DAM, Tuolumne, CA05, -119.916, 37.975, 4765, 69.1, 0.70
SONORA, Tuolumne, CA05, -120.387, 37.967, 1675, 71.5, 0.00
STOCKTON FIRE STA 4, San Joaquin, CA05, -121.318, 37.999, 12, 76.3, 0.00
ANTIOCH PUMPING PLANT #3, Contra Costa, CA05, -121.752, 37.983, 60, 75.9, 0.00
CONCORD BUCHANAN FIELD, Contra Costa, CA04, -122.053, 37.992, 23, 72.0, 0.02
CONCORD WASTEWATER PLANT, Contra Costa, CA04, -122.069, 37.983, 40, 73.4, 0.00
SAN RAFAEL-CIVIC CENTER, Marin, CA01, -122.537, 37.998, 120, M, 0.00
KENTFIELD, Marin, CA01, -122.545, 37.957, 145, 67.3, 0.00
MARTINEZ WATER PLANT, Contra Costa, CA04, -122.114, 38.013, 40, 67.5, 0.00
BODIE CALIFORNIA STATE HISTORIC PARK, Mono, CA03, -119.014, 38.212, 8370, 50.9, 0.48
ACAMPO 5NE, San Joaquin, CA05, -121.201, 38.218, 87, M, T
NAPA COUNTY AIRPORT, Napa, CA04, -122.280, 38.208, 16, 66.1, 0.01
BRIDGEPORT, Mono, CA03, -119.229, 38.258, 6470, 57.4, 0.36
CALAVERAS BIG TREES, Calaveras, CA05, -120.311, 38.277, 4695, 64.1, 0.13
CAMP PARDEE, Calaveras, CA05, -120.843, 38.249, 658, 76.9, 0.34
TRAVIS FIELD AFB, Solano, CA02, -121.933, 38.267, 62, M, 0.62
FAIRFIELD, Solano, CA02, -122.068, 38.274, 40, 72.1, 0.00
SONOMA, Sonoma, CA01, -122.462, 38.299, 97, 68.8, 0.00
WEST POINT, Calaveras, CA05, -120.545, 38.378, 2775, M, 0.11
ATLAS ROAD BROWN, Napa, CA01, -122.248, 38.427, 1680, M, 0.04
GRATON, Sonoma, CA01, -122.865, 38.431, 200, 67.0, 0.04
OCCIDENTAL, Sonoma, CA01, -122.966, 38.386, 865, 68.6, 0.26
FIDDLETOWN DEXTER RCH, Amador, CA05, -120.698, 38.525, 2170, M, 0.13
SACRAMENTO AP ASOS, Sacramento, CA02, -121.496, 38.507, 19, 74.5, 0.01
WINTERS, Yolo, CA02, -121.978, 38.525, 135, 77.3, 0.04
LAKE SOLANO, Solano, CA02, -122.004, 38.492, 187, 74.7, 0.04
SAINT HELENA, Napa, CA01, -122.471, 38.507, 225, 72.0, 0.03
SAINT HELENA 4 WSW, Napa, CA01, -122.538, 38.493, 1780, M, 0.00
FORT ROSS, Sonoma, CA01, -123.245, 38.515, 112, 55.9, 0.15
SACRAMENTO 5 ESE, Sacramento, CA02, -121.418, 38.555, 38, 76.2, 0.00
ANGWIN PACIFIC UNION COLLEGE, Napa, CA01, -122.440, 38.573, 1715, 69.9, 0.03
CALISTOGA, Napa, CA01, -122.578, 38.577, 350, 71.5, 0.00
VENADO, Sonoma, CA01, -123.018, 38.609, 1260, M, 0.00
WOODLAND 1 WNW, Yolo, CA02, -121.794, 38.683, 67, 76.9, 0.05
PLACERVILLE IFG, El Dorado, CA02, -120.733, 38.733, 2755, 74.9, 0.06
REPRESA, Sacramento, CA02, -121.161, 38.694, 295, M, 0.00
SACRAMENTO METROPOLITAN AP, Sacramento, CA02, -121.595, 38.701, 24, 74.3, T
PACIFIC HOUSE, El Dorado, CA02, -120.503, 38.758, 3450, 68.5, 0.77
MIDDLETOWN, Lake, CA02, -122.626, 38.748, 1121, M, 0.00
CLOVERDALE, Sonoma, CA01, -123.026, 38.793, 400, 73.8, 0.02
KELSEY 1 N, El Dorado, CA02, -120.821, 38.809, 2000, M, T
SOUTH LAKE TAHOE AP, El Dorado, CA03, -119.996, 38.898, 6257, 58.7, 0.35
GEORGETOWN RS, El Dorado, CA02, -120.801, 38.933, 3001, 75.3, 0.01
AUBURN, Placer, CA02, -121.084, 38.907, 1292, 77.4, 0.00
NICOLAUS #2, Sutter, CA02, -121.545, 38.926, 43, M, 0.00
YORKVILLE, Mendocino, CA01, -123.231, 38.905, 1100, M, 0.00
CLEARLAKE 4 SE, Lake, CA02, -122.567, 38.924, 1349, 72.7, 0.00
FORESTHILL RANGER STATION, Placer, CA02, -120.845, 39.010, 3015, M, 0.01
MARYSVILLE AIRPORT (ASOS), Yuba, CA02, -121.569, 39.102, 62, 75.9, 0.03
UKIAH MUNICIPAL AP, Mendocino, CA01, -123.200, 39.128, 603, 72.5, 0.01
UKIAH 4 WSW, Mendocino, CA01, -123.272, 39.127, 1328, M, 0.04
GOLD RUN 4 SW, Placer, CA02, -120.900, 39.150, 3220, M, 0.03
GRASS VALLEY NO. 2, Nevada, CA02, -121.068, 39.204, 2400, 70.7, 0.00
HARRY L. ENGLEBRIGHT DAM, Nevada, CA02, -121.267, 39.237, 800, M, 2.54
COLUSA 2 SSW, Colusa, CA02, -122.027, 39.188, 50, 74.4, 0.13
BLUE CANYON NYACK AP, Placer, CA02, -120.709, 39.276, 5286, 70.4, 0.11
NEVADA CITY, Nevada, CA02, -121.001, 39.247, 2781, 71.6, 0.03
TRUCKEE AIRPORT, Nevada, CA03, -120.139, 39.320, 5900, 56.0, 0.12
TRUCKEE RS, Nevada, CA03, -120.173, 39.333, 5823, M, 0.12
DONNER MEMORIAL ST PARK, Nevada, CA03, -120.233, 39.324, 5937, 59.0, 1.65
COLGATE POWERHOUSE, Yuba, CA02, -121.192, 39.331, 595, M, 0.02
MOULTON WEIR, Colusa, CA02, -122.017, 39.333, 76, M, 0.00
BOCA, Nevada, CA03, -120.094, 39.389, 5575, 58.0, 0.58
POTTER VALLEY POWERHOUSE, Mendocino, CA01, -123.129, 39.362, 1018, 72.3, 0.00
FARAD, Nevada, CA03, -120.033, 39.428, 5153, M, 0.07
WILLITS 1 NE, Mendocino, CA01, -123.342, 39.419, 1353, 64.1, 0.07
BOWMAN DAM, Nevada, CA02, -120.656, 39.454, 5385, 65.5, 1.35
OROVILLE, Butte, CA02, -121.553, 39.518, 171, 74.5, T
OROVILLE MUNICIPAL AP, Butte, CA02, -121.622, 39.494, 187, 76.0, 0.03
SIERRAVILLE RS, Sierra, CA02, -120.370, 39.583, 4975, 60.5, 0.91
DOWNIEVILLE, Sierra, CA02, -120.824, 39.563, 2915, 66.9, 0.39
STRAWBERRY VALLEY, Yuba, CA02, -121.108, 39.563, 3808, 66.4, 0.20
STONY GORGE RESERVOIR, Glenn, CA02, -122.534, 39.586, 800, 75.5, 0.03
BRUSH CREEK RANGER STATION, Butte, CA02, -121.345, 39.695, 3560, M, 0.63
PARADISE, Butte, CA02, -121.624, 39.754, 1750, 76.8, 0.07
COVELO, Mendocino, CA01, -123.244, 39.816, 1413, 68.0, 0.10
VINTON, Plumas, CA02, -120.186, 39.806, 4950, 65.3, 0.28
PORTOLA, Plumas, CA02, -120.472, 39.805, 4850, 61.4, 0.11
DE SABLA, Butte, CA02, -121.611, 39.872, 2710, 72.2, 0.09
LEGGETT, Mendocino, CA01, -123.720, 39.874, 703, M, 0.24
BUCKS CREEK, Plumas, CA02, -121.315, 39.937, 1891, M, 0.04
DOYLE 4 SSE, Lassen, CA03, -120.083, 39.972, 4390, 65.4, 0.47
DOYLE, Lassen, CA03, -120.105, 40.027, 4293, M, 0.19
RICHARDSON GR ST PK, Humboldt, CA01, -123.793, 40.026, 503, 68.4, 0.00
CANYON DAM, Plumas, CA02, -121.089, 40.171, 4560, 63.0, 0.24
MIRANDA 4 SE, Humboldt, CA01, -123.776, 40.182, 266, M, 0.16
FORT SEWARD, Humboldt, CA01, -123.632, 40.218, 220, M, 0.08
HONEYDEW 1 SW, Humboldt, CA01, -124.132, 40.238, 373, M, 0.44
CHESTER, Plumas, CA02, -121.242, 40.303, 4530, 62.7, 0.02
MINERAL, Tehama, CA02, -121.609, 40.346, 4875, 61.5, 0.00
COLEMAN FISHERIES STATION, Shasta, CA02, -122.143, 40.400, 420, M, 0.00
VOLTA PH, Shasta, CA02, -121.866, 40.458, 2220, M, 0.04
SCOTIA, Humboldt, CA01, -124.104, 40.483, 136, 63.9, 0.19
MANZANITA LAKE, Shasta, CA02, -121.577, 40.541, 5750, 59.2, 0.33
WHISKEYTOWN RESERVOIR, Shasta, CA02, -122.528, 40.612, 1295, 78.3, 0.03
SHASTA DAM, Shasta, CA02, -122.416, 40.714, 1075, 78.7, 0.17
TRINITY RIVER HATCHERY, Trinity, CA01, -122.795, 40.726, 1861, 69.0, 0.14
BIG BAR 4 E, Trinity, CA01, -123.208, 40.741, 1253, 70.0, 0.11
BUCKHORN, Shasta, CA02, -121.932, 40.880, 3700, M, 0.53
HAT CREEK, Shasta, CA02, -121.543, 40.932, 3015, 65.7, 0.09
PIT RIVER PH 5, Shasta, CA02, -121.977, 40.987, 1458, M, 0.41
WILLOW CREEK 1 NW, Humboldt, CA01, -123.636, 40.947, 464, 71.3, 0.17
FALL RIVER MILLS, Shasta, CA02, -121.435, 41.008, 3300, M, 0.10
ADIN RANGER STATION, Modoc, CA02, -120.945, 41.193, 4202, M, 0.07
DUNSMUIR TREATMENT PL, Siskiyou, CA02, -122.282, 41.183, 2169, 68.0, 0.13
JESS VALLEY, Modoc, CA02, -120.295, 41.268, 5400, 62.8, 0.77
MCCLOUD, Siskiyou, CA02, -122.138, 41.252, 3233, 63.1, 0.18
ORICK, Humboldt, CA01, -124.067, 41.283, 5, M, 0.24
CALLAHAN, Siskiyou, CA01, -122.825, 41.338, 3085, 63.4, 0.09
SAWYERS BAR RS, Siskiyou, CA01, -123.133, 41.301, 2255, 70.3, 0.22
ORLEANS RS, Humboldt, CA01, -123.534, 41.303, 433, M, 0.20
ALTURAS, Modoc, CA02, -120.544, 41.490, 4378, 62.3, 0.00
FORT JONES RS, Siskiyou, CA01, -122.848, 41.601, 2729, 63.2, 0.02
LAVA BEDS NAT MON, Siskiyou, CA01, -121.501, 41.702, 4770, 65.5, 0.14
MOUNT HEBRON RS, Siskiyou, CA01, -122.045, 41.783, 4265, 61.0, 0.05
CRESCENT CITY 3 NNW, Del Norte, CA01, -124.215, 41.796, 43, 57.4, 0.46
CRESCENT CITY MCNAMARA AP, Del Norte, CA01, -124.238, 41.784, 56, 57.7, 0.05
OAK KNOLL W. C., Siskiyou, CA01, -122.850, 41.839, 1980, M, 0.07
FORT BIDWELL, Modoc, CA03, -120.157, 41.872, 4739, 66.4, 0.00
GASQUET RS, Del Norte, CA01, -123.965, 41.845, 387, 64.1, 0.34
FORT DICK RIVER, Del Norte, CA01, -124.135, 41.881, -, M, 0.52
TULELAKE, Siskiyou, CA01, -121.474, 41.960, 4038, 60.9, 0.20
COPCO NO 1 DAM, Siskiyou, CA01, -122.338, 41.980, 2665, 69.0, 0.03
PACIFICA 4 SSE, San Mateo, CA04, -122.472, 37.592, 475, 60.3, 0.02
BARSTOW, San Bernardino, CA07, -117.022, 34.893, 2220, 79.4, 0.34
PEARBLOSSOM, Los Angeles, CA07, -117.897, 34.503, 3101, 76.6, 0.10
EL CAJON, San Diego, CA06, -116.928, 32.801, 495, 72.9, 0.10
MARKLEY COVE, Napa, CA02, -122.124, 38.492, 480, 74.3, 0.03
SUSANVILLE 2SW, Lassen, CA03, -120.663, 40.417, 4212, 65.8, 0.10
TEJON RANCHO, Kern, CA05, -118.750, 35.023, 1425, 80.7, 0.00
BURBANK GLENDALE PASADENA AP, Los Angeles, CA06, -118.365, 34.200, 731, 73.5, T
TOLLHOUSE 2.8 SSE, Fresno, CA05, -119.396, 36.978, 2111, M, 0.30
ENCINITAS 2.7N, San Diego, CA06, -117.292, 33.076, 188, M, 0.00
CARLSBAD 8.7SE, San Diego, CA06, -117.221, 33.095, 605, M, 0.05
MOUNT SHASTA, Siskiyou, CA02, -122.317, 41.322, 3613, 65.5, 0.31
WATSONVILLE MUNICIPAL AIRPORT, Santa Cruz, CA04, -121.790, 36.939, 162, 63.8, 0.06
SANTA ROSA SONOMA CO AP, Sonoma, CA04, -122.811, 38.504, 119, 67.9, 0.01
LORAINE 5 NNE, Kern, CA05, -118.412, 35.384, 4235, 68.7, 0.00
DEL MAR FIRE DEPT, San Diego, CA06, -117.262, 32.972, 12, M, 0.00
LEMON GROVE FIRE DEPARTMENT, San Diego, CA06, -117.030, 32.738, 427, 70.3, 0.00
LEE VINING, Mono, CA07, -119.119, 37.957, 6797, 63.5, 0.35
ANAHEIM, Orange, CA06, -117.842, 33.865, 235, 73.5, 0.54
RED BLUFF TREATMENT PLANT, Tehama, CA02, -122.220, 40.162, 265, M, 0.04
NEW MELONES DAM HQ, Tuolumne, CA05, -120.486, 38.005, 960, 80.0, 0.00
MAMMOTH LAKES RS, Mono, CA07, -118.962, 37.648, 7804, 55.8, 0.83
FRAZIER PARK 9 SW, Ventura, CA05, -119.104, 34.733, 5169, M, 1.38
MONTEREY WFO, Monterey, CA04, -121.855, 36.593, 122, 60.1, 0.01
SKYLINE RIDGE PRESERVE, San Mateo, CA04, -122.185, 37.313, 2270, 70.6, 0.00
FREMONT, Alameda, CA04, -122.016, 37.542, 38, 68.2, T
NEWHALL 5NW, Los Angeles, CA06, -118.594, 34.393, 1765, 76.7, T
TEHACHAPI 4 SE, Kern, CA05, -118.422, 35.101, 4220, 68.1, 0.20
WRIGHTWOOD, San Bernardino, CA07, -117.639, 34.362, 6000, 61.6, 1.30
REDDING CDF, Shasta, CA02, -122.299, 40.519, 502, M, 0.14
NORTHRIDGE CAL STATE, Los Angeles, CA06, -118.525, 34.245, 904, M, 0.04
OXNARD WFO, Ventura, CA06, -119.137, 34.207, 52, 65.2, 0.03
HANFORD MUNICIPAL AP, Kings, CA05, -119.623, 36.311, 249, 76.3, T
RAMONA AIRPORT, San Diego, CA06, -116.916, 33.038, 1385, 70.3, 0.20
VACAVILLE/NUT TREE AP ASOS, Solano, CA02, -121.959, 38.378, 104, 74.6, 0.01
ALTURAS MUNICIPAL AP, Modoc, CA02, -120.561, 41.484, 4383, 61.6, 0.18
MADERA MUNICIPAL AP, Madera, CA05, -120.111, 36.985, 251, 76.0, T
BAKERSFIELD 5 NW, Kern, CA05, -119.051, 35.419, 470, 79.3, 0.00
FRESNO 5 NE, Fresno, CA05, -119.709, 36.767, 338, 81.4, 0.00
OCEANSIDE MUNICIPAL AP, San Diego, CA06, -117.350, 33.219, 30, 66.6, T
SAN DIEGO SEAWORLD, San Diego, CA06, -117.231, 32.765, 14, 66.0, 0.08
ARCATA EUREKA AP, Humboldt, CA01, -124.105, 40.978, 211, 55.7, 0.37
NEWPORT BEACH HARBOR, Orange, CA06, -117.884, 33.603, 10, 66.0, 0.02
ESCONDIDO NO. 2, San Diego, CA06, -117.090, 33.121, 600, 72.4, 0.12
REDDING AP, Shasta, CA02, -122.298, 40.515, 501, 78.2, 0.13
AVALON CATALINA AP, Los Angeles, CA06, -118.415, 33.404, 1565, 67.9, 0.09
SANTA MARIA PUBLIC AP, Santa Barbara, CA06, -120.452, 34.894, 243, 64.0, 0.09
MOUNT SHASTA, Siskiyou, CA02, -122.333, 41.333, 3535, 65.0, 0.30
RED BLUFF MUNI AP, Tehama, CA02, -122.255, 40.152, 354, 78.9, 0.10
NEEDLES AIRPORT, San Bernardino, CA07, -114.618, 34.768, 888, 89.6, 1.10
CHINA LAKE NAF, Kern, CA07, -117.693, 35.688, 2230, 79.2, 0.11
TWENTYNINE PALMS 12E - WONDER VALLEY, San Bernardino, CA07, -115.850, 34.121, 1376, 84.8, 0.31
MORONGO VALLEY NORTH, San Bernardino, CA07, -116.562, 34.086, 3145, 78.6, 0.11
SHAFTER 6E, Kern, CA05, -119.146, 35.487, 404, 75.8, 0.07
TRUCKEE-TAHOE AP, Nevada, CA03, -120.145, 39.318, 5900, 57.6, 0.12
HEARST CASTLE, San Luis Obispo, CA04, -121.168, 35.684, 1526, 68.9, 0.00
GETTY CENTER, Los Angeles, CA06, -118.479, 34.087, 1117, 69.0, 0.00
HESPERIA 2E, San Bernardino, CA07, -117.266, 34.421, 3055, 76.8, 0.09
RANCHO BERNARDO, San Diego, CA06, -117.081, 33.022, 690, 69.2, 0.17
YOUNTVILLE, Napa, CA01, -122.357, 38.395, 95, 70.5, 0.00
APPLE VALLEY #2, San Bernardino, CA07, -117.279, 34.536, 2780, M, 0.00
OCOTILLO WELLS 2W, San Diego, CA07, -116.169, 33.155, 390, 90.3, 0.34
IRVINE RANCH, Orange, CA06, -117.723, 33.720, 540, 71.1, 0.20
MT. LAGUNA #3, San Diego, CA07, -116.419, 32.867, 5920, 65.9, 1.47
AVALON INLAND, Los Angeles, CA06, -118.330, 33.338, 90, 62.0, 0.00
DESERT CENTER 2 NNE, Riverside, CA07, -115.392, 33.738, 747, 89.5, 0.00
TORRANCE AP, Los Angeles, CA06, -118.342, 33.802, 90, 67.2, 0.00
MERCED 23 WSW, Merced, CA05, -120.882, 37.238, 78, 71.9, 0.00
REDDING 12 WNW, Shasta, CA02, -122.607, 40.651, 1418, 76.4, 0.03
STOVEPIPE WELLS 1 SW, Inyo, CA07, -117.145, 36.602, 84, 93.0, 0.00
LOS ANGELES DOWNTOWN/USC, Los Angeles, CA06, -118.291, 34.024, 179, 70.6, T
FRESNO YOSEMITE INT'L, Fresno, CA05, -119.720, 36.780, 334, 80.3, T
MONTEREY PENINSUL AP, Monterey, CA04, -121.849, 36.590, 160, 61.5, 0.03
PASO ROBLES MUNICIPAL AP, San Luis Obispo, CA04, -120.629, 35.669, 820, 72.4, 0.01
MONTAGUE SISKIYOU AIRPORT, Siskiyou, CA01, -122.468, 41.774, 2645, 67.0, T
SAN JOSE, Santa Clara, CA04, -121.924, 37.359, 49, 70.4, T
PALM SPRINGS ASOS, Riverside, CA07, -116.504, 33.822, 409, 88.3, 0.57
FILLMORE 2 W, Ventura, CA06, -118.945, 34.409, 495, M, 0.02
SAN DIEGO BROWN FIELD, San Diego, CA06, -116.994, 32.576, 521, 67.8, 0.15
Bakersfield Area, -, -, -, -, -, 80.3, T
Bishop Area, -, -, -, -, -, 69.1, 0.16
Los Angeles Downtown Area, -, -, -, -, -, 70.6, T
Eureka Area, -, -, -, -, -, 56.9, 0.37
Fresno Area, -, -, -, -, -, 80.3, T
Los Angeles Airport Area, -, -, -, -, -, 66.9, 0.01
Long Beach Area, -, -, -, -, -, 70.8, 0.02
Redding Area, -, -, -, -, -, 78.2, 0.13
Sacramento Area, -, -, -, -, -, 74.5, 0.01
San Diego Area, -, -, -, -, -, 68.8, 0.13
Stockton Area, -, -, -, -, -, 74.8, T
San Francisco Airport Area, -, -, -, -, -, 64.7, 0.01
Santa Maria Area, -, -, -, -, -, 64.0, 0.09
CAMP PENDLETON MCAS, San Diego, CA06, -117.355, 33.304, 70, 66.9, 0.05
LEMOORE REEVES NAS, Fresno, CA05, -119.950, 36.333, 232, 75.9, T
MOUNTAIN PASS 1SE, San Bernardino, CA07, -115.531, 35.459, 4777, 70.6, 0.66
ARVIN, Kern, CA05, -118.834, 35.211, 450, 80.0, 0.01
FRAZIER PARK, Kern, CA06, -118.965, 34.827, 4972, 64.7, 0.00
CHIRIACO SUMMIT, Riverside, CA07, -115.721, 33.662, 1706, 81.9, 2.72
EDWARDS AFB NORTH AUXILIARY AIRFIELD, Kern, CA07, -117.865, 34.988, 2283, 79.4, 0.16
FALLBROOK 5 NE, San Diego, CA06, -117.190, 33.439, 1140, 72.2, 0.08
SANTA BARBARA 11 W, Santa Barbara, CA06, -119.880, 34.414, 18, 61.9, 0.13
BODEGA 6 WSW, Sonoma, CA01, -123.075, 38.321, 63, 57.0, 0.09
YOSEMITE VILLAGE 12 W, Mariposa, CA05, -119.821, 37.759, 6620, 64.8, 1.30
YUCCA MESA, San Bernardino, CA07, -116.407, 34.218, 3445, 77.9, 0.97
YUCCA VALLEY, San Bernardino, CA07, -116.388, 34.129, 3249, 77.0, 0.33
JOHNSON VALLEY, San Bernardino, CA07, -116.538, 34.359, 3167, 78.0, 0.44
REDONDO BEACH, Los Angeles, CA06, -118.376, 33.834, 142, M, 0.00
BURBANK VALLEY PUMP PLANT, Los Angeles, CA06, -118.348, 34.187, 655, 72.1, 0.00
PIEDMONT 1.0 SE, Alameda, CA04, -122.216, 37.812, 372, M, 0.02
CASTRO VALLEY 0.4 NNE, Alameda, CA04, -122.059, 37.717, 536, M, 0.00
PLEASANTON 1.8 SSE, Alameda, CA04, -121.875, 37.648, 351, M, 0.00
FREMONT 2.6 ESE, Alameda, CA04, -121.952, 37.515, 30, M, T
BERKELEY 3.8 ESE, Alameda, CA04, -122.230, 37.856, 882, M, 0.08
PLEASANTON 0.4 ESE, Alameda, CA04, -121.881, 37.670, 344, M, 0.00
VOLCANO 5.4 NE, Amador, CA05, -120.560, 38.497, 3488, M, 0.42
VOLCANO 6.4 NE, Amador, CA05, -120.536, 38.499, 3659, M, 0.25
OROVILLE 2.7 ENE, Butte, CA02, -121.518, 39.514, 535, M, 0.01
CHICO 2.8 ESE, Butte, CA02, -121.760, 39.734, 375, M, 0.01
MARTINEZ 0.8 SSE, Contra Costa, CA04, -122.108, 37.990, 252, M, 0.02
PLEASANT HILL 1.2 ESE, Contra Costa, CA04, -122.054, 37.949, 57, M, 0.01
WALNUT CREEK 1.7 SSE, Contra Costa, CA04, -122.034, 37.878, 243, M, T
LAFAYETTE 0.7 E, Contra Costa, CA04, -122.104, 37.894, 248, M, T
LAFAYETTE 1.9 WSW, Contra Costa, CA04, -122.153, 37.888, 518, M, 0.03
MARTINEZ 2.2 SW, Contra Costa, CA04, -122.138, 37.974, 692, M, T
ANTIOCH 2.2 WSW, Contra Costa, CA05, -121.838, 37.979, 178, M, 0.01
CONCORD 0.8 WNW, Contra Costa, CA04, -122.013, 37.978, 124, M, 0.00
WALNUT CREEK 1.4 SSE, Contra Costa, CA04, -122.028, 37.885, 277, M, T
ANTIOCH 2.2 SSE, Contra Costa, CA05, -121.781, 37.959, 245, M, 0.00
WALLACE 0.3 NE, Calaveras, CA05, -120.973, 38.197, 298, M, 0.00
CRESCENT CITY 5.5 NNE, Del Norte, CA01, -124.148, 41.824, 65, M, 0.71
DIAMOND SPRINGS 0.1 W, El Dorado, CA05, -120.824, 38.686, 1778, M, 0.00
PLACERVILLE 3.7 SW, El Dorado, CA02, -120.849, 38.695, 1755, M, 0.00
CAMERON PARK 0.9 SE, El Dorado, CA05, -120.976, 38.672, 1414, M, 0.02
FAIR PLAY 2.8 ESE, El Dorado, CA05, -120.609, 38.592, 3390, M, 0.53
PLACERVILLE 0.9 NE, El Dorado, CA02, -120.785, 38.739, 2036, M, 0.01
FRESNO 3.4 SSE, Fresno, CA05, -119.811, 36.780, 303, M, 0.00
CLOVIS 2.9 N, Fresno, CA05, -119.693, 36.861, 382, M, 0.01
TOLLHOUSE 2.0 SSE, Fresno, CA05, -119.397, 36.990, 1673, M, 0.07
TOLLHOUSE 6.2 SSE, Fresno, CA05, -119.359, 36.934, 1397, M, 0.05
SANGER 6.8 N, Fresno, CA05, -119.553, 36.798, 418, M, 0.00
FRESNO 4.3 NNW, Fresno, CA05, -119.829, 36.836, 333, M, 0.04
HELM 2.7 NNE, Fresno, CA05, -120.089, 36.570, 183, M, 0.06
ARCATA 1.1 NE, Humboldt, CA01, -124.069, 40.881, 420, M, 0.43
BAYSIDE 1.8 SE, Humboldt, CA01, -124.038, 40.825, 77, M, 0.42
ORICK 5.9 SSW, Humboldt, CA01, -124.103, 41.208, 567, M, 0.30
MCKINLEYVILLE 2.7 SE, Humboldt, CA01, -124.084, 40.923, 325, M, 0.36
MCKINLEYVILLE 7.3 ESE, Humboldt, CA01, -123.998, 40.896, 366, M, 0.33
TRINIDAD 1.5 NNW, Humboldt, CA01, -124.152, 41.078, 201, M, 0.29
HONEYDEW 3.1 WNW, Humboldt, CA01, -124.182, 40.252, 316, M, 0.52
MCKINLEYVILLE 2.3 NE, Humboldt, CA01, -124.086, 40.978, 270, M, 0.43
REDWAY 4.3 W, Humboldt, CA01, -123.901, 40.108, 612, M, 0.22
FORTUNA 1.5 NW, Humboldt, CA01, -124.161, 40.600, 98, M, 0.24
REDWAY 4.8 WNW, Humboldt, CA01, -123.906, 40.139, 1820, M, 0.21
MIRANDA 4.1 SW, Humboldt, CA01, -123.894, 40.209, 539, M, 0.20
BAYVIEW 0.8 SE, Humboldt, CA01, -124.166, 40.756, 176, M, 0.38
ARCATA 1.4 NNE, Humboldt, CA01, -124.072, 40.887, 289, M, 0.53
WILLOW CREEK 4.5 NNE, Humboldt, CA01, -123.624, 40.939, 655, M, 0.12
ARCATA 1.0 NW, Humboldt, CA01, -124.096, 40.876, 15, M, 0.38
BRIDGEVILLE 5.2 ENE, Humboldt, CA01, -123.701, 40.473, 2675, M, 0.20
FORTUNA 0.1 NW, Humboldt, CA01, -124.141, 40.587, 65, M, 0.23
GARBERVILLE 2.2 SW, Humboldt, CA01, -123.824, 40.077, 415, M, 0.16
GARBERVILLE 2.9 SW, Humboldt, CA01, -123.830, 40.068, 389, M, 0.16
KNEELAND 4.8 WNW, Humboldt, CA01, -124.080, 40.790, 106, M, 0.30
EUREKA 2.2 S, Humboldt, CA01, -124.148, 40.764, 194, M, 0.39
SHELTER COVE 1.2 ENE, Humboldt, CA01, -124.052, 40.037, 1107, M, 0.53
BISHOP 0.6 SE, Inyo, CA07, -118.388, 37.363, 4140, M, 0.12
BISHOP 8.5 WSW, Inyo, CA07, -118.540, 37.323, 6002, M, 0.17
BISHOP 1.7 NW, Inyo, CA07, -118.414, 37.388, 4181, M, 0.04
LEMOORE 0.3 SW, Kings, CA05, -119.791, 36.295, 223, M, 0.02
HANFORD 3.6 N, Kings, CA05, -119.653, 36.377, 258, M, 0.02
HANFORD 1.7 WNW, Kings, CA05, -119.674, 36.335, 245, M, T
INYOKERN 9.4 WSW, Kern, CA07, -117.978, 35.635, 4319, M, 0.02
FRAZIER PARK 0.6 WNW, Kern, CA05, -118.955, 34.827, 5023, M, 0.25
PINE MOUNTAIN CLUB 0.9 SSW, Kern, CA05, -119.163, 34.835, 6017, M, 0.63
PINE MOUNTAIN CLUB 1.4 ENE, Kern, CA05, -119.133, 34.850, 5269, M, 0.59
ONYX 2.8 ENE, Kern, CA05, -118.174, 35.702, 3039, M, 0.34
GLENDALE 2.4 WSW, Los Angeles, CA06, -118.295, 34.169, 511, M, T
TORRANCE 2.8 SW, Los Angeles, CA06, -118.337, 33.790, 200, M, T
ALTADENA 0.7 ESE, Los Angeles, CA06, -118.124, 34.187, 1323, M, 0.01
WOODLAND HILLS 2.6 WNW, Los Angeles, CA06, -118.650, 34.181, 894, M, 0.00
MONTE NIDO 0.2 SSW, Los Angeles, CA06, -118.687, 34.079, 682, M, 0.00
SHERMAN OAKS 1.7 ENE, Los Angeles, CA06, -118.420, 34.154, 638, M, 0.03
WHITTIER 2.9 WNW, Los Angeles, CA06, -118.066, 33.986, 171, M, 0.00
REDONDO BEACH 2.6 S, Los Angeles, CA06, -118.377, 33.819, 117, M, 0.02
CANYON COUNTRY 2.6 E, Los Angeles, CA06, -118.427, 34.427, 1617, M, 0.18
LAKEPORT 4.5 N, Lake, CA02, -122.909, 39.107, 1437, M, T
SUSANVILLE 3.2 SSW, Lassen, CA03, -120.674, 40.368, 4353, M, 0.07
OAKHURST 7.5 N, Madera, CA05, -119.632, 37.442, 4274, M, 0.11
UKIAH 8.4 NW, Mendocino, CA01, -123.331, 39.221, 2492, M, 0.10
BOONVILLE 2.2 WSW, Mendocino, CA01, -123.408, 39.006, 1061, M, 0.07
ELK 1.8 NNE, Mendocino, CA01, -123.706, 39.105, 147, M, 0.30
UKIAH 1.2 NW, Mendocino, CA01, -123.225, 39.158, 746, M, T
UKIAH 0.6 ESE, Mendocino, CA01, -123.199, 39.141, 601, M, 0.00
WILLITS 6.0 WSW, Mendocino, CA01, -123.450, 39.370, 1873, M, 0.13
REDWOOD VALLEY 1.3 WNW, Mendocino, CA01, -123.227, 39.272, 810, M, T
REDWOOD VALLEY 1.5 ENE, Mendocino, CA01, -123.178, 39.272, 912, M, 0.01
UKIAH 4.3 S, Mendocino, CA01, -123.219, 39.083, 691, M, 0.00
LAYTONVILLE 1.1 SW, Mendocino, CA01, -123.490, 39.672, 1647, M, 0.16
LEE VINING 5.9 NW, Mono, CA03, -119.170, 38.034, 7094, M, 0.42
MARIPOSA 3.7 NNW, Mariposa, CA05, -119.988, 37.540, 2942, M, 0.16
MARIPOSA 12.5 E, Mariposa, CA05, -119.742, 37.461, 2952, M, 0.08
LA GRANGE 7.8 ESE, Mariposa, CA05, -120.327, 37.635, 1114, M, T
CATHEYS VALLEY 1.2 S, Mariposa, CA05, -120.100, 37.415, 1172, M, 0.00
WOODACRE 0.6 SW, Marin, CA01, -122.635, 38.005, 439, M, 0.02
SAN ANSELMO 1.2 NNW, Marin, CA01, -122.580, 37.997, 370, M, 0.00
NOVATO 4.8 WNW, Marin, CA01, -122.644, 38.106, 246, M, 0.05
SAN ANSELMO 0.4 NE, Marin, CA01, -122.564, 37.987, 107, M, T
IGNACIO 0.6 SW, Marin, CA01, -122.546, 38.065, 57, M, 0.01
PETALUMA 10.1 W, Marin, CA01, -122.812, 38.248, 119, M, 0.00
TOMALES 1.3 ENE, Marin, CA01, -122.883, 38.251, 128, M, 0.06
SAN RAFAEL 3.9 NW, Marin, CA01, -122.547, 38.027, 72, M, 0.00
MILL VALLEY 1.5 S, Marin, CA01, -122.544, 37.886, 209, M, 0.12
CARMEL VALLEY VILLAGE 0.8 SSW, Monterey, CA04, -121.728, 36.476, 359, M, 0.00
LOCKWOOD 3.6 NW, Monterey, CA04, -121.117, 35.981, 1181, M, 0.00
KING CITY 13.2 S, Monterey, CA04, -121.174, 36.025, 1104, M, 0.00
CASTROVILLE 1.6 ENE, Monterey, CA04, -121.728, 36.776, 18, M, 0.00
MONTEREY 1.5 ESE, Monterey, CA04, -121.856, 36.594, 108, M, 0.01
KING CITY 2.0 SSW, Monterey, CA04, -121.146, 36.187, 371, M, 0.00
BIG SUR 4.0 SE, Monterey, CA04, -121.763, 36.224, 824, M, 0.05
AROMAS 2.0 SSW, Monterey, CA04, -121.650, 36.850, 344, M, 0.00
CASTROVILLE 1.6 ENE, Monterey, CA04, -121.727, 36.777, 17, M, 0.03
CARMEL VALLEY VILLAGE 5.4 WNW, Monterey, CA04, -121.810, 36.522, 133, M, 0.01
BIG SUR 9.5 NNW, Monterey, CA04, -121.869, 36.398, 1100, M, 0.01
SALINAS 5.9 SSW, Monterey, CA04, -121.671, 36.604, 361, M, 0.00
CALISTOGA 0.4 SSE, Napa, CA01, -122.578, 38.576, 348, M, 0.01
ST. HELENA 1.1 S, Napa, CA01, -122.462, 38.489, 248, M, 0.04
NEVADA CITY 3.4 NNW, Nevada, CA02, -121.040, 39.307, 2390, M, 0.01
KINGVALE 1.3 WSW, Nevada, CA02, -120.452, 39.317, 6035, M, 1.43
GRASS VALLEY 5.5 ESE, Nevada, CA02, -120.963, 39.190, 2763, M, 0.04
GRASS VALLEY 5.0 S, Nevada, CA02, -121.042, 39.149, 2312, M, T
LAKE OF THE PINES 1.0 WSW, Nevada, CA02, -121.077, 39.032, 1576, M, 0.00
ALTA SIERRA 0.4 WSW, Nevada, CA02, -121.060, 39.120, 2303, M, T
LAKE OF THE PINES 1.3 NNW, Nevada, CA02, -121.070, 39.056, 1528, M, 0.00
NEVADA CITY 5.4 W, Nevada, CA02, -121.121, 39.268, 1982, M, 0.03
GRASS VALLEY 0.5 NNW, Nevada, CA02, -121.059, 39.229, 2669, M, T
ORANGE 3.5 ENE, Orange, CA06, -117.770, 33.829, 811, M, 0.07
SILVERADO 1.0 ESE, Orange, CA06, -117.620, 33.746, 1394, M, T
LAGUNA BEACH 3.2 SSE, Orange, CA06, -117.739, 33.498, 194, M, 0.06
NEWPORT BEACH 3.1 ESE, Orange, CA06, -117.865, 33.589, 84, M, 0.12
MISSION VIEJO 1.6 ENE, Orange, CA06, -117.627, 33.624, 1018, M, 0.24
MISSION VIEJO 1.3 SSE, Orange, CA06, -117.644, 33.595, 704, M, 0.25
SAN CLEMENTE 2.2 W, Orange, CA06, -117.649, 33.447, 132, M, 0.18
ANAHEIM 4.9 ENE, Orange, CA06, -117.792, 33.863, 298, M, 0.03
SODA SPRINGS 1.5 SSW, Placer, CA02, -120.384, 39.302, 6887, M, 2.13
ROSEVILLE 4.7 WNW, Placer, CA02, -121.377, 38.780, 96, M, 0.02
PENRYN 0.4 SE, Placer, CA02, -121.158, 38.847, 610, M, T
COLFAX 3.1 SW, Placer, CA02, -120.991, 39.061, 2077, M, 0.00
AUBURN 3.1 N, Placer, CA02, -121.068, 38.936, 1528, M, 0.00
NEWCASTLE 1.6 SSE, Placer, CA02, -121.123, 38.851, 800, M, T
LINCOLN 4.3 SSE, Placer, CA02, -121.284, 38.842, 172, M, 0.02
IDYLLWILD 1.8 NW, Riverside, CA06, -116.735, 33.763, 6325, M, 0.71
DESERT HOT SPRINGS 3.0 NW, Riverside, CA07, -116.541, 33.985, 1339, M, 0.48
HEMET 4.1 ENE, Riverside, CA06, -116.920, 33.753, 1698, M, 0.03
CORONA 12.8 SE, Riverside, CA06, -117.428, 33.731, 1404, M, 0.04
LAKE ELSINORE 3.5 WSW, Riverside, CA06, -117.381, 33.657, 1356, M, 0.01
NORCO 1.2 S, Riverside, CA06, -117.548, 33.908, 661, M, 0.01
PERRIS 8.5 WNW, Riverside, CA06, -117.365, 33.826, 1639, M, 0.03
BEAUMONT 2.5 NW, Riverside, CA06, -117.012, 33.954, 2532, M, T
RIVERSIDE 3.8 NW, Riverside, CA06, -117.454, 33.979, 841, M, 0.05
NORCO 2.3 SE, Riverside, CA06, -117.518, 33.906, 1091, M, 0.01
RIVERSIDE 2.6 E, Riverside, CA06, -117.353, 33.935, 1301, M, 0.01
CARMICHAEL 1.6 SW, Sacramento, CA02, -121.340, 38.617, 102, M, T
SACRAMENTO 8.0 NE, Sacramento, CA02, -121.361, 38.635, 95, M, 0.00
FOLSOM 3.4 ESE, Sacramento, CA05, -121.091, 38.655, 594, M, T
CARMICHAEL 0.9 NE, Sacramento, CA02, -121.306, 38.643, 130, M, T
FOLSOM 1.2 SSE, Sacramento, CA02, -121.140, 38.660, 362, M, T
FOLSOM 2.4 SW, Sacramento, CA02, -121.176, 38.651, 194, M, 0.00
SACRAMENTO 2.0 SE, Sacramento, CA02, -121.437, 38.550, 34, M, T
SACRAMENTO 4.1 NE, Sacramento, CA02, -121.412, 38.609, 46, M, T
SACRAMENTO 5.7 SSE, Sacramento, CA02, -121.419, 38.493, 28, M, T
FOLSOM 0.6 NE, Sacramento, CA02, -121.138, 38.682, 399, M, T
LA RIVIERA 1.0 NE, Sacramento, CA02, -121.340, 38.575, 64, M, 0.00
GOLETA 3.7 WNW, Santa Barbara, CA06, -119.896, 34.440, 158, M, 0.13
SANTA BARBARA 1.9 NE, Santa Barbara, CA06, -119.700, 34.450, 811, M, T
MOUNTAIN VIEW 1.2 S, Santa Clara, CA04, -122.075, 37.385, 109, M, 0.00
SUNNYVALE 1.9 SE, Santa Clara, CA04, -122.004, 37.365, 85, M, T
SAN JOSE 5.4 SW, Santa Clara, CA04, -121.775, 37.305, 223, M, T
MONTE SERENO 0.4 SSW, Santa Clara, CA04, -121.990, 37.232, 467, M, 0.01
SAN JOSE 4.6 NE, Santa Clara, CA04, -121.795, 37.354, 318, M, T
LOS ALTOS 0.6 NNW, Santa Clara, CA04, -122.100, 37.378, 156, M, 0.03
SAN JOSE 2.7 SSW, Santa Clara, CA04, -121.876, 37.271, 162, M, 0.00
CAMBRIAN PARK 2.2 SE, Santa Clara, CA04, -121.897, 37.234, 252, M, T
SAN JOSE 3.5 ENE, Santa Clara, CA04, -121.789, 37.319, 200, M, T
SARATOGA 0.5 N, Santa Clara, CA04, -122.023, 37.275, 373, M, T
PALO ALTO 1.2 NE, Santa Clara, CA04, -122.149, 37.452, 32, M, 0.02
SAN JOSE 3.0 WSW, Santa Clara, CA04, -121.927, 37.309, 159, M, T
PALO ALTO 0.8 NNE, Santa Clara, CA04, -122.135, 37.410, 60, M, 0.00
SAN JOSE 6.2 W, Santa Clara, CA04, -121.961, 37.319, 139, M, 0.00
SANTA CLARA 3.1 ESE, Santa Clara, CA04, -121.911, 37.356, 61, M, T
LOS GATOS 5.4 SSW, Santa Clara, CA04, -121.988, 37.156, 1662, M, 0.00
SAN MARCOS 2.5 ENE, San Diego, CA06, -117.132, 33.147, 666, M, 0.06
IMPERIAL BEACH 3.3 E, San Diego, CA06, -117.062, 32.574, 138, M, 0.10
OCEANSIDE 8.4NE, San Diego, CA06, -117.266, 33.270, 252, M, 0.02
EL CAJON 2.3ENE, San Diego, CA06, -116.925, 32.811, 610, M, 0.14
ENCINITAS 3.34ENE, San Diego, CA06, -117.237, 33.050, 193, M, 0.06
ESCONDIDO 5.2NNW, San Diego, CA06, -117.128, 33.185, 1474, M, 0.06
EL CAJON 1.5WSW, San Diego, CA06, -116.987, 32.791, 727, M, 0.29
ESCONDIDO 2.5 SSE, San Diego, CA06, -117.048, 33.106, 690, M, 0.12
POWAY 3.2NE, San Diego, CA06, -117.004, 32.996, 1206, M, 0.09
JAMUL 9.9ESE, San Diego, CA06, -116.706, 32.680, 2737, M, 0.22
BORREGO SPRINGS 2.4 WSW, San Diego, CA07, -116.390, 33.223, 777, M, 0.30
LA JOLLA 2.5SE, San Diego, CA06, -117.240, 32.825, 508, M, 0.09
CHULA VISTA 6.3E, San Diego, CA06, -116.975, 32.638, 555, M, 0.13
OCEANSIDE 5.6NE, San Diego, CA06, -117.313, 33.254, 60, M, 0.03
POWAY 1.4SW, San Diego, CA06, -117.059, 32.949, 444, M, 0.00
CARDIFF BY THE SEA 0.2 E, San Diego, CA06, -117.271, 33.027, 266, M, 0.02
CHULA VISTA 2.5SE, San Diego, CA06, -117.052, 32.617, 266, M, 0.09
PAUMA VALLEY 1.7 SE, San Diego, CA06, -116.957, 33.290, 1132, M, 0.17
FALLBROOK 6.5 NE, San Diego, CA06, -117.160, 33.436, 1377, M, 0.00
SAN DIEGO 3.5NE, San Diego, CA06, -117.110, 32.747, 344, M, 0.15
SANTEE 1.8NW, San Diego, CA06, -116.996, 32.856, 470, M, 0.25
SAN DIEGO 7.9NE, San Diego, CA06, -117.073, 32.806, 242, M, 0.00
LA JOLLA 2.1 SE, San Diego, CA06, -117.250, 32.826, 491, M, 0.14
RANCHO BERNARDO 0.5SE, San Diego, CA06, -117.067, 33.018, 483, M, 0.36
EL CAJON 0.7 S, San Diego, CA06, -116.959, 32.792, 444, M, 0.10
LA JOLLA 2.2 NE, San Diego, CA06, -117.248, 32.870, 371, M, 0.08
LEMON GROVE 1.8 WNW, San Diego, CA06, -117.060, 32.747, 466, M, 0.21
VISTA 1.5NNW, San Diego, CA06, -117.254, 33.219, 417, M, 0.04
EL CAJON 2.3 S, San Diego, CA06, -116.959, 32.770, 738, M, 0.18
SAN DIEGO 9NE, San Diego, CA06, -117.059, 32.817, 292, M, 0.25
POWAY 4.7NNW, San Diego, CA06, -117.047, 33.026, 739, M, 0.16
SAN DIEGO COUNTRY ESTATES 1.5 WNW, San Diego, CA06, -116.807, 33.016, 1474, M, 0.16
SAN FRANCISCO 2.8 WNW, San Francisco, CA04, -122.470, 37.783, 173, M, 0.00
SAN FRANCISCO 1.1 SW, San Francisco, CA04, -122.435, 37.765, 194, M, 0.00
COTTONWOOD 0.5 NNE, Shasta, CA02, -122.276, 40.397, 452, M, 0.06
SHINGLETOWN 5.3 ENE, Shasta, CA02, -121.796, 40.524, 3964, M, 0.19
REDDING 2.9 NNE, Shasta, CA02, -122.339, 40.609, 652, M, 0.21
REDDING 2.7 NNW, Shasta, CA02, -122.380, 40.610, 708, M, 0.11
REDDING 7.9 NNE, Shasta, CA02, -122.291, 40.672, 681, M, 0.06
REDDING 3.7 N, Shasta, CA02, -122.358, 40.626, 618, M, 0.11
REDDING 3.8 N, Shasta, CA02, -122.356, 40.627, 609, M, T
REDDING 3.6 N, Shasta, CA02, -122.354, 40.623, 604, M, 0.16
REDDING 0.6 NW, Shasta, CA02, -122.373, 40.580, 475, M, 0.07
REDDING 4.1 N, Shasta, CA02, -122.358, 40.631, 616, M, 0.06
LINDEN 5.8 ENE, San Joaquin, CA05, -121.008, 38.063, 146, M, T
STOCKTON 2.1 NW, San Joaquin, CA05, -121.333, 37.991, 7, M, T
STOCKTON 5.8 NNE, San Joaquin, CA05, -121.255, 38.038, 35, M, 0.00
LODI 1.0 NNW, San Joaquin, CA05, -121.304, 38.136, 43, M, 0.00
STOCKTON 3.3 SE, San Joaquin, CA05, -121.259, 37.942, 23, M, T
TRACY 2.1 W, San Joaquin, CA05, -121.470, 37.735, 52, M, 0.00
YREKA 4.5 S, Siskiyou, CA01, -122.621, 41.665, 2937, M, 0.09
WEED 5.4 N, Siskiyou, CA01, -122.370, 41.495, 3064, M, 0.02
YREKA 0.9 WNW, Siskiyou, CA01, -122.649, 41.733, 2692, M, 0.07
MONTAGUE 1.6 ESE, Siskiyou, CA01, -122.501, 41.718, 2556, M, 0.08
SANTA MARGARITA 8.9 ESE, San Luis Obispo, CA04, -120.453, 35.381, 2005, M, 0.05
PACIFICA 0.3 W, San Mateo, CA04, -122.483, 37.612, 227, M, 0.04
FOSTER CITY 1.3 SW, San Mateo, CA04, -122.259, 37.549, 7, M, T
HALF MOON BAY 0.5 SSW, San Mateo, CA04, -122.441, 37.463, 54, M, 0.06
REDWOOD CITY 2.5 SW, San Mateo, CA04, -122.240, 37.493, 17, M, 0.00
PORTOLA VALLEY 1.3 ENE, San Mateo, CA04, -122.198, 37.382, 531, M, T
ROHNERT PARK 1.6 WNW, Sonoma, CA01, -122.727, 38.352, 93, M, 0.12
OCCIDENTAL 1.9 WSW, Sonoma, CA01, -122.968, 38.380, 810, M, 0.07
GEYSERVILLE 10.6 WNW, Sonoma, CA01, -123.098, 38.737, 1328, M, 0.04
SANTA ROSA 3.1 W, Sonoma, CA01, -122.758, 38.451, 107, M, 0.01
SEBASTOPOL 3.7 WSW, Sonoma, CA01, -122.893, 38.385, 383, M, 0.07
GUERNEVILLE 0.6 SW, Sonoma, CA01, -122.992, 38.501, 72, M, 0.00
SANTA ROSA 2.7 WSW, Sonoma, CA01, -122.745, 38.432, 123, M, 0.00
CALISTOGA 4.6 WNW, Sonoma, CA01, -122.658, 38.612, 497, M, 0.02
SEBASTOPOL 4.5 WSW, Sonoma, CA01, -122.904, 38.375, 423, M, 0.21
SEBASTOPOL 0.3 WNW, Sonoma, CA01, -122.830, 38.401, 122, M, 0.03
PETALUMA 1.0 N, Sonoma, CA01, -122.623, 38.256, 52, M, 0.03
GRATON 2.7 NNE, Sonoma, CA01, -122.840, 38.472, 69, M, 0.04
CLOVERDALE 0.8 SSW, Sonoma, CA01, -123.022, 38.789, 365, M, 0.00
WINDSOR 1.4 SE, Sonoma, CA01, -122.780, 38.532, 140, M, 0.02
SANTA ROSA 4.7 S, Sonoma, CA01, -122.725, 38.378, 94, M, 0.02
SANTA ROSA 3.1 NW, Sonoma, CA01, -122.744, 38.479, 140, M, 0.04
CLOVERDALE 3.2 ESE, Sonoma, CA01, -122.963, 38.781, 797, M, T
WINDSOR 1.8 SE, Sonoma, CA01, -122.777, 38.526, 142, M, T
SEBASTOPOL 2.6 SSE, Sonoma, CA01, -122.804, 38.366, 214, M, 0.06
BODEGA BAY 4.8 NNW, Sonoma, CA01, -123.078, 38.381, 91, M, 0.00
SANTA ROSA 2.9 ENE, Sonoma, CA01, -122.655, 38.471, 292, M, 0.04
MONTE RIO 1.6 W, Sonoma, CA01, -123.042, 38.464, 20, M, 0.02
SANTA ROSA 4.4 NNW, Sonoma, CA01, -122.719, 38.511, 392, M, 0.01
SEBASTOPOL 1.1 SSE, Sonoma, CA01, -122.819, 38.384, 168, M, 0.09
WINDSOR 1.2 NNW, Sonoma, CA01, -122.805, 38.562, 155, M, 0.00
HEALDSBURG 7.5 NW, Sonoma, CA01, -122.963, 38.693, 203, M, 0.02
SANTA ROSA 2.6 NE, Sonoma, CA01, -122.664, 38.473, 273, M, 0.01
SONOMA 1.9 E, Sonoma, CA01, -122.425, 38.290, 124, M, 0.03
SANTA ROSA 1.3 NW, Sonoma, CA01, -122.715, 38.464, 173, M, 0.03
PETALUMA 1.3 SW, Sonoma, CA01, -122.639, 38.226, 36, M, 0.03
WINDSOR 0.6 NNE, Sonoma, CA01, -122.793, 38.553, 157, M, 0.03
SEBASTOPOL 0.9 WNW, Sonoma, CA01, -122.841, 38.407, 213, M, 0.00
GLEN ELLEN 1.9 WNW, Sonoma, CA01, -122.572, 38.365, 956, M, 0.04
ROHNERT PARK 0.9 SW, Sonoma, CA01, -122.711, 38.339, 96, M, 0.02
HEALDSBURG 3.7 WNW, Sonoma, CA01, -122.921, 38.648, 142, M, 0.00
ROHNERT PARK 0.9 ESE, Sonoma, CA01, -122.681, 38.345, 125, M, 0.00
GLEN ELLEN 1.5 N, Sonoma, CA01, -122.534, 38.378, 337, M, 0.03
SANTA ROSA 2.7 ENE, Sonoma, CA01, -122.659, 38.470, 281, M, 0.00
BOYES HOT SPRINGS 0.5 ENE, Sonoma, CA01, -122.473, 38.316, 295, M, 0.03
SEBASTOPOL 3.3 WSW, Sonoma, CA01, -122.885, 38.384, 362, M, 0.10
OCCIDENTAL 2.8 SW, Sonoma, CA01, -122.974, 38.365, 614, M, 0.24
HEALDSBURG 12.6 NNW, Sonoma, CA01, -122.963, 38.784, 1026, M, T
BENICIA 0.2 SSW, Solano, CA01, -122.155, 38.070, 403, M, 0.01
APPLE VALLEY 2.6 SSW, San Bernardino, CA07, -117.235, 34.496, 2881, M, 0.03
WRIGHTWOOD 1.2 WNW, San Bernardino, CA07, -117.651, 34.365, 6148, M, 1.00
UPLAND 0.5 ESE, San Bernardino, CA06, -117.650, 34.115, 1415, M, 0.06
APPLE VALLEY 2.6 SE, San Bernardino, CA07, -117.181, 34.504, 2941, M, 0.21
JOSHUA TREE 2.0 S, San Bernardino, CA07, -116.318, 34.097, 3409, M, 0.26
LANDERS 3.4 SW, San Bernardino, CA07, -116.407, 34.217, 3447, M, 0.93
CRESTLINE 0.2 WSW, San Bernardino, CA07, -117.299, 34.246, 4530, M, 0.05
LANDERS 1.6 NE, San Bernardino, CA07, -116.375, 34.283, 2954, M, 0.33
BARSTOW 3.0 W, San Bernardino, CA07, -117.118, 34.880, 2229, M, 0.45
HESPERIA 3.9 SW, San Bernardino, CA07, -117.340, 34.373, 3578, M, 0.53
PINON HILLS 3.5 N, San Bernardino, CA07, -117.644, 34.485, 3495, M, 0.27
APPLE VALLEY 1.9 N, San Bernardino, CA07, -117.211, 34.556, 2935, M, 0.43
KNIGHTS FERRY 5.2 WSW, Stanislaus, CA05, -120.752, 37.789, 144, M, T
SAN JUAN BAUTISTA 0.5 S, San Benito, CA04, -121.537, 36.839, 252, M, 0.00
HOLLISTER 5.4 NNE, San Benito, CA04, -121.370, 36.931, 247, M, T
HOLLISTER 2.1 ESE, San Benito, CA04, -121.365, 36.842, 389, M, 0.00
DAVENPORT 4.2 NW, Santa Cruz, CA04, -122.218, 37.065, 495, M, 0.01
BOULDER CREEK 3.6 NE, Santa Cruz, CA04, -122.091, 37.181, 1724, M, 0.00
SCOTTS VALLEY 1.7 SW, Santa Cruz, CA04, -122.029, 37.040, 573, M, 0.06
APTOS 2.6 E, Santa Cruz, CA04, -121.854, 36.996, 383, M, 0.06
SCOTTS VALLEY 1.4 W, Santa Cruz, CA04, -122.033, 37.055, 362, M, 0.02
FELTON 0.1 SE, Santa Cruz, CA04, -122.071, 37.042, 238, M, M
BOULDER CREEK 2.4 NNW, Santa Cruz, CA04, -122.138, 37.171, 593, M, 0.01
BOULDER CREEK 3.0 NW, Santa Cruz, CA04, -122.164, 37.169, 875, M, 0.01
FELTON 4.5 NNE, Santa Cruz, CA04, -122.047, 37.105, 838, M, 0.02
RED BLUFF 4.3 W, Tehama, CA02, -122.322, 40.179, 396, M, 0.19
LINDSAY 0.5 N, Tulare, CA05, -119.088, 36.213, 378, M, 0.11
TERRA BELLA 6.3 W, Tulare, CA05, -119.149, 35.950, 374, M, 0.02
VISALIA 0.7 SSE, Tulare, CA05, -119.318, 36.315, 318, M, 0.01
DOUGLAS CITY 2.4 SW, Trinity, CA01, -122.978, 40.633, 1689, M, 0.12
HAWKINS BAR 0.6 NW, Trinity, CA01, -123.530, 40.877, 674, M, 0.15
HAYFORK 7.1 SE, Trinity, CA01, -123.030, 40.500, 2917, M, 0.08
TRINITY CENTER 0.6 ESE, Trinity, CA01, -122.696, 40.983, 2427, M, 0.46
WEAVERVILLE 2.6 S, Trinity, CA01, -122.941, 40.731, 2017, M, 0.00
SALYER 1.4 ESE, Trinity, CA01, -123.559, 40.887, 696, M, 0.16
THOUSAND OAKS 2.1 WSW, Ventura, CA06, -118.898, 34.177, 692, M, 0.01
FRAZIER PARK 10.7 WSW, Ventura, CA06, -119.110, 34.746, 5274, M, 0.64
SIMI VALLEY 3.8 SW, Ventura, CA06, -118.805, 34.231, 1081, M, 0.00
VENTURA 0.5 WNW, Ventura, CA06, -119.276, 34.273, 56, M, 0.00
SIMI VALLEY 1.0 NW, Ventura, CA06, -118.764, 34.272, 848, M, 0.08
THOUSAND OAKS 2.5 WSW, Ventura, CA06, -118.909, 34.179, 703, M, T
CHALLENGE-BROWNSVILLE 1.3 WSW, Yuba, CA02, -121.280, 39.452, 2049, M, 0.05
DAVIS 1.2 SE, Yolo, CA02, -121.721, 38.543, 36, M, 0.03
DAVIS 0.8 NE, Yolo, CA02, -121.724, 38.562, 41, M, 0.03
DAVIS 1.4 SSE, Yolo, CA02, -121.722, 38.538, 4, M, 0.03
DAVIS 6.1 WNW, Yolo, CA02, -121.845, 38.578, 83, M, 0.03
DAVIS 2.7 W, Yolo, CA02, -121.786, 38.552, 57, M, 0.02
WOODLAND 2.8 SE, Yolo, CA02, -121.732, 38.647, 38, M, 0.02
PLACERVILLE 3 ENE, El Dorado, CA02, -120.742, 38.785, 2658, 74.9, 0.06
TAHOMA, El Dorado, CA03, -120.129, 39.060, 6315, 55.6, 0.16
CORONA MUNICIPAL AIRPORT, Riverside, -, -117.602, 33.898, 533, 70.7, 0.06
OAKLAND 4.4 NNW, Alameda, CA04, -122.250, 37.832, 191, M, 0.03
SAN LORENZO 0.5 NNW, Alameda, CA04, -122.133, 37.682, 30, M, 0.00
OROVILLE 4.8 E, Butte, CA02, -121.477, 39.493, 668, M, 0.01
MCKINLEYVILLE 4.3 E, Humboldt, CA01, -124.034, 40.953, 173, M, 0.41
KNEELAND 0.4 NNW, Humboldt, CA01, -123.999, 40.766, 2008, M, 0.59
MCKINLEYVILLE 1.2 SSW, Humboldt, CA01, -124.126, 40.938, 58, M, 0.39
BISHOP 8.8 WNW, Inyo, CA07, -118.547, 37.411, 4537, M, 0.03
HANFORD 1.2 WNW, Kings, CA05, -119.667, 36.331, 243, M, 0.00
CLAREMONT 0.5 E, Los Angeles, CA06, -117.707, 34.121, 1465, M, 0.02
LOS ANGELES 4.3 NNW, Los Angeles, CA06, -118.435, 34.171, 675, M, 0.04
LANCASTER 6.5 ENE, Los Angeles, CA07, -118.066, 34.718, 2366, M, 0.29
BURBANK 1.1 ENE, Los Angeles, CA06, -118.309, 34.199, 868, M, T
PACIFIC GROVE 0.6 N, Monterey, CA04, -121.925, 36.631, 53, M, 0.01
FOOTHILL RANCH 0.3 NW, Orange, CA06, -117.664, 33.689, 1045, M, 0.18
CORONA 12.5 SE, Riverside, CA06, -117.431, 33.735, 1302, M, 0.05
CARLSBAD 2.2SE, San Diego, CA06, -117.321, 33.143, 22, M, 0.04
DESCANSO 0.3 WNW, San Diego, CA06, -116.621, 32.854, 3442, M, 0.21
SAN DIEGO 5.2WNW, San Diego, CA06, -117.245, 32.735, 251, M, 0.09
VISTA 1.2SE, San Diego, CA06, -117.231, 33.186, 505, M, 0.05
IGO 0.2 S, Shasta, CA02, -122.541, 40.503, 1074, M, 0.20
SHINGLETOWN 0.6 WSW, Shasta, CA02, -121.900, 40.490, 3461, M, 0.08
STOCKTON 0.7 E, San Joaquin, CA05, -121.293, 37.969, 16, M, 0.00
BELMONT 0.7 WSW, San Mateo, CA04, -122.306, 37.510, 482, M, T
FORESTVILLE 0.7 SW, Sonoma, CA01, -122.897, 38.473, 201, M, 0.14
RIALTO 2.1 N, San Bernardino, CA06, -117.381, 34.144, 1482, M, 0.01
THREE RIVERS 1.7 NE, Tulare, CA05, -118.886, 36.458, 1010, M, 0.03
TRINITY CENTER 0.2 ENE, Trinity, CA01, -122.704, 40.986, 2481, M, 0.32
FILLMORE 2.1 NNW, Ventura, CA06, -118.933, 34.428, 534, M, 0.00
CARSON 0.7 NW, Los Angeles, CA06, -118.265, 33.844, 15, M, T
PASADENA 2.0 SE, Los Angeles, CA06, -118.116, 34.139, 739, M, 0.07
SUNNYVALE 3.6 S (W6NW), Santa Clara, CA04, -122.018, 37.334, 170, M, 0.00
TEHACHAPI 2.2 W, Kern, CA05, -118.480, 35.132, 3945, M, 0.12
DIAMOND BAR 1.9 NNE, Los Angeles, CA06, -117.796, 34.023, 935, M, 0.06
LA CRESCENTA-MONTROSE 3.9 NW, Los Angeles, CA06, -118.287, 34.270, 1974, M, 0.00
MARIPOSA 12.5 E, Mariposa, CA05, -119.740, 37.462, 2940, M, 0.04
SAN DIEGO 7.6 NNW, San Diego, CA06, -117.188, 32.916, 383, M, 0.10
CHULA VISTA 3.1SE, San Diego, CA06, -117.051, 32.604, 200, M, 0.10
LOS OSOS 0.5 N, San Luis Obispo, CA04, -120.832, 35.329, 77, M, 0.00
BENICIA 1.2 SW, Solano, CA01, -122.168, 38.058, 40, M, 0.01
TWENTYNINE PALMS 1.5 SW, San Bernardino, CA07, -116.085, 34.124, 2162, M, 0.54
BLUE LAKE 0.6 NNW, Humboldt, CA01, -123.994, 40.888, 179, M, 0.00
ARBUCKLE BASIN CALIFORNIA, Shasta, CA02, -122.833, 40.398, 1900, 77.5, M
ACTON CALIFORNIA, Los Angeles, CA06, -118.200, 34.446, 2600, 74.4, M
ARROYO GRANDE CALIFORNIA, San Luis Obispo, CA04, -120.392, 35.179, 1048, 69.0, M
ALDER SPRINGS CALIFORNIA, Glenn, CA02, -122.724, 39.651, 4300, 72.7, M
ALPINE CALIFORNIA, San Diego, CA06, -116.739, 32.834, 2041, 75.9, M
LOS ALTOS CALIFORNIA, Santa Clara, CA04, -122.147, 37.358, 645, 69.6, M
ANZA CALIFORNIA, Riverside, CA06, -116.673, 33.555, 3920, 70.0, M
ALDER POINT CALIFORNIA, Humboldt, CA01, -123.590, 40.187, 923, 70.9, M
ARROYO SECO (MT. DIABLO) CALIF, Monterey, CA04, -121.492, 36.230, 980, 73.1, M
ASH CREEK CALIFORNIA, Siskiyou, CA02, -121.979, 41.277, 3200, 61.0, M
ASH VALLEY CALIFORNIA, Lassen, CA02, -120.686, 41.052, 5100, 60.7, M
BACKBONE CALIFORNIA, Trinity, CA01, -123.142, 40.889, 4700, 72.5, M
BALD MTN LOC CALIFORNIA, El Dorado, CA02, -120.697, 38.906, 4680, 74.4, M
BARNABY CALIFORNIA, Marin, CA01, -122.702, 38.028, 1240, 66.6, M
BATTERSON CALIFORNIA, Madera, CA05, -119.508, 37.232, 3160, 76.9, M
BIG BAR CALIFORNIA, Trinity, CA01, -123.233, 40.733, 1500, 74.6, M
BELL CANYON CALIFORNIA, Orange, CA06, -117.592, 33.542, 700, 70.7, M
BRADLEY CALIFORNIA, Monterey, CA04, -120.803, 35.864, 537, 73.5, M
BEAR PEAK CALIFORNIA, Tulare, CA05, -118.052, 35.884, 8228, 60.2, M
BENTON CALIFORNIA, Mono, CA07, -118.478, 37.843, 5450, 66.9, M
BEAUMONT CALIFORNIA, Riverside, CA06, -116.950, 33.931, 2604, 76.3, M
BEVERLY HILLS CALIFORNIA, Los Angeles, CA06, -118.412, 34.125, 1260, 75.8, M
BANGOR CALIFORNIA, Butte, CA02, -121.386, 39.398, 803, 77.1, M
BIG HILL CALIFORNIA, Humboldt, CA01, -123.636, 41.098, 3570, 68.7, M
BIG PINES CALIFORNIA, Los Angeles, CA07, -117.692, 34.379, 6917, 65.9, M
BIG ROCK CALIFORNIA, Marin, CA01, -122.570, 38.039, 1500, 70.3, M
BLACK DIAMOND CALIFORNIA, Contra Costa, CA04, -121.884, 37.950, 1600, 73.9, M
BLUE DOOR CALIFORNIA, Lassen, CA02, -120.337, 41.055, 5615, 63.3, M
BLUE RIDGE (KNF) CALIFORNIA, Siskiyou, CA01, -123.187, 41.269, 5956, 66.8, M
BEN BOLT CALIFORNIA, El Dorado, CA05, -120.934, 38.591, 905, 75.9, M
BEN LOMOND CALIFORNIA, Santa Cruz, CA04, -122.170, 37.132, 2630, 71.9, M
BOGARD R.S. CALIFORNIA, Lassen, CA02, -121.083, 40.598, 5650, 57.7, M
BOONVILLE CALIFORNIA, Mendocino, CA01, -123.349, 38.988, 644, 69.9, M
BIG PINE FLAT CALIFORNIA, San Bernardino, CA07, -117.013, 34.319, 6861, 62.3, M
BRIDGEPORT 4NW CALIFORNIA, Mono, CA03, -119.289, 38.272, 6650, 61.7, M
BRANCH MOUNTAIN CALIFORNIA, San Luis Obispo, CA04, -120.083, 35.189, 3770, 74.7, M
BEAR FLAT CALIFORNIA, Modoc, CA02, -120.313, 41.295, 6200, 62.4, M
BRIONES CALIFORNIA, Contra Costa, CA04, -122.118, 37.944, 1450, 71.6, M
BLACKROCK CALIFORNIA, Tulare, CA05, -118.260, 36.093, 8200, 57.5, M
BROOKS CALIFORNIA, Yolo, CA02, -122.145, 38.738, 354, 78.2, M
BIG SUR CALIFORNIA, Monterey, CA04, -121.785, 36.236, 450, 64.0, M
BUCK MEADOWS CALIFORNIA, Tuolumne, CA05, -120.097, 37.823, 3200, 70.4, M
BULL FLAT CALIFORNIA, Lassen, CA03, -120.114, 40.481, 4395, 64.9, M
BURNS CANYON CALIFORNIA, San Bernardino, CA07, -116.634, 34.210, 6000, 70.0, M
BUTTERCUP CALIFORNIA, Imperial, CA07, -114.884, 32.740, 217, 90.8, M
BEAVER CAMP LOC CALIFORNIA, Amador, CA05, -120.325, 38.488, 5000, 72.9, M
BRAZIE RANCH CALIFORNIA, Siskiyou, CA01, -122.594, 41.685, 3000, 72.2, M
CAHUILLA CALIFORNIA, Imperial, CA07, -115.174, 32.974, 278, 92.0, M
CALLAHAN CALIFORNIA, Siskiyou, CA01, -122.796, 41.308, 3136, 71.1, M
CAMERON FIRE STATION CALIFORNI, San Diego, CA06, -116.463, 32.721, 3443, 70.3, M
CANBY CALIFORNIA, Modoc, CA02, -120.868, 41.434, 4312, 64.2, M
CARRIZO CALIFORNIA, San Luis Obispo, CA05, -119.773, 35.096, 2490, 77.1, M
CATHEYS VALLEY CALIFORNIA, Mariposa, CA05, -120.111, 37.468, 1200, 78.5, M
CEDAR GROVE CALIFORNIA, Fresno, CA05, -118.656, 36.788, 4720, 67.1, M
CHEESEBORO CALIFORNIA, Ventura, CA06, -118.717, 34.185, 1650, 76.0, M
CHICO CALIFORNIA, Butte, CA02, -121.779, 39.712, 230, 76.5, M
CHILAO CALIFORNIA, Los Angeles, CA06, -118.030, 34.332, 5450, 72.1, M
CHUCHUPATE CALIFORNIA, Ventura, CA05, -119.012, 34.808, 4900, 61.8, M
CLAREMONT CALIFORNIA, Los Angeles, CA06, -117.707, 34.137, 1645, 73.9, M
CLEAR CREEK CALIFORNIA, Los Angeles, CA06, -118.152, 34.271, 3000, 75.6, M
CLARK CALIFORNIA, Riverside, CA06, -117.309, 33.877, 1720, 74.1, M
CASE MOUNTAIN CALIFORNIA, Tulare, CA05, -118.809, 36.411, 6450, 67.8, M
CORONA CALIFORNIA, Riverside, CA06, -117.549, 33.874, 640, 75.2, M
COHASSET CALIFORNIA, Butte, CA02, -121.769, 39.872, 1733, 80.4, M
COLLINS BALDY CALIFORNIA, Siskiyou, CA01, -122.950, 41.775, 5493, 66.7, M
CONVERSE CALIFORNIA, San Bernardino, CA06, -116.913, 34.194, 5618, 66.2, M
COOSKIE MOUNTAIN CALIFORNIA, Humboldt, CA01, -124.266, 40.257, 2950, 69.3, M
CORRALITOS CALIFORNIA, Santa Cruz, CA04, -121.798, 36.991, 450, 65.1, M
COUNTY LINE CALIFORNIA, Lake, CA02, -122.412, 39.019, 2085, 79.5, M
CAMP 9 CALIFORNIA, Los Angeles, CA06, -118.422, 34.362, 4000, 75.9, M
CRANE FLAT LOOKOUT CALIFORNIA, Mariposa, CA05, -119.825, 37.762, 6644, 65.5, M
CRESTVIEW CALIFORNIA, Mono, CA07, -118.983, 37.745, 7600, 55.1, M
CORNING CALIFORNIA, Tehama, CA02, -122.170, 39.939, 294, 78.2, M
CARPENTER RIDGE CALIFORNIA, Butte, CA02, -121.582, 40.069, 4812, 71.0, M
CRANSTON CALIFORNIA, Riverside, CA06, -116.841, 33.740, 1950, 78.7, M
CRAZY PEAK CALIFORNIA, Del Norte, CA01, -123.604, 41.992, 3970, 67.8, M
CASHMAN CALIFORNIA, Plumas, CA02, -120.915, 40.002, 4520, 70.8, M
DESCANSO CALIFORNIA, San Diego, CA06, -116.622, 32.857, 3480, 72.3, M
DEVILS GARDEN CALIFORNIA, Modoc, CA02, -120.671, 41.530, 5022, 65.8, M
DIABLO GRANDE CALIFORNIA, Stanislaus, CA05, -121.294, 37.329, 1850, 76.4, M
DEMOCRAT CALIFORNIA, Kern, CA05, -118.630, 35.532, 2356, 76.6, M
DINKEY CALIFORNIA, Fresno, CA05, -119.039, 37.066, 5668, 59.9, M
DOG VALLEY CALIFORNIA, Sierra, CA03, -120.048, 39.562, 5976, 62.0, M
DOYLE CALIFORNIA, Lassen, CA03, -120.106, 40.022, 4240, 69.3, M
DUNCAN CALIFORNIA, Placer, CA02, -120.509, 39.144, 7100, 63.9, M
DEL VALLE CALIFORNIA, Los Angeles, CA06, -118.683, 34.431, 1278, 76.2, M
DEVORE CALIFORNIA, San Bernardino, CA06, -117.404, 34.221, 2057, 76.1, M
EAGLE PEAK CALIFORNIA, Tehama, CA02, -122.657, 39.928, 3713, 74.9, M
EEL RIVER CAMP CALIFORNIA, Humboldt, CA01, -123.824, 40.138, 446, 68.4, M
EEL RIVER CALIFORNIA, Mendocino, CA01, -123.083, 39.833, 1500, 74.1, M
EL CARISO CALIFORNIA, Riverside, CA06, -117.411, 33.647, 3038, 78.0, M
MOUNT ELIZABETH CALIFORNIA, Tuolumne, CA05, -120.247, 38.063, 4933, 71.8, M
EL MIRAGE CALIFORNIA, San Bernardino, CA07, -117.550, 34.634, 2880, 76.2, M
ESPERANZA CALIFORNIA, Calaveras, CA05, -120.515, 38.243, 2559, 73.2, M
FANCHER CREEK CALIFORNIA, Fresno, CA05, -119.466, 36.884, 920, 81.7, M
FAWNSKIN CALIFORNIA, San Bernardino, CA06, -116.899, 34.266, 6900, 58.2, M
FENCE MEADOW CALIFORNIA, Fresno, CA05, -119.175, 36.961, 5048, 73.9, M
FORT HUNTER LIGGET CALIFORNIA, Monterey, CA04, -121.242, 36.012, 1100, 73.7, M
FIGUEROA CALIFORNIA, Santa Barbara, CA06, -120.007, 34.733, 3200, 75.8, M
FISH CREEK MTN CALIFORNIA, Imperial, CA07, -116.067, 32.990, 760, 92.5, M
FIVE MILE CALIFORNIA, Inyo, CA07, -117.918, 35.872, 4150, 81.4, M
FORESTHILL CALIFORNIA, Placer, CA02, -120.732, 39.091, 4355, 72.9, M
FOUNTAIN SPRINGS CALIFORNIA, Tulare, CA05, -118.915, 35.892, 210, 77.7, M
FREMONT CANYON CALIFORNIA, Orange, CA06, -117.711, 33.808, 1781, 73.5, M
FRIEND MOUNTAIN CALIFORNIA, Trinity, CA01, -123.342, 40.505, 4000, 70.4, M
GASQUET CALIFORNIA, Del Norte, CA01, -123.979, 41.846, 500, 68.7, M
GRASSHOPPER CALIFORNIA, Lassen, CA03, -120.784, 40.782, 6158, 62.2, M
GOOSE VALLEY CALIFORNIA, San Diego, CA06, -116.846, 33.074, 1530, 73.0, M
GORDON CALIFORNIA, Lassen, CA03, -120.896, 40.759, 6200, 63.0, M
GREEN SPRING CALIFORNIA, Tuolumne, CA05, -120.500, 37.833, 1020, 77.8, M
HASTINGS CALIFORNIA, Monterey, CA04, -121.552, 36.389, 1885, 72.1, M
HAWKEYE CALIFORNIA, Sonoma, CA01, -122.917, 38.782, 2000, 73.3, M
HAYFORK CALIFORNIA, Trinity, CA01, -123.165, 40.550, 2323, 67.6, M
HELL HOLE CALIFORNIA, Placer, CA02, -120.422, 39.072, 5240, 69.3, M
HERNANDEZ CALIFORNIA, San Benito, CA04, -120.856, 36.383, 3733, 75.0, M
HIGH GLADE LOOKOUT CALIFORNIA, Lake, CA02, -122.808, 39.208, 4840, 72.1, M
HIGH SIERRA CALIFORNIA, Fresno, CA05, -119.038, 37.315, 7403, 59.7, M
HOPLAND CALIFORNIA, Mendocino, CA01, -123.081, 39.031, 2682, 75.3, M
HOLLISTER CALIFORNIA, San Benito, CA04, -121.362, 36.842, 404, 67.9, M
HUNTER MOUNTAIN CALIFORNIA, Inyo, CA07, -117.474, 36.563, 6880, 64.8, M
HORSE LAKE CALIFORNIA, Lassen, CA03, -120.503, 40.631, 5100, 63.4, M
HOOPA CALIFORNIA, Humboldt, CA01, -123.671, 41.048, 375, 71.0, M
HORSE THIEF SPRINGS CALIFORNIA, San Bernardino, CA07, -115.909, 35.771, 5000, 75.2, M
HURLEY CALIFORNIA, Fresno, CA05, -119.568, 37.015, 1201, 74.6, M
INDIAN WELL CALIFORNIA, Siskiyou, CA01, -121.538, 41.742, 4770, 67.3, M
JARBO GAP CALIFORNIA, Butte, CA02, -121.489, 39.736, 2490, 76.4, M
JERSEYDALE CALIFORNIA, Mariposa, CA05, -119.839, 37.544, 3900, 74.6, M
JOHNSONDALE CALIFORNIA, Tulare, CA05, -118.545, 35.972, 4700, 64.0, M
JUANITA LAKE CALIFORNIA, Siskiyou, CA01, -122.006, 41.786, 5400, 67.1, M
JULIAN CALIFORNIA, San Diego, CA07, -116.591, 33.076, 4240, 71.1, M
JUNIPER CREEK CALIFORNIA, Modoc, CA02, -120.472, 41.332, 4372, 64.4, M
KEENWILD CALIFORNIA, Riverside, CA06, -116.767, 33.667, 4920, 71.5, M
KETTLEMAN HILLS CALIFORNIA, Kings, CA05, -120.057, 36.033, 810, 81.3, M
KNOXVILLE CREEK CALIFORNIA, Lake, CA02, -122.417, 38.862, 2200, 74.0, M
KONOCTI CALIFORNIA, Lake, CA02, -122.706, 38.912, 2163, 76.4, M
LOS BANOS CALIFORNIA, Merced, CA05, -121.053, 37.055, 350, 77.3, M
MT. LAGUNA CALIFORNIA, San Diego, CA07, -116.420, 32.880, 5760, 64.1, M
LA HONDA CALIFORNIA, San Mateo, CA04, -122.255, 37.305, 872, 65.4, M
LA PANZA CALIFORNIA, San Luis Obispo, CA04, -120.187, 35.381, 1630, 70.8, M
LAURAL MOUNTAIN CALIFORNIA, Kern, CA07, -117.699, 35.478, 4390, 78.5, M
LASSEN LODGE CALIFORNIA, Tehama, CA02, -121.714, 40.344, 4159, 75.2, M
LAUFMAN CALIFORNIA, Lassen, CA03, -120.353, 40.142, 5800, 68.6, M
LAYTONVILLE CALIFORNIA, Mendocino, CA01, -123.485, 39.702, 1820, 71.0, M
LADDER BUTTE CALIFORNIA, Lassen, CA02, -121.297, 40.807, 5750, 66.9, M
LEO CARRILLO CALIFORNIA, Los Angeles, CA06, -118.936, 34.046, 50, 64.6, M
LOS GATOS CALIFORNIA, Santa Clara, CA04, -121.943, 37.203, 2000, 72.7, M
LOST HORSE CALIFORNIA, Riverside, CA07, -116.188, 34.018, 4200, 72.9, M
LINCOLN CALIFORNIA, Placer, CA02, -121.268, 38.883, 200, 76.1, M
LOWER KLAMATH CALIFORNIA, Siskiyou, CA01, -121.700, 41.999, 4098, 60.4, M
LOS PRIETOS CALIFORNIA, Santa Barbara, CA06, -119.783, 34.536, 1020, 73.9, M
LAS TABLAS CALIFORNIA, San Luis Obispo, CA04, -120.924, 35.656, 994, 70.4, M
LITTLE TUJUNGA CALIFORNIA, Los Angeles, CA06, -118.361, 34.294, 1390, 72.8, M
DESCANSO 3.7 NNW, San Diego, CA06, -116.626, 32.906, 3278, M, 0.00
WOODSIDE 3.4 S, San Mateo, CA04, -122.264, 37.375, 1592, M, 0.00
ADELANTO 3.1 S, San Bernardino, CA07, -117.433, 34.525, 3085, M, 0.19
YUCCA VALLEY 1.1 SW, San Bernardino, CA07, -116.443, 34.100, 3628, M, 0.09
LYONS VALLEY CALIFORNIA, Lake, CA01, -123.074, 39.126, 3200, 74.3, M
LYTLE CREEK CALIFORNIA, San Bernardino, CA06, -117.480, 34.234, 2792, 75.1, M
MAD RIVER CALIFORNIA, Trinity, CA01, -123.524, 40.463, 2775, 69.1, M
MALIBU HILLS CALIFORNIA, Los Angeles, CA06, -118.633, 34.058, 1575, 71.5, M
MANZANITA LAKE CALIFORNIA, Shasta, CA02, -121.580, 40.540, 5660, 60.4, M
MARIPOSA GROVE CALIFORNIA, Mariposa, CA05, -119.605, 37.513, 6400, 67.9, M
MILL CREEK (BDF) CALIFORNIA, San Bernardino, CA06, -117.035, 34.084, 2950, 77.2, M
MCGUIRES CALIFORNIA, Mendocino, CA01, -123.601, 39.353, 593, 66.6, M
MEANS LAKE CALIFORNIA, San Bernardino, CA07, -116.517, 34.391, 2900, 78.5, M
MENDOCINO PASS CALIFORNIA, Mendocino, CA01, -122.945, 39.808, 5420, 69.1, M
METCALF GAP CALIFORNIA, Madera, CA05, -119.768, 37.409, 3077, 78.2, M
MEYERS CALIFORNIA, El Dorado, CA03, -120.018, 38.849, 6310, 57.9, M
MID HILLS CALIFORNIA, San Bernardino, CA07, -115.411, 35.123, 5413, 70.9, M
MILL CREEK (ANF) CALIFORNIA, Los Angeles, CA06, -118.082, 34.390, 5021, 72.4, M
MILO CALIFORNIA, Tulare, CA05, -118.869, 36.231, 1923, 80.4, M
MALLORY RIDGE CALIFORNIA, Contra Costa, CA05, -121.779, 37.817, 2040, 75.2, M
MONTECITO CALIFORNIA, Santa Barbara, CA06, -119.648, 34.461, 1500, 70.5, M
MODOC NWR CALIFORNIA, Modoc, CA02, -120.354, 41.459, 4380, 63.1, M
MOJAVE RIVER SINK CALIFORNIA, San Bernardino, CA07, -116.079, 35.053, 950, 86.3, M
MORMON ROCK CALIFORNIA, San Bernardino, CA06, -117.502, 34.318, 3300, 74.4, M
MOUNTAIN REST CALIFORNIA, Fresno, CA05, -119.371, 37.054, 4100, 73.9, M
MARKLEEVILLE CALIFORNIA, Alpine, CA03, -119.767, 38.683, 5501, 63.9, M
MT. SHASTA CALIFORNIA, Siskiyou, CA02, -122.316, 41.316, -, 66.1, M
MARIPOSA CALIFORNIA, Mariposa, CA05, -119.987, 37.504, 2231, 75.2, M
MT. DIABLO CALIFORNIA, Contra Costa, CA05, -121.914, 37.882, 3849, 71.2, M
MOUNT ZION CALIFORNIA, Amador, CA05, -120.651, 38.389, 2960, 76.9, M
NORTH FORK CALIFORNIA, Madera, CA05, -119.505, 37.233, 2720, 76.4, M
OAK KNOLL CALIFORNIA, Siskiyou, CA01, -122.850, 41.839, 1940, 69.2, M
OAK MOUNTAIN CALIFORNIA, Shasta, CA02, -121.983, 41.006, 1700, 75.9, M
OAK CREEK CALIFORNIA, Inyo, CA07, -118.259, 36.843, 4855, 75.4, M
OJAI CALIFORNIA, Ventura, CA06, -119.230, 34.448, 765, 68.7, M
OAK GROVE CALIFORNIA, San Diego, CA06, -116.795, 33.393, 2752, 74.8, M
OAKLAND NORTH CALIFORNIA, Contra Costa, CA04, -122.221, 37.865, 1403, 67.5, M
OAK OPENING CALIFORNIA, Tulare, CA05, -118.702, 36.175, 3240, 77.3, M
OAKLAND SOUTH CALIFORNIA, Alameda, CA04, -122.145, 37.786, 1095, 67.2, M
OPAL MOUNTAIN CALIFORNIA, San Bernardino, CA07, -117.176, 35.154, 3240, 79.3, M
OWENS CAMP LOC CALIFORNIA, El Dorado, CA02, -120.245, 38.733, 5240, 66.4, M
OWENS VALLEY CALIFORNIA, Inyo, CA07, -118.551, 37.390, 4640, 73.1, M
OZENA CALIFORNIA, Ventura, CA06, -119.354, 34.682, 3670, 71.1, M
PANAMINT CALIFORNIA, Inyo, CA07, -117.088, 36.120, 6880, 68.3, M
PARKFIELD CALIFORNIA, Monterey, CA04, -120.432, 35.899, 1535, 72.9, M
PATTY MOCUS CALIFORNIA, Tehama, CA02, -122.867, 40.295, 3500, 74.7, M
PINE HILLS CALIFORNIA, San Diego, CA06, -116.634, 33.016, -, 71.8, M
PIERCE CALIFORNIA, Plumas, CA02, -120.642, 40.246, 5700, 65.9, M
PINEHURST CALIFORNIA, Fresno, CA05, -119.000, 36.685, 4060, 74.0, M
PIKE COUNTY LOOKOUT CALIFORNIA, Yuba, CA02, -121.202, 39.475, 3714, 73.6, M
PILOT HILL CALIFORNIA, El Dorado, CA02, -121.009, 38.833, 1200, 74.5, M
PIRU CALIFORNIA, Ventura, CA06, -118.810, 34.404, 614, 70.3, M
PARK RIDGE CALIFORNIA, Tulare, CA05, -118.942, 36.724, 7540, 64.3, M
PINNACLES CALIFORNIA, San Benito, CA04, -121.147, 36.471, 1322, 75.3, M
POPPY PARK CALIFORNIA, Los Angeles, CA07, -118.383, 34.733, 2760, 78.6, M
POTRERO CALIFORNIA, San Diego, CA06, -116.609, 32.606, 2345, 71.5, M
PANOCHE ROAD CALIFORNIA, Fresno, CA05, -120.766, 36.727, 2032, 78.1, M
PULGAS CALIFORNIA, San Mateo, CA04, -122.298, 37.475, 644, 69.7, M
QUARTZ HILL CALIFORNIA, Siskiyou, CA01, -122.934, 41.599, 4225, 71.4, M
QUINCY RD CALIFORNIA, Plumas, CA02, -120.942, 39.973, 3500, 68.9, M
RAVENDALE CALIFORNIA, Lassen, CA03, -120.316, 40.731, 5298, 63.9, M
RANCHITA CALIFORNIA, San Diego, CA07, -116.497, 33.222, 4415, 73.9, M
READER RANCH CALIFORNIA, Nevada, CA02, -121.117, 39.304, 1968, 75.8, M
REDDING AIRPORT CALIFORNIA, Shasta, CA02, -122.291, 40.516, 500, 78.6, M
RICE VALLEY CALIFORNIA, Riverside, CA07, -114.732, 34.061, 820, 88.2, M
SANTA ROSA ISLAND CALIFORNIA, Santa Barbara, CA06, -120.078, 33.978, 1298, 61.7, M
SANTA ROSA PLATEAU CALIFORNIA, Riverside, CA06, -117.231, 33.529, 1980, 72.5, M
SANTA ROSA CALIFORNIA, Sonoma, CA01, -122.712, 38.479, 576, 68.0, M
STAMPEDE CALIFORNIA, Sierra, CA03, -120.075, 39.483, 6867, 60.6, M
STONYFORD CALIFORNIA, Colusa, CA02, -122.575, 39.367, 1200, 75.9, M
SUGARLOAF (SHF) CALIFORNIA, Shasta, CA02, -122.438, 40.917, 4200, 76.8, M
SUGARLOAF CALIFORNIA, Tulare, CA05, -118.675, 36.727, 8120, 60.6, M
SPRING VALLEY CALIFORNIA, San Mateo, CA04, -122.436, 37.563, 1075, 64.6, M
TANBARK CALIFORNIA, Los Angeles, CA06, -117.761, 34.207, 2600, 75.6, M
TEMESCAL (LPF) CALIFORNIA, Ventura, CA06, -118.756, 34.481, 1140, 74.2, M
THOMES CREEK CALIFORNIA, Tehama, CA02, -122.610, 39.864, 1040, 82.1, M
THOUSAND OAKS CALIFORNIA, Ventura, CA06, -118.870, 34.210, 795, 66.8, M
TIMBER MOUNTAIN CALIFORNIA, Modoc, CA01, -121.298, 41.629, 4960, 67.3, M
TEMESCAL (CNF) CALIFORNIA, Riverside, CA06, -117.483, 33.763, 1125, 76.2, M
MOUNT TOM CALIFORNIA, Fresno, CA05, -119.178, 37.376, 9018, 56.9, M
LAS TRAMPAS CALIFORNIA, Contra Costa, CA04, -122.067, 37.834, 1760, 72.8, M
TRINITY CAMP CALIFORNIA, Trinity, CA01, -122.804, 40.786, 3308, 71.1, M
TRIMMER CALIFORNIA, Fresno, CA05, -119.305, 36.911, 1540, 78.7, M
UHL / HOT SPRINGS, Tulare, CA05, -118.633, 35.889, 3720, 72.5, M
UNDERWOOD CALIFORNIA, Trinity, CA01, -123.495, 40.722, 2600, 71.6, M
VALLEY CENTER CALIFORNIA, San Diego, CA06, -117.009, 33.237, 1483, 72.1, M
VAN BREMMER CALIFORNIA, Siskiyou, CA01, -121.794, 41.643, 4928, 66.9, M
VALYERMO CALIFORNIA, Los Angeles, CA07, -117.851, 34.446, 3780, 73.1, M
VANDENBERG CALIFORNIA, Santa Barbara, CA06, -120.486, 34.759, 1050, 63.8, M
WALKER CALIFORNIA, Mono, CA03, -119.459, 38.565, 5440, 69.3, M
WALKER PASS CALIFORNIA, Kern, CA05, -118.057, 35.665, 5572, 73.5, M
WARM SPRINGS CALIFORNIA, Los Angeles, CA06, -118.579, 34.596, 4930, 76.3, M
WEED AIRPORT CALIFORNIA, Siskiyou, CA01, -122.454, 41.479, 2930, 69.0, M
WESTWOOD CALIFORNIA, Lassen, CA02, -120.900, 40.307, 5800, 66.7, M
WHITE CLOUD CALIFORNIA, Nevada, CA02, -120.837, 39.317, 4320, 74.2, M
WHITTIER HILLS CALIFORNIA, Los Angeles, CA06, -118.010, 33.984, 950, 75.0, M
WHITMORE CALIFORNIA, Shasta, CA02, -121.899, 40.619, 2417, 76.0, M
WILEY RIDGE CALIFORNIA, Ventura, CA06, -118.841, 34.372, 1645, 72.4, M
WOFFORD HEIGHTS CALIFORNIA, Kern, CA05, -118.499, 35.722, 3150, 75.0, M
WOLVERTON CALIFORNIA, Tulare, CA05, -118.703, 36.445, 5240, 73.2, M
WHITAKER PEAK CALIFORNIA, Los Angeles, CA06, -118.740, 34.569, 4120, 75.9, M
WHITE WOLF CALIFORNIA, Tuolumne, CA05, -119.650, 37.851, 8025, 56.8, M
YOLLA BOLLA CALIFORNIA, Trinity, CA01, -123.066, 40.338, 4524, 71.0, M
YUCCA VALLEY CALIFORNIA, San Bernardino, CA07, -116.408, 34.123, 3260, 76.1, M
YUROK CALIFORNIA, Humboldt, CA01, -123.857, 41.290, 495, 70.5, M
HAGAN'S MEADOW, El Dorado, CA03, -119.940, 38.850, 7776, 53.3, 0.50
BLUE LAKES, Alpine, CA05, -119.920, 38.610, 8057, 54.5, 1.20
POISON FLAT, Alpine, CA03, -119.630, 38.510, 7736, 52.3, 1.40
SONORA PASS, Mono, CA03, -119.600, 38.310, 8827, 52.8, 1.40
LEAVITT MEADOWS, Mono, CA03, -119.550, 38.300, 7198, 56.2, 0.90
VIRGINIA LAKES RIDGE, Mono, CA03, -119.230, 38.070, 9445, 54.2, 0.40
LOBDELL LAKE, Mono, CA03, -119.370, 38.440, 9233, 52.6, 1.00
EBBETTS PASS, Alpine, CA03, -119.800, 38.550, 8765, 55.8, 2.70
HEAVENLY VALLEY, El Dorado, CA03, -119.920, 38.920, 8582, 53.4, 0.10
LEAVITT LAKE, Mono, CA03, -119.610, 38.280, 9617, 53.0, 2.20
SPRATT CREEK, Alpine, CA03, -119.820, 38.670, 6115, 60.8, 0.50
MONITOR PASS, Alpine, CA03, -119.610, 38.670, 8310, 55.5, 2.40
BURNSIDE LAKE, Alpine, CA03, -119.890, 38.720, 8129, 50.4, 1.90
SUMMIT MEADOW, Mono, CA03, -119.540, 38.400, 9313, 53.8, 0.60
FORESTDALE CREEK, Alpine, CA03, -119.960, 38.680, 8017, 56.9, 1.20
HORSE MEADOW, Alpine, CA03, -119.890, 38.840, 8557, 55.6, 0.30
CARSON PASS, Alpine, CA02, -119.990, 38.690, 8353, 54.0, 0.50
CROWDER FLAT, Modoc, CA01, -120.750, 41.890, 5170, 60.9, 0.00
CEDAR PASS, Modoc, CA02, -120.300, 41.580, 7030, 60.8, 0.50
DISMAL SWAMP, Modoc, CA03, -120.180, 41.990, 7360, 55.2, 1.00
ADIN MTN, Modoc, CA02, -120.790, 41.240, 6190, 55.7, 0.00
INDEPENDENCE CREEK, Sierra, CA03, -120.280, 39.490, 6456, 56.1, 1.80
BARSTOW 0.8 SSE, San Bernardino, CA07, -117.059, 34.867, 2609, M, 0.44
MCOLF CAMP PENDLETON RED BEACH AIRPORT, San Diego, -, -117.456, 33.286, 89, 66.2, T
CAMPO ASOS, San Diego, CA07, -116.468, 32.626, 2641, 70.2, 0.20
Burbank Glendale Pasadena Area, -, -, -, -, -, 73.5, T
Camarillo Area, -, -, -, -, -, 68.4, 0.04
Needles Area, -, -, -, -, -, 89.6, 1.10
Oxnard Area, -, -, -, -, -, 65.2, 0.03
Palm Springs Area, -, -, -, -, -, 88.3, 0.57
Riverside Area, -, -, -, -, -, 76.4, 0.04
Ramona Area, -, -, -, -, -, 70.3, 0.20
Northern CA 8 Station Index, -, -, -, -, -, M, 0.48
San Joaquin 5 Station Index, -, -, -, -, -, M, 0.91
ROCK CREEK, Mono, CA07, -118.667, 37.551, 7040, 60.7, M
RODEO VALLEY, Mendocino, CA01, -123.321, 39.668, 2428, 71.8, M
ROSE VALLEY CALIFORNIA, Ventura, CA06, -119.184, 34.543, 3331, 66.2, M
ROUND MOUNTAIN, Siskiyou, CA02, -121.464, 41.427, 5258, 67.5, M
ROSE PEAK CALIFORNIA, Alameda, CA04, -121.735, 37.502, 3060, 72.6, M
RATTLESNAKE CALIFORNIA, Tulare, CA05, -118.422, 36.407, 8600, 58.4, M
RUSH CREEK CALIFORNIA, Modoc, CA02, -120.864, 41.294, 4800, 68.3, M
RUTH CALIFORNIA, Trinity, CA01, -123.316, 40.251, 2732, 66.6, M
SACRAMENTO NWR CALIFORNIA, Glenn, CA02, -122.182, 39.417, 120, 76.1, M
SADDLEBACK BUTTE CALIFORNIA, Los Angeles, CA07, -117.821, 34.685, 2590, 75.9, M
SAUGUS CALIFORNIA, Los Angeles, CA06, -118.525, 34.425, 1450, 76.5, M
SAWYERS BAR CALIFORNIA, Siskiyou, CA01, -123.132, 41.300, 2192, 71.0, M
SANTA BARBARA ISLAND CALIFORNI, Santa Barbara, CA06, -119.033, 33.483, 176, 62.6, M
SANTA CRUZ ISLAND CALIFORNIA, Santa Barbara, CA06, -119.722, 33.996, 250, 66.2, M
SCORPION CALIFORNIA, Trinity, CA01, -122.697, 41.112, 4400, 72.8, M
SODA CREEK CALIFORNIA, Lake, CA01, -122.977, 39.425, 1773, 69.5, M
SADDLEBACK CALIFORNIA, Sierra, CA02, -120.865, 39.638, 6670, 65.9, M
SECRET TOWN CALIFORNIA, Nevada, CA02, -120.885, 39.184, 2826, 73.8, M
SANTA FE DAM CALIFORNIA, Los Angeles, CA06, -117.946, 34.121, 500, 74.9, M
SHAVER CALIFORNIA, Fresno, CA05, -119.256, 37.135, 5746, 60.8, M
SCHOOL HOUSE CALIFORNIA, Humboldt, CA01, -123.906, 41.138, 2640, 67.6, M
SHIP MTN. CALIFORNIA, Del Norte, CA01, -123.792, 41.736, 5300, 53.6, M
SHADEQUARTER CALIFORNIA, Tulare, CA05, -118.956, 36.567, 4069, 74.3, M
SIMS CALIFORNIA, Shasta, CA02, -122.373, 41.075, 2400, 76.3, M
SIMI VALLEY CALIFORNIA, Ventura, CA06, -118.814, 34.291, 914, 69.0, M
SLATER BUTTE CALIFORNIA, Siskiyou, CA01, -123.352, 41.859, 4670, 69.4, M
SAN MIGUEL CALIFORNIA, San Diego, CA06, -116.974, 32.685, 425, 69.8, M
SAN LUIS NWR CALIFORNIA, Merced, CA05, -120.794, 37.182, 65, 74.3, M
SANTA RITA CALIFORNIA, San Benito, CA05, -120.598, 36.348, 5000, 71.6, M
SOLDIER MOUNTAIN CALIFORNIA, Shasta, CA02, -121.586, 40.926, 3710, 70.4, M
SOMES BAR CALIFORNIA, Siskiyou, CA01, -123.496, 41.390, 920, 75.0, M
SQUAW SPRINGS CALIFORNIA, San Bernardino, CA07, -117.568, 35.370, 3620, 79.2, M
SQUAW LAKE CALIFORNIA, Imperial, CA07, -114.494, 32.908, 300, 91.2, M
INDEPENDENCE CAMP, Sierra, CA03, -120.290, 39.450, 7003, 56.6, 1.10
INDEPENDENCE LAKE, Nevada, CA03, -120.310, 39.430, 8352, 57.5, 0.60
TRUCKEE #2, Placer, CA03, -120.180, 39.300, 6509, 60.4, 0.20
WARD CREEK #3, Placer, CA03, -120.220, 39.140, 6655, 56.3, 1.00
TAHOE CITY CROSS, Placer, CA03, -120.150, 39.170, 6797, 59.2, 0.70
SQUAW VALLEY G.C., Placer, CA03, -120.260, 39.190, 8029, 57.6, 0.30
CSS LAB, Nevada, CA02, -120.370, 39.330, 6855, 58.4, 2.10
RUBICON #2, El Dorado, CA03, -120.130, 39.000, 7689, 58.5, 0.20
ECHO PEAK, El Dorado, CA03, -120.080, 38.850, 7670, 58.8, 0.30
FALLEN LEAF, El Dorado, CA03, -120.050, 38.930, 6236, 55.5, 0.30
Crescent City Area, -, -, -, -, -, 57.7, 0.05
Escondido Area, -, -, -, -, -, 72.4, 0.12
Sacramento Downtown Area, -, -, -, -, -, 76.2, 0.00
Tahoe City Area, -, -, -, -, -, 58.1, 0.46
Ukiah Area, -, -, -, -, -, 72.5, 0.01
Alturas Area, -, -, -, -, -, 61.6, 0.18
Mount Shasta Area, -, -, -, -, -, 65.0, 0.30
Palmdale Area, -, -, -, -, -, 77.5, 0.85
Lancaster Area, -, -, -, -, -, 76.3, 0.01
El Cajon Area, -, -, -, -, -, 72.9, 0.10
Hanford Area, -, -, -, -, -, 76.3, T
El Centro Area, -, -, -, -, -, 88.6, 0.09
Madera Area, -, -, -, -, -, 76.0, T
Merced Area, -, -, -, -, -, 77.2, T
San Jose Area, -, -, -, -, -, 70.4, T