Name, County, ClimateDivision, Longitude, Latitude, Elevation, MeanAvgTemperature, TotalPrecipitation
IMPERIAL, Imperial, CA07, -115.567, 32.849, -64, 68.1, 0.07
EL CAPITAN DAM, San Diego, CA06, -116.815, 32.886, 600, 58.6, 2.18
LAKESIDE 2 E, San Diego, CA06, -116.895, 32.854, 690, M, 2.07
POWAY VALLEY, San Diego, CA06, -117.031, 33.020, 648, 61.2, 2.08
JULIAN CDF, San Diego, CA06, -116.592, 33.076, 4215, 54.7, 3.99
CARLSBAD MCCLELLAN PALOMAR AP, San Diego, CA06, -117.277, 33.130, 313, 59.1, 1.43
HENSHAW DAM, San Diego, CA06, -116.761, 33.237, 2700, 54.2, 4.16
VISTA, San Diego, CA06, -117.232, 33.235, 430, 59.5, 1.47
OCEANSIDE MARINA, San Diego, CA06, -117.395, 33.210, 10, 57.2, 1.29
NILAND, Imperial, CA07, -115.524, 33.278, -60, M, 0.00
BORREGO DESERT PARK, San Diego, CA07, -116.404, 33.256, 810, 72.3, 0.33
PALOMAR MTN OBSERVATORY, San Diego, CA06, -116.840, 33.378, 5550, 52.9, 5.29
MECCA FIRE STATION, Riverside, CA07, -116.073, 33.570, -183, M, 0.09
LAGUNA BEACH, Orange, CA06, -117.781, 33.545, 44, M, 1.34
BLYTHE ASOS, Riverside, CA07, -114.715, 33.619, 395, 73.3, 0.14
DESERT RESORTS REGIONAL AP, Riverside, CA07, -116.164, 33.632, -118, 71.1, 0.06
BARSTOW-DAGGETT AIRPORT, San Bernardino, CA07, -116.787, 34.854, 1919, 67.0, 0.18
MERCED, Merced, CA05, -120.516, 37.289, 154, 60.8, 2.23
SAN DIEGO MONTGOMERY FIELD, San Diego, CA06, -117.137, 32.815, 418, 60.4, 1.16
SAN DIEGO INTERNATIONAL AP, San Diego, CA06, -117.183, 32.734, 15, 61.1, 0.88
SAN DIEGO MIRAMAR NAS, San Diego, CA06, -117.133, 32.867, 477, 59.9, 1.27
NORTH ISLAND NAS, San Diego, CA06, -117.210, 32.692, 14, 63.4, 1.03
SAN FRANCISCO INTERNATIONAL AP, San Mateo, CA04, -122.366, 37.620, 10, 56.9, 2.79
SAN LUIS OBISPO MCCHESNEY FIELD, San Luis Obispo, CA04, -120.644, 35.238, 183, 58.4, 3.01
CEDARVILLE, Modoc, CA03, -120.179, 41.530, 4688, 47.3, 1.86
CHICO UNIVERSITY FARM, Butte, CA02, -121.821, 39.691, 185, 58.7, 2.35
CHULA VISTA, San Diego, CA06, -117.086, 32.640, 56, 60.8, 0.81
COLFAX, Placer, CA02, -120.947, 39.090, 2373, 54.9, 6.06
CUYAMACA, San Diego, CA06, -116.587, 32.990, 4640, 48.6, 4.60
DAVIS 2 WSW EXP FARM, Yolo, CA02, -121.776, 38.535, 60, 59.6, 2.01
DEATH VALLEY NATIONAL PARK, Inyo, CA07, -116.867, 36.463, -194, 78.6, 0.23
FAIRMONT, Los Angeles, CA07, -118.430, 34.705, 3060, 58.5, 2.30
FORT BRAGG 5 N, Mendocino, CA01, -123.756, 39.510, 123, 50.4, 2.94
HANFORD 1 S, Kings, CA05, -119.637, 36.316, 237, 61.6, 1.39
HAPPY CAMP RANGER STATION, Siskiyou, CA01, -123.375, 41.796, 1142, 48.7, 4.74
HEALDSBURG, Sonoma, CA01, -122.866, 38.629, 177, 58.1, 3.47
INDIO FIRE STATION, Riverside, CA07, -116.215, 33.709, -21, 73.5, T
LEMON COVE, Tulare, CA05, -119.026, 36.382, 513, 61.1, 4.11
LIVERMORE, Alameda, CA04, -121.751, 37.682, 529, 59.2, 2.01
LODI, San Joaquin, CA05, -121.288, 38.106, 40, 58.8, 2.30
MERCED MUNICIPAL AP, Merced, CA05, -120.518, 37.286, 152, 61.2, 1.69
NAPA STATE HOSPITAL, Napa, CA01, -122.265, 38.278, 35, 59.3, 2.48
OJAI, Ventura, CA06, -119.227, 34.448, 745, 59.2, 2.33
ORLAND, Glenn, CA02, -122.200, 39.746, 254, 59.6, 1.67
ORLEANS, Humboldt, CA01, -123.532, 41.309, 403, 55.2, 4.39
PASADENA, Los Angeles, CA06, -118.145, 34.148, 864, 65.0, 3.14
PASO ROBLES, San Luis Obispo, CA04, -120.685, 35.628, 730, 57.7, 2.60
PETALUMA AIRPORT, Sonoma, CA01, -122.608, 38.258, 20, 56.3, 1.56
QUINCY, Plumas, CA02, -120.947, 39.937, 3420, 47.2, 5.79
REDLANDS, San Bernardino, CA06, -117.195, 34.037, 1410, 63.9, 1.58
SANTA BARBARA, Santa Barbara, CA06, -119.684, 34.417, 16, 59.3, 3.15
SANTA CRUZ, Santa Cruz, CA04, -122.000, 36.988, 70, 56.9, 3.10
SANTA ROSA, Sonoma, CA01, -122.713, 38.456, 166, 56.7, 2.43
TAHOE CITY, Placer, CA03, -120.143, 39.168, 6230, 40.4, 2.53
UKIAH, Mendocino, CA01, -123.210, 39.147, 636, 55.6, 1.55
WASCO, Kern, CA05, -119.352, 35.589, 291, 62.6, 1.50
WEAVERVILLE, Trinity, CA01, -122.940, 40.737, 2058, 51.9, 2.92
WILLOWS 6 W, Glenn, CA02, -122.305, 39.523, 234, 59.4, 1.36
YOSEMITE PARK HEADQUARTERS, Mariposa, CA05, -119.590, 37.750, 4018, 51.1, 4.45
YREKA, Siskiyou, CA01, -122.641, 41.703, 2709, 50.1, 1.28
BERKELEY, Alameda, CA04, -122.260, 37.874, 310, 56.3, 2.96
BLYTHE, Riverside, CA07, -114.597, 33.613, 268, 72.9, 0.08
EUREKA WFO WOODLEY ISLAND, Humboldt, CA01, -124.160, 40.810, 20, 50.3, 4.76
INDEPENDENCE, Inyo, CA07, -118.204, 36.798, 3950, 61.7, 0.02
SAN LUIS OBISPO POLY, San Luis Obispo, CA04, -120.662, 35.306, 308, 59.5, 3.69
BURNEY, Shasta, CA02, -121.655, 40.880, 3198, 46.7, 3.33
IMPERIAL BEACH REAM FIELD NAS, San Diego, CA06, -117.117, 32.568, 24, 61.5, 0.40
CAMPO, San Diego, CA06, -116.470, 32.626, 2630, 55.9, 2.85
EL CENTRO 2 SSW, Imperial, CA07, -115.562, 32.767, -30, 71.9, 0.00
IMPERIAL COUNTY AP, Imperial, CA07, -115.577, 32.835, -55, 71.3, 0.06
EL CENTRO NAF, Imperial, CA07, -115.664, 32.832, -46, 71.0, 0.08
ALPINE, San Diego, CA06, -116.777, 32.836, 1695, 59.2, 2.77
DEEP CANYON LAB, Riverside, CA07, -116.376, 33.651, 1200, M, 0.59
ELSINORE, Riverside, CA06, -117.346, 33.686, 1268, 63.9, 1.18
SANTA ANA JOHN WAYNE AP, Orange, CA06, -117.867, 33.680, 43, 62.0, 1.06
HAYFIELD PUMPING PLANT, Riverside, CA07, -115.629, 33.704, 1370, 69.2, 0.37
IDYLLWILD FIRE DEPT, Riverside, CA06, -116.707, 33.757, 5380, 51.2, 3.91
SAN JACINTO, Riverside, CA06, -116.975, 33.797, 1525, 63.3, 1.22
HEMET, Riverside, CA06, -116.894, 33.738, 1811, 63.1, 1.47
SANTA ANA FIRE STATION, Orange, CA06, -117.867, 33.744, 135, 63.9, 3.09
EAGLE MOUNTAIN, Riverside, CA07, -115.451, 33.809, 973, 71.1, 0.25
PALM SPRINGS, Riverside, CA07, -116.510, 33.828, 425, 75.6, 0.14
LONG BEACH DAUGHERTY AP, Los Angeles, CA06, -118.147, 33.812, 34, 63.1, 1.53
PALOS VERDES ES FC43D, Los Angeles, CA06, -118.391, 33.800, 220, M, 1.70
FULLERTON MUNICIPAL AP, Orange, CA06, -117.986, 33.872, 86, 65.3, 0.95
BEAUMONT #2, Riverside, CA07, -116.990, 33.926, 2591, M, 1.74
MARCH AFB, Riverside, CA06, -117.250, 33.900, 1536, 60.7, 0.79
YORBA LINDA, Orange, CA06, -117.819, 33.890, 350, M, 0.34
DOWNEY FIRE DEPT. FC107C, Los Angeles, CA06, -118.145, 33.930, 110, M, 1.85
HAWTHORNE MUNICIPAL AP, Los Angeles, CA06, -118.333, 33.924, 55, 61.5, 1.89
LOS ANGELES INTL AP, Los Angeles, CA06, -118.387, 33.938, 97, 59.7, 1.51
RIVERSIDE FIRE STATION 3, Riverside, CA06, -117.388, 33.951, 840, 64.8, 1.01
RIVERSIDE MUNICIPAL AP, Riverside, CA06, -117.435, 33.953, 845, 64.6, 0.87
CHINO AP, San Bernardino, CA06, -117.625, 33.976, 636, 62.4, 0.62
WHITTIER CITY YARD FC106C, Los Angeles, CA06, -118.022, 33.976, 446, M, 0.83
CULVER CITY, Los Angeles, CA06, -118.414, 34.005, 92, 59.8, 1.59
SANTA MONICA MUNICIPAL AP, Los Angeles, CA06, -118.447, 34.021, 175, 59.9, 1.43
SANTA MONICA PIER, Los Angeles, CA06, -118.500, 34.008, 14, 58.4, 0.34
ONTARIO INTL AP, San Bernardino, CA06, -117.577, 34.053, 924, 62.9, 1.31
POMONA/FAIRPLEX, Los Angeles, CA06, -117.766, 34.082, 999, 63.4, 0.56
COVINA CITY YARD FC387B, Los Angeles, CA06, -117.880, 34.092, 607, M, 2.02
U C L A, Los Angeles, CA06, -118.443, 34.070, 430, 60.5, 1.82
TOPANGA PATROL FC-6, Los Angeles, CA06, -118.599, 34.084, 745, M, 1.03
IRON MOUNTAIN, San Bernardino, CA07, -115.122, 34.147, 922, 74.1, 0.26
TWENTYNINE PALMS, San Bernardino, CA07, -116.037, 34.128, 1975, 68.3, 0.00
JOSHUA TREE, San Bernardino, CA07, -116.275, 34.147, 2563, 64.5, 0.14
SAN DIMAS FIRE FC 95, Los Angeles, CA06, -117.802, 34.105, 958, M, 1.95
SAN GABRIEL FIRE DEPT, Los Angeles, CA06, -118.100, 34.084, 363, 61.9, 1.72
POINT MUGU NF, Ventura, CA06, -119.123, 34.124, 12, 55.5, 0.03
ALTADENA, Los Angeles, CA06, -118.138, 34.182, 1127, M, 2.97
SAN GABRIEL CANYON PH, Los Angeles, CA06, -117.908, 34.155, 744, 66.0, 3.39
WOODLAND HILLS PIERCE COLLEGE, Los Angeles, CA06, -118.574, 34.182, 790, 63.0, 1.96
LYTLE CREEK R S, San Bernardino, CA06, -117.471, 34.238, 2730, M, 0.00
SAN GABRIEL DAM FC425B-E, Los Angeles, CA06, -117.861, 34.205, 1481, 60.1, 4.33
MT WILSON CBS, Los Angeles, CA06, -118.071, 34.231, 5710, 53.4, 2.51
VAN NUYS AP, Los Angeles, CA06, -118.491, 34.212, 785, 62.7, 2.34
CAMARILLO AP, Ventura, CA06, -119.088, 34.211, 71, 57.8, 1.69
OXNARD VENTURA COUNTY AP, Ventura, CA06, -119.204, 34.200, 39, 57.8, 1.89
PARKER RESRVOIR, San Bernardino, CA07, -114.171, 34.290, 738, 74.1, 0.30
TWENTYNINE PALMS MC, San Bernardino, CA07, -116.147, 34.294, 2003, M, 0.00
BIG BEAR LAKE, San Bernardino, CA06, -116.917, 34.243, 6753, 45.7, 2.15
CHATSWORTH FC 24 F, Los Angeles, CA06, -118.600, 34.250, 950, M, 2.12
VENTURA, Ventura, CA06, -119.292, 34.283, 105, M, 2.15
CRYSTAL LAKE FC238C, Los Angeles, CA06, -117.842, 34.318, 5345, M, 3.97
BIG TUJUNGA DAM FC46, Los Angeles, CA06, -118.188, 34.295, 2326, M, 3.05
PACOIMA DAM FC33A-E, Los Angeles, CA06, -118.400, 34.329, 1550, M, 2.60
PIRU 2 ESE, Ventura, CA06, -118.757, 34.406, 712, M, 1.96
SANTA BARBARA MUNI AP, Santa Barbara, CA06, -119.842, 34.424, 8, 55.4, 2.22
JUNCAL DAM, Santa Barbara, CA06, -119.507, 34.491, 2260, M, 3.86
VICTORVILLE, San Bernardino, CA07, -117.293, 34.529, 2880, 60.8, 0.84
ACTON ESCONDIDO FC261, Los Angeles, CA06, -118.271, 34.494, 2833, M, 1.56
GIBRALTAR DAM NO. 2, Santa Barbara, CA06, -119.682, 34.523, 1558, M, 2.98
AMBOY, San Bernardino, CA07, -115.744, 34.559, 648, 73.0, 0.30
PALMDALE, Los Angeles, CA07, -118.094, 34.588, 2612, 61.8, 0.71
SAUGUS POWER PLANT 1, Los Angeles, CA06, -118.454, 34.590, 2161, 60.3, 2.57
LOS PRIETOS RS, Santa Barbara, CA06, -119.791, 34.544, 1024, M, 3.19
CACHUMA LAKE, Santa Barbara, CA06, -119.982, 34.582, 789, 58.8, 3.21
SALSIPUEDES GAGING STATION, Santa Barbara, CA06, -120.408, 34.585, 254, M, 3.36
PALMDALE AP, Los Angeles, CA07, -118.083, 34.629, 2509, 60.2, 0.62
LOMPOC, Santa Barbara, CA06, -120.451, 34.654, 75, 57.5, 2.47
LANCASTER, Los Angeles, CA06, -118.213, 34.741, 2338, 60.1, 0.82
SANDBERG, Los Angeles, CA06, -118.724, 34.744, 4510, 51.7, 1.53
LEBEC, Kern, CA05, -118.865, 34.833, 3575, 51.4, 1.55
NEW CUYAMA FIRE STATION, Santa Barbara, CA06, -119.683, 34.946, 2160, 55.9, 0.88
TWITCHELL DAM, Santa Barbara, CA06, -120.321, 34.988, 582, 60.7, 2.60
TEHACHAPI AP, Kern, CA05, -118.432, 35.131, 3960, 49.9, 0.38
PISMO BEACH, San Luis Obispo, CA04, -120.683, 35.160, 39, 56.6, 1.88
BAKER, San Bernardino, CA07, -116.063, 35.276, 962, 70.2, 0.16
SALINAS DAM, San Luis Obispo, CA04, -120.504, 35.337, 1392, 59.5, 3.38
RANDSBURG, Kern, CA07, -117.652, 35.369, 3570, 63.5, 0.12
SANTA MARGARITA BOOST, San Luis Obispo, CA04, -120.637, 35.374, 1148, 59.5, 4.50
MORRO BAY FIRE DEPT, San Luis Obispo, CA04, -120.845, 35.367, 118, 60.6, 2.15
BAKERSFIELD AP, Kern, CA05, -119.055, 35.434, 490, 63.4, 1.62
BUTTONWILLOW, Kern, CA05, -119.470, 35.403, 225, 63.3, 1.22
GLENNVILLE, Kern, CA05, -118.701, 35.727, 3140, 50.3, 4.23
TRONA, San Bernardino, CA07, -117.391, 35.764, 1695, 66.2, 0.16
DELANO, Kern, CA05, -119.260, 35.768, 302, 62.4, 1.76
BRADLEY TELEMETERING, Monterey, CA04, -120.868, 35.930, 443, M, 2.20
PORTERVILLE MUNICIPAL AIRPORT, Tulare, CA05, -119.062, 36.029, 442, 60.2, 2.29
KETTLEMAN CITY, Kings, CA05, -119.960, 36.007, 240, 61.8, 1.24
HAIWEE, Inyo, CA07, -117.953, 36.139, 3825, 61.4, 0.03
CORCORAN IRRIGATION DIST., Kings, CA05, -119.582, 36.098, 200, 62.5, 0.94
COALINGA, Fresno, CA05, -120.361, 36.136, 670, 59.5, T
KING CITY, Monterey, CA04, -121.138, 36.207, 320, 59.3, 2.01
LINDSAY, Tulare, CA05, -119.054, 36.203, 435, 58.8, 3.85
BIG SUR STATION, Monterey, CA04, -121.780, 36.247, 200, 54.5, 4.44
VISALIA, Tulare, CA05, -119.300, 36.328, 303, 59.6, 2.78
FIVE POINTS 5 SSW, Fresno, CA05, -120.156, 36.364, 285, 62.8, 1.02
SAN CLEMENTE DAM, Monterey, CA04, -121.709, 36.438, 600, M, 2.41
ASH MOUNTAIN, Tulare, CA05, -118.825, 36.491, 1708, 56.0, 4.97
THREE RIVERS EDISON PH 1, Tulare, CA05, -118.862, 36.465, 1140, 60.0, 5.35
PINNACLES NATIONAL PARK, San Benito, CA04, -121.182, 36.482, 1307, 56.2, 1.61
CARMEL VALLEY, Monterey, CA04, -121.724, 36.481, 480, 55.7, 2.49
LODGEPOLE, Tulare, CA05, -118.732, 36.604, 6735, 39.3, 6.31
PANOCHE 2 W, San Benito, CA05, -120.884, 36.607, 1400, M, 1.14
MONTEREY, Monterey, CA04, -121.855, 36.593, 122, 54.1, 2.49
SALINAS NO. 2, Monterey, CA04, -121.666, 36.659, 45, 56.0, 2.05
SALINAS AP, Monterey, CA04, -121.609, 36.664, 73, 57.8, 1.85
GRANT GROVE, Tulare, CA05, -118.962, 36.738, 6580, 43.4, 6.37
PINE FLAT DAM, Fresno, CA05, -119.337, 36.821, 615, 60.8, 3.20
LOS BANOS ARBURUA RANCH, Merced, CA05, -120.939, 36.875, 843, M, 0.91
HOLLISTER 2, San Benito, CA04, -121.421, 36.848, 275, 57.0, 2.94
BALCH POWER HOUSE, Fresno, CA05, -119.088, 36.909, 1735, 56.8, 4.41
WATSONVILLE WATERWORKS, Santa Cruz, CA04, -121.769, 36.931, 95, 57.1, 3.13
FRIANT GOVERNMENT CAMP, Fresno, CA05, -119.707, 36.997, 410, 58.6, 2.04
MADERA, Madera, CA05, -120.038, 36.954, 270, 60.9, 1.03
WISHON DAM, Fresno, CA05, -118.984, 37.007, 6550, M, 3.58
GILROY, Santa Clara, CA04, -121.561, 37.003, 194, 58.5, 1.02
AUBERRY 2 NW, Fresno, CA05, -119.513, 37.092, 2090, 56.8, 3.73
LOS BANOS, Merced, CA05, -120.867, 37.056, 120, 62.3, 0.90
BEN LOMOND NO. 4, Santa Cruz, CA04, -122.080, 37.086, 420, 61.1, 3.86
MORGAN HILL, Santa Clara, CA04, -121.602, 37.136, 375, 67.0, 0.00
ASPENDELL, Inyo, CA01, -118.599, 37.232, 8470, 40.5, 0.46
HUNTINGTON LAKE, Fresno, CA05, -119.221, 37.228, 7020, M, 5.04
NORTH FORK RS, Madera, CA05, -119.510, 37.233, 2645, 52.3, 4.55
LOS GATOS, Santa Clara, CA04, -121.959, 37.232, 365, 57.9, 2.16
NEWMAN, Stanislaus, CA05, -121.018, 37.281, 90, 63.9, 0.97
MOUNT HAMILTON, Santa Clara, CA04, -121.635, 37.343, 4220, 48.5, 3.92
BISHOP AIRPORT, Inyo, CA07, -118.359, 37.371, 4110, 55.5, 0.23
MOFFETT FEDERAL AIRFIELD, Santa Clara, CA04, -122.048, 37.406, 39, 59.1, 1.68
WOODSIDE FIRE STATION 1, San Mateo, CA04, -122.256, 37.429, 380, 58.9, 3.74
TURLOCK #2, Stanislaus, CA05, -120.846, 37.502, 103, 60.7, 1.64
PALO ALTO, Santa Clara, CA04, -122.140, 37.444, 25, 57.0, 1.99
REDWOOD CITY, San Mateo, CA04, -122.239, 37.477, 31, 58.7, 3.12
HALF MOON BAY, San Mateo, CA04, -122.443, 37.473, 27, 53.6, 2.41
SO ENTRANCE YOSEMITE N.P., Mariposa, CA05, -119.633, 37.512, 5047, 43.2, 2.17
MARIPOSA R S, Mariposa, CA05, -119.986, 37.495, 2100, M, 4.70
NEWARK, Alameda, CA04, -122.032, 37.515, 10, 58.3, 2.24
MODESTO AP, Stanislaus, CA05, -120.955, 37.625, 87, 60.9, 2.25
HAYWARD AIR TERMINAL, Alameda, CA04, -122.121, 37.659, 31, 57.5, 2.82
TRACY CARBONA, San Joaquin, CA05, -121.347, 37.682, 135, 59.2, 1.73
LIVERMORE MUNICIPAL AP, Alameda, CA04, -121.815, 37.693, 393, 58.4, 1.84
OAKLAND INTERNATIONAL AIRPORT, Alameda, CA04, -122.233, 37.718, 5, 56.5, 2.98
UPPER SAN LEANDRO FILTERS, Alameda, CA04, -122.167, 37.772, 394, M, 3.45
SAN FRANCISCO DOWNTOWN, San Francisco, CA04, -122.427, 37.771, 150, 56.1, 2.74
SAN FRANCISCO OCEANSIDE, San Francisco, CA04, -122.505, 37.728, 8, 53.4, 1.28
GROVELAND 2, Tuolumne, CA05, -120.226, 37.844, 2800, 51.2, 6.45
TRACY PUMPING PLANT, Alameda, CA05, -121.583, 37.796, 61, 61.9, 1.93
OAKLAND MUSEUM, Alameda, CA04, -122.264, 37.798, 30, 58.3, 2.61
TUOLUMNE MEADOWS R.S., Tuolumne, CA05, -119.344, 37.877, 8694, 37.0, 0.00
MOUNT DIABLO JUNCTION, Contra Costa, CA04, -121.930, 37.879, 2170, 52.8, 4.41
STOCKTON AP, San Joaquin, CA05, -121.226, 37.890, 27, 60.1, 2.03
RICHMOND, Contra Costa, CA04, -122.377, 37.919, 20, 59.8, 2.34
MUIR WOODS, Marin, CA01, -122.569, 37.898, 220, M, 1.51
HETCH HETCHY, Tuolumne, CA05, -119.783, 37.961, 3870, 50.6, 4.99
CHERRY VALLEY DAM, Tuolumne, CA05, -119.916, 37.975, 4765, 48.8, 6.06
SONORA, Tuolumne, CA05, -120.387, 37.967, 1675, 53.1, 4.96
STOCKTON FIRE STA 4, San Joaquin, CA05, -121.318, 37.999, 12, 62.4, 1.82
ANTIOCH PUMPING PLANT #3, Contra Costa, CA05, -121.752, 37.983, 60, 61.7, M
CONCORD BUCHANAN FIELD, Contra Costa, CA04, -122.053, 37.992, 23, 58.9, 2.41
CONCORD WASTEWATER PLANT, Contra Costa, CA04, -122.069, 37.983, 40, 60.7, 2.59
SAN RAFAEL-CIVIC CENTER, Marin, CA01, -122.537, 37.998, 120, 57.9, 0.15
KENTFIELD, Marin, CA01, -122.545, 37.957, 145, 57.0, 2.41
MARTINEZ WATER PLANT, Contra Costa, CA04, -122.114, 38.013, 40, 59.3, 2.94
BODIE CALIFORNIA STATE HISTORIC PARK, Mono, CA03, -119.014, 38.212, 8370, 37.1, 0.23
ACAMPO 5NE, San Joaquin, CA05, -121.201, 38.218, 87, M, 2.57
NAPA COUNTY AIRPORT, Napa, CA04, -122.280, 38.208, 16, 56.4, 1.73
BRIDGEPORT, Mono, CA03, -119.229, 38.258, 6470, 42.8, 0.05
CALAVERAS BIG TREES, Calaveras, CA05, -120.311, 38.277, 4695, 45.0, 6.52
CAMP PARDEE, Calaveras, CA05, -120.843, 38.249, 658, 58.3, 4.37
TRAVIS FIELD AFB, Solano, CA02, -121.933, 38.267, 62, M, 2.65
FAIRFIELD, Solano, CA02, -122.068, 38.274, 40, 59.8, 2.31
SONOMA, Sonoma, CA01, -122.462, 38.299, 97, 57.1, 1.82
SUTTER HILL CDF, Amador, CA05, -120.801, 38.377, 1586, 55.4, 2.33
WEST POINT, Calaveras, CA05, -120.545, 38.378, 2775, M, 5.39
ATLAS ROAD BROWN, Napa, CA01, -122.248, 38.427, 1680, M, 3.76
GRATON, Sonoma, CA01, -122.865, 38.431, 200, 56.2, 2.85
OCCIDENTAL, Sonoma, CA01, -122.966, 38.386, 865, 54.6, 3.31
FIDDLETOWN DEXTER RCH, Amador, CA05, -120.698, 38.525, 2170, M, 6.80
SACRAMENTO AP ASOS, Sacramento, CA02, -121.496, 38.507, 19, 59.4, 2.42
WINTERS, Yolo, CA02, -121.978, 38.525, 135, 61.4, 2.06
LAKE SOLANO, Solano, CA02, -122.004, 38.492, 187, 60.3, 2.10
SAINT HELENA, Napa, CA01, -122.471, 38.507, 225, 58.9, 3.34
SAINT HELENA 4 WSW, Napa, CA01, -122.538, 38.493, 1780, M, 3.84
FORT ROSS, Sonoma, CA01, -123.245, 38.515, 112, 51.1, 2.17
SACRAMENTO 5 ESE, Sacramento, CA02, -121.418, 38.555, 38, 61.3, 2.65
ANGWIN PACIFIC UNION COLLEGE, Napa, CA01, -122.440, 38.573, 1715, 53.5, 2.87
CALISTOGA, Napa, CA01, -122.578, 38.577, 350, 56.2, 3.01
VENADO, Sonoma, CA01, -123.018, 38.609, 1260, M, 3.44
WOODLAND 1 WNW, Yolo, CA02, -121.794, 38.683, 67, 61.7, 2.12
PLACERVILLE IFG, El Dorado, CA02, -120.733, 38.733, 2755, 51.5, 7.66
SACRAMENTO METROPOLITAN AP, Sacramento, CA02, -121.595, 38.701, 24, 60.2, 1.91
PACIFIC HOUSE, El Dorado, CA02, -120.503, 38.758, 3450, 48.8, 7.94
MIDDLETOWN, Lake, CA02, -122.626, 38.748, 1121, M, 3.20
CLOVERDALE, Sonoma, CA01, -123.026, 38.793, 400, 58.5, 2.57
KELSEY 1 N, El Dorado, CA02, -120.821, 38.809, 2000, M, 5.94
SOUTH LAKE TAHOE AP, El Dorado, CA03, -119.996, 38.898, 6257, 42.3, 0.93
GEORGETOWN RS, El Dorado, CA02, -120.801, 38.933, 3001, 51.6, 5.01
AUBURN, Placer, CA02, -121.084, 38.907, 1292, 56.4, 6.47
NICOLAUS #2, Sutter, CA02, -121.545, 38.926, 43, M, 2.24
YORKVILLE, Mendocino, CA01, -123.231, 38.905, 1100, M, 3.24
CLEARLAKE 4 SE, Lake, CA02, -122.567, 38.924, 1349, 54.7, 2.49
FORESTHILL RANGER STATION, Placer, CA02, -120.845, 39.010, 3015, M, 7.73
MARYSVILLE AIRPORT (ASOS), Yuba, CA02, -121.569, 39.102, 62, 60.3, 2.82
UKIAH MUNICIPAL AP, Mendocino, CA01, -123.200, 39.128, 603, 55.5, 1.35
UKIAH 4 WSW, Mendocino, CA01, -123.272, 39.127, 1328, M, 3.27
GOLD RUN 4 SW, Placer, CA02, -120.900, 39.150, 3220, M, 9.56
WILLIAMS, Colusa, CA02, -122.150, 39.150, 85, M, 4.28
GRASS VALLEY NO. 2, Nevada, CA02, -121.068, 39.204, 2400, 51.4, 8.79
HARRY L. ENGLEBRIGHT DAM, Nevada, CA02, -121.267, 39.237, 800, M, 4.79
COLUSA 2 SSW, Colusa, CA02, -122.027, 39.188, 50, 60.9, 1.63
BLUE CANYON NYACK AP, Placer, CA02, -120.709, 39.276, 5286, 46.4, 6.20
NEVADA CITY, Nevada, CA02, -121.001, 39.247, 2781, 51.4, 10.67
TRUCKEE AIRPORT, Nevada, CA03, -120.139, 39.320, 5900, 39.0, 2.06
DONNER MEMORIAL ST PARK, Nevada, CA03, -120.233, 39.324, 5937, 41.2, 3.15
COLGATE POWERHOUSE, Yuba, CA02, -121.192, 39.331, 595, M, 5.57
MOULTON WEIR, Colusa, CA02, -122.017, 39.333, 76, M, 1.20
BOCA, Nevada, CA03, -120.094, 39.389, 5575, 42.3, 1.60
POTTER VALLEY POWERHOUSE, Mendocino, CA01, -123.129, 39.362, 1018, 55.9, 2.79
FARAD, Nevada, CA03, -120.033, 39.428, 5153, M, 1.27
WILLITS 1 NE, Mendocino, CA01, -123.342, 39.419, 1353, 49.9, 3.12
BOWMAN DAM, Nevada, CA02, -120.656, 39.454, 5385, 45.0, 9.74
OROVILLE, Butte, CA02, -121.553, 39.518, 171, 58.8, 3.90
OROVILLE MUNICIPAL AP, Butte, CA02, -121.622, 39.494, 187, 59.6, 2.34
SIERRAVILLE RS, Sierra, CA02, -120.370, 39.583, 4975, 45.8, 2.62
DOWNIEVILLE, Sierra, CA02, -120.824, 39.563, 2915, 50.9, 8.51
STRAWBERRY VALLEY, Yuba, CA02, -121.108, 39.563, 3808, 46.7, 11.69
STONY GORGE RESERVOIR, Glenn, CA02, -122.534, 39.586, 800, 55.3, 1.31
BRUSH CREEK RANGER STATION, Butte, CA02, -121.345, 39.695, 3560, M, 8.20
PARADISE, Butte, CA02, -121.624, 39.754, 1750, 57.5, 5.47
COVELO, Mendocino, CA01, -123.244, 39.816, 1413, 52.1, 3.14
VINTON, Plumas, CA02, -120.186, 39.806, 4950, 48.6, 0.84
PORTOLA, Plumas, CA02, -120.472, 39.805, 4850, 45.2, 2.83
DE SABLA, Butte, CA02, -121.611, 39.872, 2710, 52.2, 6.80
LEGGETT, Mendocino, CA01, -123.720, 39.874, 703, M, 5.72
BUCKS CREEK, Plumas, CA02, -121.315, 39.937, 1891, M, 8.98
DOYLE 4 SSE, Lassen, CA03, -120.083, 39.972, 4390, 49.9, 0.56
DOYLE, Lassen, CA03, -120.105, 40.027, 4293, M, 0.32
CANYON DAM, Plumas, CA02, -121.089, 40.171, 4560, 44.1, 4.97
MIRANDA 4 SE, Humboldt, CA01, -123.776, 40.182, 266, M, 5.32
FORT SEWARD, Humboldt, CA01, -123.632, 40.218, 220, M, 5.04
HONEYDEW 1 SW, Humboldt, CA01, -124.132, 40.238, 373, M, 5.92
CHESTER, Plumas, CA02, -121.242, 40.303, 4530, 43.3, 4.47
MINERAL, Tehama, CA02, -121.609, 40.346, 4875, 37.8, 7.50
COLEMAN FISHERIES STATION, Shasta, CA02, -122.143, 40.400, 420, M, 3.46
VOLTA PH, Shasta, CA02, -121.866, 40.458, 2220, M, 2.51
SCOTIA, Humboldt, CA01, -124.104, 40.483, 136, 54.3, 3.84
MANZANITA LAKE, Shasta, CA02, -121.577, 40.541, 5750, 39.2, 3.77
WHISKEYTOWN RESERVOIR, Shasta, CA02, -122.528, 40.612, 1295, 55.0, 4.42
SHASTA DAM, Shasta, CA02, -122.416, 40.714, 1075, 56.5, 5.30
TRINITY RIVER HATCHERY, Trinity, CA01, -122.795, 40.726, 1861, 51.6, 2.14
BIG BAR 4 E, Trinity, CA01, -123.208, 40.741, 1253, 54.9, 2.83
BUCKHORN, Shasta, CA02, -121.932, 40.880, 3700, M, 6.26
HAT CREEK, Shasta, CA02, -121.543, 40.932, 3015, 48.8, 2.78
PIT RIVER PH 5, Shasta, CA02, -121.977, 40.987, 1458, M, 6.33
WILLOW CREEK 1 NW, Humboldt, CA01, -123.636, 40.947, 464, 54.5, 3.08
FALL RIVER MILLS, Shasta, CA02, -121.435, 41.008, 3300, M, 2.59
ADIN RANGER STATION, Modoc, CA02, -120.945, 41.193, 4202, M, 2.06
DUNSMUIR TREATMENT PL, Siskiyou, CA02, -122.282, 41.183, 2169, 49.6, 7.70
JESS VALLEY, Modoc, CA02, -120.295, 41.268, 5400, 43.9, 1.91
MCCLOUD, Siskiyou, CA02, -122.138, 41.252, 3233, 43.8, 5.65
ORICK, Humboldt, CA01, -124.067, 41.283, 5, M, 6.12
CALLAHAN, Siskiyou, CA01, -122.825, 41.338, 3085, 49.9, 1.96
SAWYERS BAR RS, Siskiyou, CA01, -123.133, 41.301, 2255, 47.0, 3.32
ORLEANS RS, Humboldt, CA01, -123.534, 41.303, 433, M, 3.96
CANBY 3 SW, Modoc, CA02, -120.902, 41.422, 4310, M, 0.00
ALTURAS, Modoc, CA02, -120.544, 41.490, 4378, 45.5, 1.60
FORT JONES RS, Siskiyou, CA01, -122.848, 41.601, 2729, 46.1, 0.90
LAVA BEDS NAT MON, Siskiyou, CA01, -121.501, 41.702, 4770, 42.7, 2.36
MOUNT HEBRON RS, Siskiyou, CA01, -122.045, 41.783, 4265, 46.0, 0.80
CRESCENT CITY 3 NNW, Del Norte, CA01, -124.215, 41.796, 43, 50.1, 8.68
CRESCENT CITY MCNAMARA AP, Del Norte, CA01, -124.238, 41.784, 56, 49.5, 6.38
OAK KNOLL W. C., Siskiyou, CA01, -122.850, 41.839, 1980, M, 1.12
FORT BIDWELL, Modoc, CA03, -120.157, 41.872, 4739, 47.0, 1.86
GASQUET RS, Del Norte, CA01, -123.965, 41.845, 387, 48.7, 12.15
FORT DICK RIVER, Del Norte, CA01, -124.135, 41.881, -, M, 10.96
TULELAKE, Siskiyou, CA01, -121.474, 41.960, 4038, 45.6, 0.98
COPCO NO 1 DAM, Siskiyou, CA01, -122.338, 41.980, 2665, 50.0, 2.25
ELK VALLEY, Del Norte, CA01, -123.718, 41.988, 1708, M, 7.48
PACIFICA 4 SSE, San Mateo, CA04, -122.472, 37.592, 475, 53.0, 3.34
BARSTOW, San Bernardino, CA07, -117.022, 34.893, 2220, 63.1, 0.64
PEARBLOSSOM, Los Angeles, CA07, -117.897, 34.503, 3101, 63.1, 0.92
EL CAJON, San Diego, CA06, -116.928, 32.801, 495, 61.7, 1.54
MARKLEY COVE, Napa, CA02, -122.124, 38.492, 480, 57.7, 3.38
LORAINE 5 NNE, Kern, CA05, -118.412, 35.384, 4235, 52.3, 3.60
DEL MAR FIRE DEPT, San Diego, CA06, -117.262, 32.972, 12, M, 0.46
IMPERIAL BEACH FIRE DEPT, San Diego, CA06, -117.114, 32.576, 22, M, 0.00
LEMON GROVE FIRE DEPARTMENT, San Diego, CA06, -117.030, 32.738, 427, 60.4, 0.32
LEE VINING, Mono, CA07, -119.119, 37.957, 6797, 49.6, 0.34
ANAHEIM, Orange, CA06, -117.842, 33.865, 235, 65.1, 3.20
RED BLUFF TREATMENT PLANT, Tehama, CA02, -122.220, 40.162, 265, M, 1.90
NEW MELONES DAM HQ, Tuolumne, CA05, -120.486, 38.005, 960, 57.5, 4.19
MAMMOTH LAKES RS, Mono, CA07, -118.962, 37.648, 7804, 41.1, 1.12
FRAZIER PARK 9 SW, Ventura, CA05, -119.104, 34.733, 5169, M, 1.40
MONTEREY WFO, Monterey, CA04, -121.855, 36.593, 122, 53.8, 2.23
SKYLINE RIDGE PRESERVE, San Mateo, CA04, -122.185, 37.313, 2270, 50.4, 4.34
FREMONT, Alameda, CA04, -122.016, 37.542, 38, 58.0, 2.13
MAD RIVER 12 SE, Trinity, CA01, -123.374, 40.319, 2763, M, 7.20
NEWHALL 5NW, Los Angeles, CA06, -118.594, 34.393, 1765, 62.9, 1.62
TEHACHAPI 4 SE, Kern, CA05, -118.422, 35.101, 4220, 50.4, 2.09
WRIGHTWOOD, San Bernardino, CA07, -117.639, 34.362, 6000, M, 1.43
REDDING CDF, Shasta, CA02, -122.299, 40.519, 502, M, 3.86
NORTHRIDGE CAL STATE, Los Angeles, CA06, -118.525, 34.245, 904, 62.6, 2.13
OXNARD WFO, Ventura, CA06, -119.137, 34.207, 52, 58.6, 2.02
HANFORD MUNICIPAL AP, Kings, CA05, -119.623, 36.311, 249, 61.7, 1.79
RAMONA AIRPORT, San Diego, CA06, -116.916, 33.038, 1385, 56.2, 1.54
VACAVILLE/NUT TREE AP ASOS, Solano, CA02, -121.959, 38.378, 104, 59.5, 2.27
ALTURAS MUNICIPAL AP, Modoc, CA02, -120.561, 41.484, 4383, 45.5, 1.64
MADERA MUNICIPAL AP, Madera, CA05, -120.111, 36.985, 251, 60.0, 1.59
BAKERSFIELD 5 NW, Kern, CA05, -119.051, 35.419, 470, 61.6, 1.73
FRESNO 5 NE, Fresno, CA05, -119.709, 36.767, 338, 62.9, 1.83
OCEANSIDE MUNICIPAL AP, San Diego, CA06, -117.350, 33.219, 30, 57.3, 1.21
SAN DIEGO SEAWORLD, San Diego, CA06, -117.231, 32.765, 14, 58.7, 1.18
ARCATA EUREKA AP, Humboldt, CA01, -124.105, 40.978, 211, 49.5, 5.66
NEWPORT BEACH HARBOR, Orange, CA06, -117.884, 33.603, 10, 58.1, 1.09
ESCONDIDO NO. 2, San Diego, CA06, -117.090, 33.121, 600, 61.7, 1.74
REDDING AP, Shasta, CA02, -122.298, 40.515, 501, 58.1, 2.73
AVALON CATALINA AP, Los Angeles, CA06, -118.415, 33.404, 1565, 58.3, 1.65
SANTA MARIA PUBLIC AP, Santa Barbara, CA06, -120.452, 34.894, 243, 56.7, 2.31
MOUNT SHASTA, Siskiyou, CA02, -122.333, 41.333, 3535, 47.6, 4.44
RED BLUFF MUNI AP, Tehama, CA02, -122.255, 40.152, 354, 59.3, 1.48
NEEDLES AIRPORT, San Bernardino, CA07, -114.618, 34.768, 888, 74.7, 0.42
CHINA LAKE NAF, Kern, CA07, -117.693, 35.688, 2230, 57.7, 0.18
SUSANVILLE 2SW, Lassen, CA03, -120.663, 40.417, 4212, 47.7, 0.85
TEJON RANCHO, Kern, CA05, -118.750, 35.023, 1425, 61.9, 2.58
BURBANK GLENDALE PASADENA AP, Los Angeles, CA06, -118.365, 34.200, 731, 61.7, 2.14
SUTTER CREEK 0.1 WSW, Amador, CA05, -120.805, 38.390, 1266, M, 4.28
CAMINO 2.6 ESE, El Dorado, CA02, -120.634, 38.719, 3108, M, 6.58
TOLLHOUSE 2.8 SSE, Fresno, CA05, -119.396, 36.978, 2111, M, 4.08
LUCAS VALLEY 0.7 SSW, Marin, CA01, -122.571, 38.027, 185, M, 2.43
MONTEREY 1.5 WSW, Monterey, CA04, -121.905, 36.590, 235, M, 2.60
AMERICAN CANYON 3.5 NE, Napa, CA01, -122.217, 38.210, 319, M, 2.03
GRASS VALLEY 4.2 SE, Nevada, CA02, -120.993, 39.186, 2784, M, 3.63
ORANGE 3.0 ENE, Orange, CA06, -117.778, 33.826, 649, M, 0.00
ROCKLIN 1.1 N, Placer, CA02, -121.244, 38.818, 550, M, 4.82
MORGAN HILL 2.7 S, Santa Clara, CA04, -121.632, 37.092, 338, M, 2.63
SAN JOSE 5.8 NNE, Santa Clara, CA04, -121.824, 37.386, 293, M, 3.33
ENCINITAS 2.7N, San Diego, CA06, -117.292, 33.076, 188, M, 1.02
CARLSBAD 8.7SE, San Diego, CA06, -117.221, 33.095, 605, M, 1.71
ESCONDIDO 7.2 SE, San Diego, CA06, -116.992, 33.056, 1585, M, 2.53
RAMONA 3ENE, San Diego, CA06, -116.828, 33.051, 2034, M, 0.34
REDDING 3.3 N, Shasta, CA02, -122.376, 40.619, 665, M, 0.99
CAZADERO 6.9 WNW, Sonoma, CA01, -123.206, 38.565, 645, M, 4.37
RANCHO CUCAMONGA 1.6 W, San Bernardino, CA06, -117.598, 34.122, 1379, M, 1.97
SOQUEL 0.8 NE, Santa Cruz, CA04, -121.936, 37.002, 414, M, 0.00
MOUNT SHASTA, Siskiyou, CA02, -122.317, 41.322, 3613, 47.9, 5.75
WATSONVILLE MUNICIPAL AIRPORT, Santa Cruz, CA04, -121.790, 36.939, 162, 58.6, 3.00
SANTA ROSA SONOMA CO AP, Sonoma, CA04, -122.811, 38.504, 119, 56.7, 2.11
TWENTYNINE PALMS 12E - WONDER VALLEY, San Bernardino, CA07, -115.850, 34.121, 1376, 69.9, 0.07
MORONGO VALLEY NORTH, San Bernardino, CA07, -116.562, 34.086, 3145, 61.5, 0.68
SHAFTER 6E, Kern, CA05, -119.146, 35.487, 404, 61.3, 1.98
TRUCKEE-TAHOE AP, Nevada, CA03, -120.145, 39.318, 5900, 39.0, 2.06
HEARST CASTLE, San Luis Obispo, CA04, -121.168, 35.684, 1526, 56.0, 3.25
GETTY CENTER, Los Angeles, CA06, -118.479, 34.087, 1117, 60.6, 1.96
HESPERIA 2E, San Bernardino, CA07, -117.266, 34.421, 3055, 60.9, 0.51
RANCHO BERNARDO, San Diego, CA06, -117.081, 33.022, 690, 60.0, 2.07
YOUNTVILLE, Napa, CA01, -122.357, 38.395, 95, 59.0, M
APPLE VALLEY #2, San Bernardino, CA07, -117.279, 34.536, 2780, M, 0.62
OCOTILLO WELLS 2W, San Diego, CA07, -116.169, 33.155, 390, 75.2, 0.14
IRVINE RANCH, Orange, CA06, -117.723, 33.720, 540, 62.4, 1.51
MT. LAGUNA #3, San Diego, CA07, -116.419, 32.867, 5920, 51.3, 2.12
AVALON INLAND, Los Angeles, CA06, -118.330, 33.338, 90, 54.4, 1.51
DESERT CENTER 2 NNE, Riverside, CA07, -115.392, 33.738, 747, 74.9, 0.00
TORRANCE AP, Los Angeles, CA06, -118.342, 33.802, 90, 60.7, 2.24
MERCED 23 WSW, Merced, CA05, -120.882, 37.238, 78, 58.6, 0.77
REDDING 12 WNW, Shasta, CA02, -122.607, 40.651, 1418, 55.6, 4.74
STOVEPIPE WELLS 1 SW, Inyo, CA07, -117.145, 36.602, 84, 77.9, 0.13
LOS ANGELES DOWNTOWN/USC, Los Angeles, CA06, -118.291, 34.024, 179, 62.6, 1.71
FRESNO YOSEMITE INT'L, Fresno, CA05, -119.720, 36.780, 334, 63.0, 2.02
MONTEREY PENINSUL AP, Monterey, CA04, -121.849, 36.590, 160, 54.7, 1.95
PASO ROBLES MUNICIPAL AP, San Luis Obispo, CA04, -120.629, 35.669, 820, 58.4, 1.92
MONTAGUE SISKIYOU AIRPORT, Siskiyou, CA01, -122.468, 41.774, 2645, 50.1, 1.11
SAN JOSE, Santa Clara, CA04, -121.924, 37.359, 49, 59.7, 1.88
PALM SPRINGS ASOS, Riverside, CA07, -116.504, 33.822, 409, 73.8, 0.20
FILLMORE 2 W, Ventura, CA06, -118.945, 34.409, 495, M, 2.90
SAN DIEGO BROWN FIELD, San Diego, CA06, -116.994, 32.576, 521, 58.8, 1.28
Bakersfield Area, -, -, -, -, -, 63.4, 1.62
Bishop Area, -, -, -, -, -, 55.5, 0.23
Los Angeles Downtown Area, -, -, -, -, -, 62.6, 1.71
Eureka Area, -, -, -, -, -, 50.3, 4.76
Fresno Area, -, -, -, -, -, 63.0, 2.02
Los Angeles Airport Area, -, -, -, -, -, 59.7, 1.51
Long Beach Area, -, -, -, -, -, 63.1, 1.53
Redding Area, -, -, -, -, -, 58.1, 2.73
Sacramento Area, -, -, -, -, -, 59.4, 2.42
San Diego Area, -, -, -, -, -, 61.1, 0.88
Stockton Area, -, -, -, -, -, 60.1, 2.03
San Francisco Airport Area, -, -, -, -, -, 56.9, 2.79
Santa Maria Area, -, -, -, -, -, 56.7, 2.31
CAMP PENDLETON MCAS, San Diego, CA06, -117.355, 33.304, 70, 57.1, 0.11
LEMOORE REEVES NAS, Fresno, CA05, -119.950, 36.333, 232, 61.1, 1.05
DAVIS 2.4 W, Yolo, CA02, -121.780, 38.559, 53, M, 1.15
MOUNTAIN PASS 1SE, San Bernardino, CA07, -115.531, 35.459, 4777, 54.0, 1.56
ARVIN, Kern, CA05, -118.834, 35.211, 450, 64.0, 1.32
CHIRIACO SUMMIT, Riverside, CA07, -115.721, 33.662, 1706, 68.7, 0.37
FALLBROOK 5 NE, San Diego, CA06, -117.190, 33.439, 1140, 61.2, 1.78
SANTA BARBARA 11 W, Santa Barbara, CA06, -119.880, 34.414, 18, 55.5, 2.42
BODEGA 6 WSW, Sonoma, CA01, -123.075, 38.321, 63, 51.8, 1.63
YOSEMITE VILLAGE 12 W, Mariposa, CA05, -119.821, 37.759, 6620, 43.6, 5.06
YUCCA MESA, San Bernardino, CA07, -116.407, 34.218, 3445, 62.7, 0.24
YUCCA VALLEY, San Bernardino, CA07, -116.388, 34.129, 3249, 61.4, 0.42
JOHNSON VALLEY, San Bernardino, CA07, -116.538, 34.359, 3167, 61.4, 0.10
REDONDO BEACH, Los Angeles, CA06, -118.376, 33.834, 142, 59.0, 1.37
BURBANK VALLEY PUMP PLANT, Los Angeles, CA06, -118.348, 34.187, 655, 61.5, 1.82
PIEDMONT 1.0 SE, Alameda, CA04, -122.216, 37.812, 372, M, 4.33
CASTRO VALLEY 0.4 NNE, Alameda, CA04, -122.059, 37.717, 536, M, 3.74
PLEASANTON 1.8 SSE, Alameda, CA04, -121.875, 37.648, 351, M, 3.16
FREMONT 2.6 ESE, Alameda, CA04, -121.952, 37.515, 30, M, 2.92
BERKELEY 3.8 ESE, Alameda, CA04, -122.230, 37.856, 882, M, 3.53
PLEASANTON 0.4 ESE, Alameda, CA04, -121.881, 37.670, 344, M, 3.38
VOLCANO 5.4 NE, Amador, CA05, -120.560, 38.497, 3488, M, 6.26
VOLCANO 6.4 NE, Amador, CA05, -120.536, 38.499, 3659, M, 8.62
OROVILLE 2.7 ENE, Butte, CA02, -121.518, 39.514, 535, M, 4.04
MARTINEZ 0.8 SSE, Contra Costa, CA04, -122.108, 37.990, 252, M, 3.45
PLEASANT HILL 1.2 ESE, Contra Costa, CA04, -122.054, 37.949, 57, M, 3.15
WALNUT CREEK 1.7 SSE, Contra Costa, CA04, -122.034, 37.878, 243, M, 4.18
LAFAYETTE 0.7 E, Contra Costa, CA04, -122.104, 37.894, 248, M, 4.06
LAFAYETTE 1.9 WSW, Contra Costa, CA04, -122.153, 37.888, 518, M, 3.41
MARTINEZ 2.2 SW, Contra Costa, CA04, -122.138, 37.974, 692, M, 3.33
ANTIOCH 2.2 WSW, Contra Costa, CA05, -121.838, 37.979, 178, M, 2.63
ALAMO 1.0 WSW, Contra Costa, CA04, -122.016, 37.854, 331, M, 4.00
CONCORD 0.8 WNW, Contra Costa, CA04, -122.013, 37.978, 124, M, 3.07
WALNUT CREEK 1.4 SSE, Contra Costa, CA04, -122.028, 37.885, 277, M, 4.19
WALNUT CREEK 1.4 NE, Contra Costa, CA04, -122.023, 37.916, 156, M, 4.04
ANTIOCH 2.2 SSE, Contra Costa, CA05, -121.781, 37.959, 245, M, 1.69
WALLACE 0.3 NE, Calaveras, CA05, -120.973, 38.197, 298, M, 4.88
CRESCENT CITY 5.5 NNE, Del Norte, CA01, -124.148, 41.824, 65, M, 10.49
PLACERVILLE 3.7 SW, El Dorado, CA02, -120.849, 38.695, 1755, M, 5.45
CAMERON PARK 0.9 SE, El Dorado, CA05, -120.976, 38.672, 1414, M, 5.14
FAIR PLAY 2.8 ESE, El Dorado, CA05, -120.609, 38.592, 3390, M, 2.11
PLACERVILLE 0.9 NE, El Dorado, CA02, -120.785, 38.739, 2036, M, 7.00
FRESNO 3.4 SSE, Fresno, CA05, -119.811, 36.780, 303, M, 2.34
CLOVIS 2.9 N, Fresno, CA05, -119.693, 36.861, 382, M, 3.39
TOLLHOUSE 2.0 SSE, Fresno, CA05, -119.397, 36.990, 1673, M, 4.48
TOLLHOUSE 6.2 SSE, Fresno, CA05, -119.359, 36.934, 1397, M, 4.05
SANGER 6.8 N, Fresno, CA05, -119.553, 36.798, 418, M, 2.98
FRESNO 4.3 NNW, Fresno, CA05, -119.829, 36.836, 333, M, 2.27
HELM 2.7 NNE, Fresno, CA05, -120.089, 36.570, 183, M, 1.95
ARCATA 1.1 NE, Humboldt, CA01, -124.069, 40.881, 420, M, 6.21
BAYSIDE 1.8 SE, Humboldt, CA01, -124.038, 40.825, 77, M, 6.58
ORICK 5.9 SSW, Humboldt, CA01, -124.103, 41.208, 567, M, 6.99
MCKINLEYVILLE 2.7 SE, Humboldt, CA01, -124.084, 40.923, 325, M, 6.11
MCKINLEYVILLE 7.3 ESE, Humboldt, CA01, -123.998, 40.896, 366, M, 6.86
TRINIDAD 1.5 NNW, Humboldt, CA01, -124.152, 41.078, 201, M, 5.97
HONEYDEW 3.1 WNW, Humboldt, CA01, -124.182, 40.252, 316, M, 6.85
MCKINLEYVILLE 2.3 NE, Humboldt, CA01, -124.086, 40.978, 270, M, 6.84
REDWAY 4.3 W, Humboldt, CA01, -123.901, 40.108, 612, M, 5.48
FORTUNA 1.5 NW, Humboldt, CA01, -124.161, 40.600, 98, M, 4.23
REDWAY 4.8 WNW, Humboldt, CA01, -123.906, 40.139, 1820, M, 4.00
MIRANDA 4.1 SW, Humboldt, CA01, -123.894, 40.209, 539, M, 6.84
BAYVIEW 0.8 SE, Humboldt, CA01, -124.166, 40.756, 176, M, 5.14
FORTUNA 1.3 S, Humboldt, CA01, -124.136, 40.567, 195, M, 4.16
ARCATA 1.4 NNE, Humboldt, CA01, -124.072, 40.887, 289, M, 6.51
WILLOW CREEK 4.5 NNE, Humboldt, CA01, -123.624, 40.939, 655, M, 6.04
EUREKA 0.4 NW, Humboldt, CA01, -124.162, 40.800, 61, M, 4.41
ARCATA 1.0 NW, Humboldt, CA01, -124.096, 40.876, 15, M, 5.64
BRIDGEVILLE 5.2 ENE, Humboldt, CA01, -123.701, 40.473, 2675, M, 10.34
FORTUNA 0.1 NW, Humboldt, CA01, -124.141, 40.587, 65, M, 4.97
GARBERVILLE 2.2 SW, Humboldt, CA01, -123.824, 40.077, 415, M, 4.47
GARBERVILLE 2.9 SW, Humboldt, CA01, -123.830, 40.068, 389, M, 3.30
KNEELAND 4.8 WNW, Humboldt, CA01, -124.080, 40.790, 106, M, 8.00
EUREKA 2.2 S, Humboldt, CA01, -124.148, 40.764, 194, M, 5.17
SHELTER COVE 1.2 ENE, Humboldt, CA01, -124.052, 40.037, 1107, M, 6.58
BISHOP 0.6 SE, Inyo, CA07, -118.388, 37.363, 4140, M, 0.03
BISHOP 8.5 WSW, Inyo, CA07, -118.540, 37.323, 6002, M, 0.09
BISHOP 1.7 NW, Inyo, CA07, -118.414, 37.388, 4181, M, 0.00
LEMOORE 0.9 ESE, Kings, CA05, -119.772, 36.293, 223, M, 1.74
LEMOORE 0.3 SW, Kings, CA05, -119.791, 36.295, 223, M, 1.60
HANFORD 3.6 N, Kings, CA05, -119.653, 36.377, 258, M, 2.52
HANFORD 1.7 WNW, Kings, CA05, -119.674, 36.335, 245, M, 1.85
INYOKERN 9.4 WSW, Kern, CA07, -117.978, 35.635, 4319, M, 0.29
FRAZIER PARK 0.6 WNW, Kern, CA05, -118.955, 34.827, 5023, M, 1.78
PINE MOUNTAIN CLUB 0.9 SSW, Kern, CA05, -119.163, 34.835, 6017, M, 2.70
PINE MOUNTAIN CLUB 1.4 ENE, Kern, CA05, -119.133, 34.850, 5269, M, 1.45
ONYX 2.8 ENE, Kern, CA05, -118.174, 35.702, 3039, M, 0.79
GLENDALE 2.4 WSW, Los Angeles, CA06, -118.295, 34.169, 511, M, 2.22
TORRANCE 2.8 SW, Los Angeles, CA06, -118.337, 33.790, 200, M, 1.98
ALTADENA 0.7 ESE, Los Angeles, CA06, -118.124, 34.187, 1323, M, 2.38
WOODLAND HILLS 2.6 WNW, Los Angeles, CA06, -118.650, 34.181, 894, M, 2.96
MONTE NIDO 0.2 SSW, Los Angeles, CA06, -118.687, 34.079, 682, M, 2.39
SHERMAN OAKS 1.7 ENE, Los Angeles, CA06, -118.420, 34.154, 638, M, 2.65
WHITTIER 2.9 WNW, Los Angeles, CA06, -118.066, 33.986, 171, M, 2.35
REDONDO BEACH 2.6 S, Los Angeles, CA06, -118.377, 33.819, 117, M, 1.47
WINNETKA 0.7 SSE, Los Angeles, CA06, -118.568, 34.203, 768, M, 1.95
SOUTH GATE 1.1 WNW, Los Angeles, CA06, -118.209, 33.951, 108, M, 0.70
CANYON COUNTRY 2.6 E, Los Angeles, CA06, -118.427, 34.427, 1617, M, 2.16
ARCADIA 2.1 NNE, Los Angeles, CA06, -118.028, 34.162, 652, M, 2.81
LAKEPORT 4.5 N, Lake, CA02, -122.909, 39.107, 1437, M, 2.54
LAKEPORT 2.5 N, Lake, CA02, -122.917, 39.079, 1370, M, 2.70
MIDDLETOWN 3.3 SSE, Lake, CA02, -122.603, 38.706, 1273, M, 3.86
LOWER LAKE 4.0 SE, Lake, CA02, -122.564, 38.865, 1585, M, 3.21
SUSANVILLE 3.2 SSW, Lassen, CA03, -120.674, 40.368, 4353, M, 2.67
OAKHURST 7.5 N, Madera, CA05, -119.632, 37.442, 4274, M, 5.81
UKIAH 8.4 NW, Mendocino, CA01, -123.331, 39.221, 2492, M, 4.14
BOONVILLE 2.2 WSW, Mendocino, CA01, -123.408, 39.006, 1061, M, 2.49
ELK 1.8 NNE, Mendocino, CA01, -123.706, 39.105, 147, M, 3.41
UKIAH 1.2 NW, Mendocino, CA01, -123.225, 39.158, 746, M, 2.73
UKIAH 0.6 ESE, Mendocino, CA01, -123.199, 39.141, 601, M, 2.15
HOPLAND 2.4 WNW, Mendocino, CA01, -123.158, 38.984, 574, M, 2.01
WILLITS 6.0 WSW, Mendocino, CA01, -123.450, 39.370, 1873, M, 5.68
REDWOOD VALLEY 1.3 WNW, Mendocino, CA01, -123.227, 39.272, 810, M, 2.86
REDWOOD VALLEY 1.5 ENE, Mendocino, CA01, -123.178, 39.272, 912, M, 2.61
UKIAH 4.3 S, Mendocino, CA01, -123.219, 39.083, 691, M, 1.91
LAYTONVILLE 1.1 SW, Mendocino, CA01, -123.490, 39.672, 1647, M, 4.55
POINT ARENA 4.8 ESE, Mendocino, CA01, -123.610, 38.883, 1048, M, 2.34
LEE VINING 5.9 NW, Mono, CA03, -119.170, 38.034, 7094, M, 0.14
MARIPOSA 3.7 NNW, Mariposa, CA05, -119.988, 37.540, 2942, M, 1.57
MARIPOSA 12.5 E, Mariposa, CA05, -119.742, 37.461, 2952, M, 5.02
LA GRANGE 7.8 ESE, Mariposa, CA05, -120.327, 37.635, 1114, M, 4.14
CATHEYS VALLEY 1.2 S, Mariposa, CA05, -120.100, 37.415, 1172, M, 3.61
WOODACRE 0.6 SW, Marin, CA01, -122.635, 38.005, 439, M, 3.67
SAN ANSELMO 1.2 NNW, Marin, CA01, -122.580, 37.997, 370, M, 3.04
NOVATO 4.8 WNW, Marin, CA01, -122.644, 38.106, 246, M, 2.14
SAN ANSELMO 0.4 NE, Marin, CA01, -122.564, 37.987, 107, M, 2.95
IGNACIO 0.6 SW, Marin, CA01, -122.546, 38.065, 57, M, 2.13
NOVATO 1.4 WNW, Marin, CA01, -122.580, 38.102, 23, M, 2.10
PETALUMA 10.1 W, Marin, CA01, -122.812, 38.248, 119, M, 2.19
DILLON BEACH 0.3 NNE, Marin, CA01, -122.963, 38.256, 366, M, 0.51
TOMALES 1.3 ENE, Marin, CA01, -122.883, 38.251, 128, M, 0.50
SAN RAFAEL 3.9 NW, Marin, CA01, -122.547, 38.027, 72, M, 2.17
MILL VALLEY 1.5 S, Marin, CA01, -122.544, 37.886, 209, M, 1.49
CARMEL VALLEY VILLAGE 0.8 SSW, Monterey, CA04, -121.728, 36.476, 359, M, 2.54
LOCKWOOD 3.6 NW, Monterey, CA04, -121.117, 35.981, 1181, M, 2.16
KING CITY 13.2 S, Monterey, CA04, -121.174, 36.025, 1104, M, 2.43
CASTROVILLE 1.6 ENE, Monterey, CA04, -121.728, 36.776, 18, M, 2.79
MONTEREY 1.5 ESE, Monterey, CA04, -121.856, 36.594, 108, M, 2.83
KING CITY 2.0 SSW, Monterey, CA04, -121.146, 36.187, 371, M, 1.97
PACIFIC GROVE 1.5 SSW, Monterey, CA04, -121.932, 36.602, 280, M, 2.71
BIG SUR 4.0 SE, Monterey, CA04, -121.763, 36.224, 824, M, 3.93
BIG SUR 3.2 SE, Monterey, CA04, -121.769, 36.236, 739, M, 3.45
AROMAS 2.0 SSW, Monterey, CA04, -121.650, 36.850, 344, M, 3.05
CARMEL VALLEY VILLAGE 0.7 SSE, Monterey, CA04, -121.720, 36.476, 446, M, 2.54
CASTROVILLE 1.6 ENE, Monterey, CA04, -121.727, 36.777, 17, M, 2.61
MARINA 0.8 SSE, Monterey, CA04, -121.784, 36.673, 118, M, 2.77
CARMEL VALLEY VILLAGE 5.4 WNW, Monterey, CA04, -121.810, 36.522, 133, M, 3.22
BIG SUR 9.5 NNW, Monterey, CA04, -121.869, 36.398, 1100, M, 5.10
SALINAS 5.9 SSW, Monterey, CA04, -121.671, 36.604, 361, M, 1.60
CALISTOGA 0.4 SSE, Napa, CA01, -122.578, 38.576, 348, M, 3.32
ST. HELENA 1.1 S, Napa, CA01, -122.462, 38.489, 248, M, 3.20
AMERICAN CANYON 0.3 S, Napa, CA01, -122.260, 38.169, 37, M, 1.92
NEVADA CITY 3.4 NNW, Nevada, CA02, -121.040, 39.307, 2390, M, 8.76
KINGVALE 1.3 WSW, Nevada, CA02, -120.452, 39.317, 6035, M, 10.77
GRASS VALLEY 5.0 S, Nevada, CA02, -121.042, 39.149, 2312, M, 7.96
ALTA SIERRA 1.3 S, Nevada, CA02, -121.057, 39.104, 2154, M, 7.12
LAKE OF THE PINES 1.0 WSW, Nevada, CA02, -121.077, 39.032, 1576, M, 6.73
ALTA SIERRA 0.4 WSW, Nevada, CA02, -121.060, 39.120, 2303, M, 7.78
NEVADA CITY 5.4 W, Nevada, CA02, -121.121, 39.268, 1982, M, 8.24
ALTA SIERRA 1.4 SSW, Nevada, CA02, -121.058, 39.103, 2057, M, 7.96
GRASS VALLEY 0.5 NNW, Nevada, CA02, -121.059, 39.229, 2669, M, 8.48
LAKE OF THE PINES 4.7 WNW, Nevada, CA02, -121.146, 39.054, 1480, M, 6.62
ORANGE 3.5 ENE, Orange, CA06, -117.770, 33.829, 811, M, 1.43
LAGUNA NIGUEL 0.9 W, Orange, CA06, -117.720, 33.528, 477, M, 1.66
SILVERADO 1.0 ESE, Orange, CA06, -117.620, 33.746, 1394, M, 2.36
NEWPORT BEACH 3.1 ESE, Orange, CA06, -117.865, 33.589, 84, M, 1.82
MISSION VIEJO 1.6 ENE, Orange, CA06, -117.627, 33.624, 1018, M, 1.76
MISSION VIEJO 1.3 SSE, Orange, CA06, -117.644, 33.595, 704, M, 1.73
ANAHEIM 4.9 ENE, Orange, CA06, -117.792, 33.863, 298, M, 0.96
SODA SPRINGS 1.5 SSW, Placer, CA02, -120.384, 39.302, 6887, M, 10.42
LINCOLN 0.9 SSW, Placer, CA02, -121.322, 38.888, 131, M, 3.84
ROSEVILLE 4.7 WNW, Placer, CA02, -121.377, 38.780, 96, M, 4.00
ROSEVILLE 0.8 ENE, Placer, CA02, -121.279, 38.763, 170, M, 3.89
PENRYN 0.4 SE, Placer, CA02, -121.158, 38.847, 610, M, 6.00
COLFAX 3.1 SW, Placer, CA02, -120.991, 39.061, 2077, M, 8.10
AUBURN 3.1 N, Placer, CA02, -121.068, 38.936, 1528, M, 6.37
NEWCASTLE 1.6 SSE, Placer, CA02, -121.123, 38.851, 800, M, 5.97
LINCOLN 4.3 SSE, Placer, CA02, -121.284, 38.842, 172, M, 4.98
IDYLLWILD 1.8 NW, Riverside, CA06, -116.735, 33.763, 6325, M, 4.22
DESERT HOT SPRINGS 3.0 NW, Riverside, CA07, -116.541, 33.985, 1339, M, 0.54
HEMET 4.1 ENE, Riverside, CA06, -116.920, 33.753, 1698, M, 1.52
CORONA 12.8 SE, Riverside, CA06, -117.428, 33.731, 1404, M, 1.99
LAKE ELSINORE 3.5 WSW, Riverside, CA06, -117.381, 33.657, 1356, M, 1.86
NORCO 1.2 S, Riverside, CA06, -117.548, 33.908, 661, M, 0.89
PERRIS 8.5 WNW, Riverside, CA06, -117.365, 33.826, 1639, M, 0.93
BEAUMONT 2.5 NW, Riverside, CA06, -117.012, 33.954, 2532, M, 0.77
RIVERSIDE 3.8 NW, Riverside, CA06, -117.454, 33.979, 841, M, 1.12
NORCO 2.3 SE, Riverside, CA06, -117.518, 33.906, 1091, M, 1.00
RIVERSIDE 2.6 E, Riverside, CA06, -117.353, 33.935, 1301, M, 0.95
CARMICHAEL 1.6 SW, Sacramento, CA02, -121.340, 38.617, 102, M, 3.58
SACRAMENTO 8.0 NE, Sacramento, CA02, -121.361, 38.635, 95, M, 4.15
FOLSOM 3.4 ESE, Sacramento, CA05, -121.091, 38.655, 594, M, 5.02
CARMICHAEL 0.9 NE, Sacramento, CA02, -121.306, 38.643, 130, M, 3.87
CARMICHAEL 1.4 W, Sacramento, CA02, -121.345, 38.638, 109, M, 3.97
FOLSOM 1.2 SSE, Sacramento, CA02, -121.140, 38.660, 362, M, 4.62
CARMICHAEL 0.9 S, Sacramento, CA02, -121.319, 38.621, 108, M, 3.63
FOLSOM 2.4 SW, Sacramento, CA02, -121.176, 38.651, 194, M, 4.20
SACRAMENTO 13.7 SE, Sacramento, CA05, -121.283, 38.456, 97, M, 3.57
SACRAMENTO 2.0 SE, Sacramento, CA02, -121.437, 38.550, 34, M, 3.92
SACRAMENTO 4.1 NE, Sacramento, CA02, -121.412, 38.609, 46, M, 3.54
SACRAMENTO 5.7 SSE, Sacramento, CA02, -121.419, 38.493, 28, M, 0.03
FOLSOM 0.6 NE, Sacramento, CA02, -121.138, 38.682, 399, M, 4.64
LA RIVIERA 1.0 NE, Sacramento, CA02, -121.340, 38.575, 64, M, 3.67
GOLETA 3.7 WNW, Santa Barbara, CA06, -119.896, 34.440, 158, M, 3.10
SANTA BARBARA 1.9 NE, Santa Barbara, CA06, -119.700, 34.450, 811, M, 3.11
MOUNTAIN VIEW 1.2 S, Santa Clara, CA04, -122.075, 37.385, 109, M, 2.09
SUNNYVALE 1.9 SE, Santa Clara, CA04, -122.004, 37.365, 85, M, 2.18
SAN JOSE 5.4 SW, Santa Clara, CA04, -121.775, 37.305, 223, M, 2.59
MONTE SERENO 0.4 SSW, Santa Clara, CA04, -121.990, 37.232, 467, M, 3.67
SAN JOSE 4.6 NE, Santa Clara, CA04, -121.795, 37.354, 318, M, 2.85
LOS ALTOS 0.6 NNW, Santa Clara, CA04, -122.100, 37.378, 156, M, 2.24
SAN JOSE 2.7 SSW, Santa Clara, CA04, -121.876, 37.271, 162, M, 1.89
CAMBRIAN PARK 2.2 SE, Santa Clara, CA04, -121.897, 37.234, 252, M, 2.85
SAN JOSE 3.5 ENE, Santa Clara, CA04, -121.789, 37.319, 200, M, 2.70
SAN JOSE 2.3 SSW, Santa Clara, CA04, -121.866, 37.273, 161, M, 2.03
SARATOGA 0.5 N, Santa Clara, CA04, -122.023, 37.275, 373, M, 3.44
PALO ALTO 1.2 NE, Santa Clara, CA04, -122.149, 37.452, 32, M, 2.41
SAN JOSE 3.0 WSW, Santa Clara, CA04, -121.927, 37.309, 159, M, 2.12
LOS GATOS 6.1 S, Santa Clara, CA04, -121.972, 37.143, 1732, M, 4.88
PALO ALTO 0.8 NNE, Santa Clara, CA04, -122.135, 37.410, 60, M, 2.04
SAN JOSE 6.2 W, Santa Clara, CA04, -121.961, 37.319, 139, M, 2.24
LOS GATOS 5.4 SSW, Santa Clara, CA04, -121.988, 37.156, 1662, M, 4.54
SAN MARCOS 2.5 ENE, San Diego, CA06, -117.132, 33.147, 666, M, 2.43
IMPERIAL BEACH 3.3 E, San Diego, CA06, -117.062, 32.574, 138, M, 0.85
OCEANSIDE 8.4NE, San Diego, CA06, -117.266, 33.270, 252, M, 1.99
EL CAJON 2.3ENE, San Diego, CA06, -116.925, 32.811, 610, M, 1.14
ENCINITAS 3.34ENE, San Diego, CA06, -117.237, 33.050, 193, M, 1.90
ESCONDIDO 5.2NNW, San Diego, CA06, -117.128, 33.185, 1474, M, 2.18
EL CAJON 1.5WSW, San Diego, CA06, -116.987, 32.791, 727, M, 1.44
ESCONDIDO 2.5 SSE, San Diego, CA06, -117.048, 33.106, 690, M, 1.89
POWAY 3.2NE, San Diego, CA06, -117.004, 32.996, 1206, M, 1.80
JAMUL 9.9ESE, San Diego, CA06, -116.706, 32.680, 2737, M, 3.62
BORREGO SPRINGS 2.4 WSW, San Diego, CA07, -116.390, 33.223, 777, M, 0.61
LA JOLLA 2.5SE, San Diego, CA06, -117.240, 32.825, 508, M, 1.54
CHULA VISTA 6.3E, San Diego, CA06, -116.975, 32.638, 555, M, 1.31
OCEANSIDE 5.6NE, San Diego, CA06, -117.313, 33.254, 60, M, 1.84
POWAY 1.4SW, San Diego, CA06, -117.059, 32.949, 444, M, 1.44
CARDIFF BY THE SEA 0.2 E, San Diego, CA06, -117.271, 33.027, 266, M, 1.70
CHULA VISTA 2.5SE, San Diego, CA06, -117.052, 32.617, 266, M, 0.93
PAUMA VALLEY 1.7 SE, San Diego, CA06, -116.957, 33.290, 1132, M, 3.07
FALLBROOK 6.5 NE, San Diego, CA06, -117.160, 33.436, 1377, M, 2.04
SAN DIEGO 3.5NE, San Diego, CA06, -117.110, 32.747, 344, M, 1.31
SANTEE 1.8NW, San Diego, CA06, -116.996, 32.856, 470, M, 1.82
SAN DIEGO 7.9NE, San Diego, CA06, -117.073, 32.806, 242, M, 1.23
LA JOLLA 2.1 SE, San Diego, CA06, -117.250, 32.826, 491, M, 1.60
RANCHO BERNARDO 0.5SE, San Diego, CA06, -117.067, 33.018, 483, M, 2.18
EL CAJON 0.7 S, San Diego, CA06, -116.959, 32.792, 444, M, 1.17
LA JOLLA 2.2 NE, San Diego, CA06, -117.248, 32.870, 371, M, 1.64
LEMON GROVE 1.8 WNW, San Diego, CA06, -117.060, 32.747, 466, M, 0.94
VISTA 1.5NNW, San Diego, CA06, -117.254, 33.219, 417, M, 1.39
EL CAJON 2.3 S, San Diego, CA06, -116.959, 32.770, 738, M, 1.51
SAN DIEGO 9NE, San Diego, CA06, -117.059, 32.817, 292, M, 1.28
POWAY 4.7NNW, San Diego, CA06, -117.047, 33.026, 739, M, 2.04
SAN DIEGO COUNTRY ESTATES 1.5 WNW, San Diego, CA06, -116.807, 33.016, 1474, M, 2.14
SAN FRANCISCO 2.8 WNW, San Francisco, CA04, -122.470, 37.783, 173, M, 3.51
SAN FRANCISCO 1.1 SW, San Francisco, CA04, -122.435, 37.765, 194, M, 2.82
COTTONWOOD 0.5 NNE, Shasta, CA02, -122.276, 40.397, 452, M, 3.88
SHINGLETOWN 5.3 ENE, Shasta, CA02, -121.796, 40.524, 3964, M, 3.33
REDDING 2.9 NNE, Shasta, CA02, -122.339, 40.609, 652, M, 4.05
REDDING 2.7 NNW, Shasta, CA02, -122.380, 40.610, 708, M, 2.76
REDDING 7.9 NNE, Shasta, CA02, -122.291, 40.672, 681, M, 4.08
REDDING 3.7 N, Shasta, CA02, -122.358, 40.626, 618, M, 3.96
REDDING 3.6 N, Shasta, CA02, -122.354, 40.623, 604, M, 3.89
REDDING 0.6 NW, Shasta, CA02, -122.373, 40.580, 475, M, 2.75
REDDING 2.6 NNE, Shasta, CA02, -122.347, 40.607, 590, M, 3.78
REDDING 4.1 N, Shasta, CA02, -122.358, 40.631, 616, M, 4.04
ANDERSON 2.6 NE, Shasta, CA02, -122.261, 40.478, 409, M, 0.42
LINDEN 5.8 ENE, San Joaquin, CA05, -121.008, 38.063, 146, M, 3.02
STOCKTON 2.1 NW, San Joaquin, CA05, -121.333, 37.991, 7, M, 2.15
STOCKTON 5.8 NNE, San Joaquin, CA05, -121.255, 38.038, 35, M, 2.75
LODI 1.0 NNW, San Joaquin, CA05, -121.304, 38.136, 43, M, 2.88
STOCKTON 3.3 SE, San Joaquin, CA05, -121.259, 37.942, 23, M, 2.49
TRACY 2.1 W, San Joaquin, CA05, -121.470, 37.735, 52, M, 0.78
YREKA 4.5 S, Siskiyou, CA01, -122.621, 41.665, 2937, M, 1.87
WEED 5.4 N, Siskiyou, CA01, -122.370, 41.495, 3064, M, 2.90
ETNA 3.9 NNW, Siskiyou, CA01, -122.923, 41.511, 2966, M, 0.48
YREKA 0.9 WNW, Siskiyou, CA01, -122.649, 41.733, 2692, M, 1.66
MONTAGUE 1.6 ESE, Siskiyou, CA01, -122.501, 41.718, 2556, M, 1.21
SANTA MARGARITA 8.9 ESE, San Luis Obispo, CA04, -120.453, 35.381, 2005, M, 2.32
PACIFICA 0.3 W, San Mateo, CA04, -122.483, 37.612, 227, M, 3.36
FOSTER CITY 1.3 SW, San Mateo, CA04, -122.259, 37.549, 7, M, 2.98
HALF MOON BAY 0.5 SSW, San Mateo, CA04, -122.441, 37.463, 54, M, 3.04
REDWOOD CITY 2.5 SW, San Mateo, CA04, -122.240, 37.493, 17, M, 2.71
PORTOLA VALLEY 1.3 ENE, San Mateo, CA04, -122.198, 37.382, 531, M, 2.99
ROHNERT PARK 1.6 WNW, Sonoma, CA01, -122.727, 38.352, 93, M, 1.71
GEYSERVILLE 10.6 WNW, Sonoma, CA01, -123.098, 38.737, 1328, M, 3.27
SANTA ROSA 3.1 W, Sonoma, CA01, -122.758, 38.451, 107, M, 1.91
SEBASTOPOL 3.7 WSW, Sonoma, CA01, -122.893, 38.385, 383, M, 3.32
SANTA ROSA 2.7 WSW, Sonoma, CA01, -122.745, 38.432, 123, M, 2.21
CALISTOGA 4.6 WNW, Sonoma, CA01, -122.658, 38.612, 497, M, 4.41
SEBASTOPOL 4.5 WSW, Sonoma, CA01, -122.904, 38.375, 423, M, 3.59
SEBASTOPOL 0.3 WNW, Sonoma, CA01, -122.830, 38.401, 122, M, 2.77
PETALUMA 1.0 N, Sonoma, CA01, -122.623, 38.256, 52, M, 1.68
GRATON 2.7 NNE, Sonoma, CA01, -122.840, 38.472, 69, M, 2.83
WINDSOR 1.5 WNW, Sonoma, CA01, -122.823, 38.555, 123, M, 2.07
WINDSOR 1.4 SE, Sonoma, CA01, -122.780, 38.532, 140, M, 2.88
SANTA ROSA 4.7 S, Sonoma, CA01, -122.725, 38.378, 94, M, 2.65
SANTA ROSA 3.1 NW, Sonoma, CA01, -122.744, 38.479, 140, M, 3.05
CLOVERDALE 3.2 ESE, Sonoma, CA01, -122.963, 38.781, 797, M, 2.90
WINDSOR 1.8 SE, Sonoma, CA01, -122.777, 38.526, 142, M, 2.92
SEBASTOPOL 2.6 SSE, Sonoma, CA01, -122.804, 38.366, 214, M, 2.51
BODEGA BAY 4.8 NNW, Sonoma, CA01, -123.078, 38.381, 91, M, 0.32
SANTA ROSA 2.9 ENE, Sonoma, CA01, -122.655, 38.471, 292, M, 3.26
MONTE RIO 1.6 W, Sonoma, CA01, -123.042, 38.464, 20, M, 2.65
SEBASTOPOL 3.0 SW, Sonoma, CA01, -122.869, 38.372, 539, M, 3.21
SANTA ROSA 4.4 NNW, Sonoma, CA01, -122.719, 38.511, 392, M, 2.72
SEBASTOPOL 1.1 SSE, Sonoma, CA01, -122.819, 38.384, 168, M, 2.73
WINDSOR 1.2 NNW, Sonoma, CA01, -122.805, 38.562, 155, M, 2.47
HEALDSBURG 7.5 NW, Sonoma, CA01, -122.963, 38.693, 203, M, 0.74
SANTA ROSA 2.6 NE, Sonoma, CA01, -122.664, 38.473, 273, M, 2.73
SONOMA 1.9 E, Sonoma, CA01, -122.425, 38.290, 124, M, 2.31
SANTA ROSA 1.3 NW, Sonoma, CA01, -122.715, 38.464, 173, M, 3.03
PETALUMA 1.3 SW, Sonoma, CA01, -122.639, 38.226, 36, M, 1.70
WINDSOR 0.6 NNE, Sonoma, CA01, -122.793, 38.553, 157, M, 3.18
SANTA ROSA 0.4 NW, Sonoma, CA01, -122.705, 38.453, 181, M, M
SEBASTOPOL 0.9 WNW, Sonoma, CA01, -122.841, 38.407, 213, M, 2.05
GLEN ELLEN 1.9 WNW, Sonoma, CA01, -122.572, 38.365, 956, M, 3.58
ROHNERT PARK 0.9 SW, Sonoma, CA01, -122.711, 38.339, 96, M, 2.24
SANTA ROSA 0.6 N, Sonoma, CA01, -122.703, 38.457, 177, M, 1.94
CLOVERDALE 0.6 W, Sonoma, CA01, -123.028, 38.799, 382, M, 2.26
ROHNERT PARK 0.9 ESE, Sonoma, CA01, -122.681, 38.345, 125, M, 2.43
GLEN ELLEN 1.5 N, Sonoma, CA01, -122.534, 38.378, 337, M, 3.03
SANTA ROSA 2.7 ENE, Sonoma, CA01, -122.659, 38.470, 281, M, 2.96
BOYES HOT SPRINGS 0.5 ENE, Sonoma, CA01, -122.473, 38.316, 295, M, 2.75
SEBASTOPOL 3.3 WSW, Sonoma, CA01, -122.885, 38.384, 362, M, 3.00
OCCIDENTAL 2.8 SW, Sonoma, CA01, -122.974, 38.365, 614, M, 2.95
HEALDSBURG 12.6 NNW, Sonoma, CA01, -122.963, 38.784, 1026, M, 2.91
BENICIA 0.2 SSW, Solano, CA01, -122.155, 38.070, 403, M, 3.10
APPLE VALLEY 2.6 SSW, San Bernardino, CA07, -117.235, 34.496, 2881, M, 0.55
WRIGHTWOOD 1.2 WNW, San Bernardino, CA07, -117.651, 34.365, 6148, M, 2.25
UPLAND 0.5 ESE, San Bernardino, CA06, -117.650, 34.115, 1415, M, 1.34
APPLE VALLEY 2.6 SE, San Bernardino, CA07, -117.181, 34.504, 2941, M, 0.51
JOSHUA TREE 2.0 S, San Bernardino, CA07, -116.318, 34.097, 3409, M, 0.55
CRESTLINE 0.2 WSW, San Bernardino, CA07, -117.299, 34.246, 4530, M, 2.51
LANDERS 1.6 NE, San Bernardino, CA07, -116.375, 34.283, 2954, M, 0.12
BARSTOW 3.0 W, San Bernardino, CA07, -117.118, 34.880, 2229, M, 0.46
HESPERIA 3.9 SW, San Bernardino, CA07, -117.340, 34.373, 3578, M, 0.00
PINON HILLS 3.5 N, San Bernardino, CA07, -117.644, 34.485, 3495, M, 0.57
APPLE VALLEY 1.9 N, San Bernardino, CA07, -117.211, 34.556, 2935, M, 0.00
KNIGHTS FERRY 5.2 WSW, Stanislaus, CA05, -120.752, 37.789, 144, M, 3.01
OAKDALE 4.2 ENE, Stanislaus, CA05, -120.777, 37.782, 232, M, 1.91
SAN JUAN BAUTISTA 0.5 S, San Benito, CA04, -121.537, 36.839, 252, M, 3.05
HOLLISTER 5.4 NNE, San Benito, CA04, -121.370, 36.931, 247, M, 2.90
HOLLISTER 2.1 ESE, San Benito, CA04, -121.365, 36.842, 389, M, 3.26
DAVENPORT 4.2 NW, Santa Cruz, CA04, -122.218, 37.065, 495, M, 2.34
BOULDER CREEK 3.6 NE, Santa Cruz, CA04, -122.091, 37.181, 1724, M, 3.84
SCOTTS VALLEY 1.7 SW, Santa Cruz, CA04, -122.029, 37.040, 573, M, 4.27
APTOS 2.6 E, Santa Cruz, CA04, -121.854, 36.996, 383, M, 3.59
FELTON 0.1 SE, Santa Cruz, CA04, -122.071, 37.042, 238, M, 3.63
BONNY DOON 2.0 NE, Santa Cruz, CA04, -122.133, 37.068, 1880, M, 1.05
SOQUEL 1.8 N, Santa Cruz, CA04, -121.950, 37.019, 152, M, 2.67
BOULDER CREEK 3.0 NW, Santa Cruz, CA04, -122.164, 37.169, 875, M, 4.94
FELTON 4.5 NNE, Santa Cruz, CA04, -122.047, 37.105, 838, M, 4.17
RED BLUFF 4.3 W, Tehama, CA02, -122.322, 40.179, 396, M, 2.28
LINDSAY 0.5 N, Tulare, CA05, -119.088, 36.213, 378, M, 3.29
TERRA BELLA 6.3 W, Tulare, CA05, -119.149, 35.950, 374, M, 2.52
VISALIA 0.7 SSE, Tulare, CA05, -119.318, 36.315, 318, M, 2.20
DOUGLAS CITY 2.4 SW, Trinity, CA01, -122.978, 40.633, 1689, M, 2.69
HAWKINS BAR 0.6 NW, Trinity, CA01, -123.530, 40.877, 674, M, 5.35
MAD RIVER 7.4 SE, Trinity, CA01, -123.376, 40.321, 2762, M, 6.85
HAYFORK 7.1 SE, Trinity, CA01, -123.030, 40.500, 2917, M, 1.70
TRINITY CENTER 0.6 ESE, Trinity, CA01, -122.696, 40.983, 2427, M, 4.48
SALYER 1.4 ESE, Trinity, CA01, -123.559, 40.887, 696, M, 5.39
THOUSAND OAKS 2.1 WSW, Ventura, CA06, -118.898, 34.177, 692, M, 2.28
FRAZIER PARK 10.7 WSW, Ventura, CA06, -119.110, 34.746, 5274, M, 0.95
SIMI VALLEY 3.8 SW, Ventura, CA06, -118.805, 34.231, 1081, M, 2.27
VENTURA 0.5 WNW, Ventura, CA06, -119.276, 34.273, 56, M, 2.55
OJAI 0.3 WNW, Ventura, CA06, -119.251, 34.451, 797, M, 3.50
SIMI VALLEY 1.0 NW, Ventura, CA06, -118.764, 34.272, 848, M, 1.98
THOUSAND OAKS 2.5 WSW, Ventura, CA06, -118.909, 34.179, 703, M, 2.20
CHALLENGE-BROWNSVILLE 1.3 WSW, Yuba, CA02, -121.280, 39.452, 2049, M, 8.44
DAVIS 1.2 SE, Yolo, CA02, -121.721, 38.543, 36, M, 2.44
DAVIS 0.8 NE, Yolo, CA02, -121.724, 38.562, 41, M, 2.36
DAVIS 1.4 SSE, Yolo, CA02, -121.722, 38.538, 4, M, 1.93
DAVIS 6.1 WNW, Yolo, CA02, -121.845, 38.578, 83, M, 2.17
DAVIS 2.7 W, Yolo, CA02, -121.786, 38.552, 57, M, 2.14
WOODLAND 2.8 SE, Yolo, CA02, -121.732, 38.647, 38, M, 1.71
PLACERVILLE 3 ENE, El Dorado, CA02, -120.742, 38.785, 2658, 51.5, 7.66
TAHOMA, El Dorado, CA03, -120.129, 39.060, 6315, 37.5, 3.65
CORONA MUNICIPAL AIRPORT, Riverside, -, -117.602, 33.898, 533, 60.2, 0.99
OAKLAND 4.4 NNW, Alameda, CA04, -122.250, 37.832, 191, M, 3.47
SAN LORENZO 0.5 NNW, Alameda, CA04, -122.133, 37.682, 30, M, 3.50
OROVILLE 4.8 E, Butte, CA02, -121.477, 39.493, 668, M, 4.72
MCKINLEYVILLE 4.3 E, Humboldt, CA01, -124.034, 40.953, 173, M, 4.99
KNEELAND 0.4 NNW, Humboldt, CA01, -123.999, 40.766, 2008, M, 8.59
MCKINLEYVILLE 1.2 SSW, Humboldt, CA01, -124.126, 40.938, 58, M, 5.52
BISHOP 8.8 WNW, Inyo, CA07, -118.547, 37.411, 4537, M, 0.03
HANFORD 1.2 WNW, Kings, CA05, -119.667, 36.331, 243, M, 0.08
CLAREMONT 0.5 E, Los Angeles, CA06, -117.707, 34.121, 1465, M, 2.50
LOS ANGELES 4.3 NNW, Los Angeles, CA06, -118.435, 34.171, 675, M, 2.45
LANCASTER 6.5 ENE, Los Angeles, CA07, -118.066, 34.718, 2366, M, 0.72
PACIFIC GROVE 0.6 N, Monterey, CA04, -121.925, 36.631, 53, M, 1.59
ANAHEIM HILLS 1.1 SE, Orange, CA06, -117.762, 33.835, 881, M, 1.75
FOOTHILL RANCH 0.3 NW, Orange, CA06, -117.664, 33.689, 1045, M, 1.69
CORONA 12.5 SE, Riverside, CA06, -117.431, 33.735, 1302, M, 1.75
CARLSBAD 2.2SE, San Diego, CA06, -117.321, 33.143, 22, M, 1.10
DESCANSO 0.3 WNW, San Diego, CA06, -116.621, 32.854, 3442, M, 3.80
SAN DIEGO 5.2WNW, San Diego, CA06, -117.245, 32.735, 251, M, 1.16
VISTA 1.2SE, San Diego, CA06, -117.231, 33.186, 505, M, 1.56
IGO 0.2 S, Shasta, CA02, -122.541, 40.503, 1074, M, 3.52
STOCKTON 0.7 E, San Joaquin, CA05, -121.293, 37.969, 16, M, 2.13
PASO ROBLES 1.8 WSW, San Luis Obispo, CA04, -120.693, 35.622, 767, M, 0.70
BELMONT 0.7 WSW, San Mateo, CA04, -122.306, 37.510, 482, M, 3.67
FORESTVILLE 0.7 SW, Sonoma, CA01, -122.897, 38.473, 201, M, 2.96
RIALTO 2.1 N, San Bernardino, CA06, -117.381, 34.144, 1482, M, 2.53
THREE RIVERS 1.7 NE, Tulare, CA05, -118.886, 36.458, 1010, M, 4.33
TRINITY CENTER 0.2 ENE, Trinity, CA01, -122.704, 40.986, 2481, M, 3.79
VERDI 2W, Sierra, CA03, -120.027, 39.521, 5429, 46.0, 1.60
CHICO 1.2 NNW, Butte, CA02, -121.814, 39.770, 251, M, 2.63
PASADENA 2.0 SE, Los Angeles, CA06, -118.116, 34.139, 739, M, 2.34
RAYMOND 6.8 NE, Madera, CA05, -119.802, 37.272, 1802, M, 3.78
SUNNYVALE 3.6 S (W6NW), Santa Clara, CA04, -122.018, 37.334, 170, M, 2.46
PIONEER 6.4 NE, Amador, CA05, -120.499, 38.505, 4073, M, 7.01
CRESCENT CITY 4.2 NE, Del Norte, CA01, -124.143, 41.800, 98, M, 10.19
POLLOCK PINES 0.5 NW, El Dorado, CA02, -120.578, 38.757, 3895, M, 5.65
EUREKA 3.0 SSW, Humboldt, CA01, -124.181, 40.757, 100, M, 5.04
MCKINLEYVILLE 0.7 ESE, Humboldt, CA01, -124.104, 40.950, 127, M, 6.09
TEHACHAPI 2.2 W, Kern, CA05, -118.480, 35.132, 3945, M, 1.19
DIAMOND BAR 1.9 NNE, Los Angeles, CA06, -117.796, 34.023, 935, M, 1.59
LA CRESCENTA-MONTROSE 3.9 NW, Los Angeles, CA06, -118.287, 34.270, 1974, M, 2.85
RANCHO PALOS VERDES 2.0 NW, Los Angeles, CA06, -118.385, 33.780, 1083, M, 2.13
YOSEMITE LAKES 4.7 S, Madera, CA05, -119.761, 37.124, 1598, M, 1.74
MARIPOSA 12.5 E, Mariposa, CA05, -119.740, 37.462, 2940, M, 5.13
BIG SUR 7.2 NNW, Monterey, CA04, -121.818, 36.353, 2434, M, 4.47
NEVADA CITY 6.1 W, Nevada, CA02, -121.135, 39.261, 2124, M, 7.68
IRVINE 2.9 WSW, Orange, CA06, -117.838, 33.640, 193, M, 1.60
MISSION VIEJO 3.5 SSE(K6WTA), Orange, CA06, -117.639, 33.563, 613, M, 1.72
IRVINE 4.1 NNE, Orange, CA06, -117.772, 33.718, 152, M, 1.64
ANAHEIM 4.9 E, Orange, CA06, -117.787, 33.847, 374, M, 1.09
LOS ALTOS HILLS 1.3 N, Santa Clara, CA04, -122.135, 37.387, 194, M, 2.43
SAN DIEGO 7.6 NNW, San Diego, CA06, -117.188, 32.916, 383, M, 1.12
CHULA VISTA 3.1SE, San Diego, CA06, -117.051, 32.604, 200, M, 0.85
SAN DIEGO 9.5 NNW, San Diego, CA06, -117.221, 32.843, 284, M, 1.52
CARLSBAD 3.8SE, San Diego, CA06, -117.304, 33.119, 168, M, 1.30
RANCHO BERNARDO 1NNW, San Diego, CA06, -117.083, 33.034, 517, M, 1.98
LOS OSOS 0.5 N, San Luis Obispo, CA04, -120.832, 35.329, 77, M, 2.78
MENLO PARK 2.4 W, San Mateo, CA04, -122.187, 37.477, 25, M, 2.77
BURLINGAME 2.0 WSW, San Mateo, CA04, -122.398, 37.584, 447, M, 5.10
BODEGA BAY 1.0 SE, Sonoma, CA01, -123.018, 38.312, 226, M, 1.88
BODEGA BAY 0.1 NNW, Sonoma, CA01, -123.030, 38.324, 218, M, 2.42
BENICIA 1.2 SW, Solano, CA01, -122.168, 38.058, 40, M, 2.89
TWENTYNINE PALMS 1.5 SW, San Bernardino, CA07, -116.085, 34.124, 2162, M, 0.06
SUTTER 0.3 W, Sutter, CA02, -121.751, 39.160, 73, M, 2.47
CAMARILLO 2.4 W, Ventura, CA06, -119.072, 34.228, 114, M, 2.15
MARYSVILLE 5.0 N, Yuba, CA02, -121.594, 39.224, 73, M, 2.68
WHEATLAND 0.1 ENE, Yuba, CA02, -121.424, 39.013, 85, M, 3.49
CHICO 1.7 SW, Butte, CA02, -121.832, 39.739, 210, M, 2.19
BLUE LAKE 0.6 NNW, Humboldt, CA01, -123.994, 40.888, 179, M, 4.81
REDWAY 1.8 WSW, Humboldt, CA01, -123.852, 40.109, 955, M, 4.34
LAWS 0.1SW, Inyo, CA07, -118.347, 37.399, 4116, M, 0.00
UPPER LAKE 3.6 W, Lake, CA02, -122.978, 39.168, 1440, M, 1.84
MORGAN HILL 1.4 SW, Santa Clara, CA04, -121.659, 37.117, 433, M, 2.51
FALLBROOK 2.3SE, San Diego, CA06, -117.225, 33.352, 618, M, 2.40
REDDING 3.8 S, Shasta, CA02, -122.369, 40.518, 444, M, 3.18
FORKS OF SALMON 1.0 NW, Siskiyou, CA01, -123.334, 41.269, 1664, M, 3.48
SAN MATEO 3.4 SSW, San Mateo, CA04, -122.343, 37.518, 585, M, 2.84
OCCIDENTAL 1.8 WSW, Sonoma, CA01, -122.969, 38.390, 974, M, 3.70
FILLMORE 0.6 N, Ventura, CA06, -118.917, 34.408, 506, M, 1.67
ARBUCKLE BASIN CALIFORNIA, Shasta, CA02, -122.833, 40.398, 1900, 52.9, M
ACTON CALIFORNIA, Los Angeles, CA06, -118.200, 34.446, 2600, 58.6, M
ARROYO GRANDE CALIFORNIA, San Luis Obispo, CA04, -120.392, 35.179, 1048, 59.2, M
ALDER SPRINGS CALIFORNIA, Glenn, CA02, -122.724, 39.651, 4300, 48.3, M
ALPINE CALIFORNIA, San Diego, CA06, -116.739, 32.834, 2041, 60.6, M
LOS ALTOS CALIFORNIA, Santa Clara, CA04, -122.147, 37.358, 645, 57.4, M
ANZA CALIFORNIA, Riverside, CA06, -116.673, 33.555, 3920, 54.4, M
ALDER POINT CALIFORNIA, Humboldt, CA01, -123.590, 40.187, 923, 53.8, M
ARROYO SECO (MT. DIABLO) CALIF, Monterey, CA04, -121.492, 36.230, 980, 57.6, M
ASH CREEK CALIFORNIA, Siskiyou, CA02, -121.979, 41.277, 3200, 44.9, M
ASH VALLEY CALIFORNIA, Lassen, CA02, -120.686, 41.052, 5100, 44.3, M
BACKBONE CALIFORNIA, Trinity, CA01, -123.142, 40.889, 4700, 46.9, M
BALD MTN LOC CALIFORNIA, El Dorado, CA02, -120.697, 38.906, 4680, 50.8, M
BARNABY CALIFORNIA, Marin, CA01, -122.702, 38.028, 1240, 54.3, M
BATTERSON CALIFORNIA, Madera, CA05, -119.508, 37.232, 3160, 54.4, M
BIG BAR CALIFORNIA, Trinity, CA01, -123.233, 40.733, 1500, 54.9, M
BELL CANYON CALIFORNIA, Orange, CA06, -117.592, 33.542, 700, 60.6, M
BRADLEY CALIFORNIA, Monterey, CA04, -120.803, 35.864, 537, 58.9, M
BEAR PEAK CALIFORNIA, Tulare, CA05, -118.052, 35.884, 8228, 41.9, M
BENTON CALIFORNIA, Mono, CA07, -118.478, 37.843, 5450, 51.1, M
BEAUMONT CALIFORNIA, Riverside, CA06, -116.950, 33.931, 2604, 60.5, M
BEVERLY HILLS CALIFORNIA, Los Angeles, CA06, -118.412, 34.125, 1260, 64.5, M
BANGOR CALIFORNIA, Butte, CA02, -121.386, 39.398, 803, 57.9, M
BIG HILL CALIFORNIA, Humboldt, CA01, -123.636, 41.098, 3570, 45.9, M
BIG PINES CALIFORNIA, Los Angeles, CA07, -117.692, 34.379, 6917, 49.9, M
BIG ROCK CALIFORNIA, Marin, CA01, -122.570, 38.039, 1500, 54.9, M
BLACK DIAMOND CALIFORNIA, Contra Costa, CA04, -121.884, 37.950, 1600, 54.6, M
BLUE DOOR CALIFORNIA, Lassen, CA02, -120.337, 41.055, 5615, 43.1, M
BLUE RIDGE (KNF) CALIFORNIA, Siskiyou, CA01, -123.187, 41.269, 5956, 40.9, M
BEN BOLT CALIFORNIA, El Dorado, CA05, -120.934, 38.591, 905, 56.5, M
BEN LOMOND CALIFORNIA, Santa Cruz, CA04, -122.170, 37.132, 2630, 52.1, M
BOGARD R.S. CALIFORNIA, Lassen, CA02, -121.083, 40.598, 5650, 40.8, M
BOONVILLE CALIFORNIA, Mendocino, CA01, -123.349, 38.988, 644, 54.2, M
BIG PINE FLAT CALIFORNIA, San Bernardino, CA07, -117.013, 34.319, 6861, 47.7, M
BRIDGEPORT 4NW CALIFORNIA, Mono, CA03, -119.289, 38.272, 6650, 45.7, M
BRANCH MOUNTAIN CALIFORNIA, San Luis Obispo, CA04, -120.083, 35.189, 3770, 53.4, M
BEAR FLAT CALIFORNIA, Modoc, CA02, -120.313, 41.295, 6200, 41.9, M
BRIONES CALIFORNIA, Contra Costa, CA04, -122.118, 37.944, 1450, 55.2, M
BLACKROCK CALIFORNIA, Tulare, CA05, -118.260, 36.093, 8200, 42.2, M
BROOKS CALIFORNIA, Yolo, CA02, -122.145, 38.738, 354, 59.5, M
BIG SUR CALIFORNIA, Monterey, CA04, -121.785, 36.236, 450, 56.8, M
BUCK MEADOWS CALIFORNIA, Tuolumne, CA05, -120.097, 37.823, 3200, 51.1, M
BULL FLAT CALIFORNIA, Lassen, CA03, -120.114, 40.481, 4395, 46.8, M
BURNS CANYON CALIFORNIA, San Bernardino, CA07, -116.634, 34.210, 6000, 55.2, M
BUTTERCUP CALIFORNIA, Imperial, CA07, -114.884, 32.740, 217, 73.3, M
BEAVER CAMP LOC CALIFORNIA, Amador, CA05, -120.325, 38.488, 5000, 51.7, M
BRAZIE RANCH CALIFORNIA, Siskiyou, CA01, -122.594, 41.685, 3000, 50.7, M
CAHUILLA CALIFORNIA, Imperial, CA07, -115.174, 32.974, 278, 73.9, M
CALLAHAN CALIFORNIA, Siskiyou, CA01, -122.796, 41.308, 3136, 48.9, M
CAMERON FIRE STATION CALIFORNI, San Diego, CA06, -116.463, 32.721, 3443, 54.3, M
CANBY CALIFORNIA, Modoc, CA02, -120.868, 41.434, 4312, 46.6, M
CARRIZO CALIFORNIA, San Luis Obispo, CA05, -119.773, 35.096, 2490, 57.4, M
CATHEYS VALLEY CALIFORNIA, Mariposa, CA05, -120.111, 37.468, 1200, 58.3, M
CEDAR GROVE CALIFORNIA, Fresno, CA05, -118.656, 36.788, 4720, 49.3, M
CHEESEBORO CALIFORNIA, Ventura, CA06, -118.717, 34.185, 1650, 62.2, M
CHICO CALIFORNIA, Butte, CA02, -121.779, 39.712, 230, 59.4, M
CHILAO CALIFORNIA, Los Angeles, CA06, -118.030, 34.332, 5450, 53.6, M
CHUCHUPATE CALIFORNIA, Ventura, CA05, -119.012, 34.808, 4900, 47.3, M
CLAREMONT CALIFORNIA, Los Angeles, CA06, -117.707, 34.137, 1645, 60.7, M
CLEAR CREEK CALIFORNIA, Los Angeles, CA06, -118.152, 34.271, 3000, 57.1, M
CLARK CALIFORNIA, Riverside, CA06, -117.309, 33.877, 1720, 61.9, M
CALAVERAS ROAD CALIFORNIA, Alameda, CA04, -121.844, 37.553, 1230, 55.3, M
CASE MOUNTAIN CALIFORNIA, Tulare, CA05, -118.809, 36.411, 6450, 46.8, M
COHASSET CALIFORNIA, Butte, CA02, -121.769, 39.872, 1733, 57.6, M
COLLINS BALDY CALIFORNIA, Siskiyou, CA01, -122.950, 41.775, 5493, 41.6, M
COOSKIE MOUNTAIN CALIFORNIA, Humboldt, CA01, -124.266, 40.257, 2950, 46.7, M
CORRALITOS CALIFORNIA, Santa Cruz, CA04, -121.798, 36.991, 450, 56.1, M
COUNTY LINE CALIFORNIA, Lake, CA02, -122.412, 39.019, 2085, 56.1, M
CAMP 9 CALIFORNIA, Los Angeles, CA06, -118.422, 34.362, 4000, 55.6, M
CRANE FLAT LOOKOUT CALIFORNIA, Mariposa, CA05, -119.825, 37.762, 6644, 45.7, M
CRESTVIEW CALIFORNIA, Mono, CA07, -118.983, 37.745, 7600, 40.3, M
CORNING CALIFORNIA, Tehama, CA02, -122.170, 39.939, 294, 59.0, M
CARPENTER RIDGE CALIFORNIA, Butte, CA02, -121.582, 40.069, 4812, 47.4, M
CRANSTON CALIFORNIA, Riverside, CA06, -116.841, 33.740, 1950, 63.5, M
CRAZY PEAK CALIFORNIA, Del Norte, CA01, -123.604, 41.992, 3970, 45.6, M
CASHMAN CALIFORNIA, Plumas, CA02, -120.915, 40.002, 4520, 49.7, M
DESCANSO CALIFORNIA, San Diego, CA06, -116.622, 32.857, 3480, 55.8, M
DEVILS GARDEN CALIFORNIA, Modoc, CA02, -120.671, 41.530, 5022, 44.9, M
DIABLO GRANDE CALIFORNIA, Stanislaus, CA05, -121.294, 37.329, 1850, 57.4, M
DEMOCRAT CALIFORNIA, Kern, CA05, -118.630, 35.532, 2356, 57.1, M
DINKEY CALIFORNIA, Fresno, CA05, -119.039, 37.066, 5668, 43.3, M
DOG VALLEY CALIFORNIA, Sierra, CA03, -120.048, 39.562, 5976, 44.5, M
DOYLE CALIFORNIA, Lassen, CA03, -120.106, 40.022, 4240, 51.4, M
DEL VALLE CALIFORNIA, Los Angeles, CA06, -118.683, 34.431, 1278, 62.4, M
DEVORE CALIFORNIA, San Bernardino, CA06, -117.404, 34.221, 2057, 61.2, M
EAGLE PEAK CALIFORNIA, Tehama, CA02, -122.657, 39.928, 3713, 51.5, M
EEL RIVER CAMP CALIFORNIA, Humboldt, CA01, -123.824, 40.138, 446, 54.0, M
EEL RIVER CALIFORNIA, Mendocino, CA01, -123.083, 39.833, 1500, 55.2, M
EL CARISO CALIFORNIA, Riverside, CA06, -117.411, 33.647, 3038, 60.8, M
MOUNT ELIZABETH CALIFORNIA, Tuolumne, CA05, -120.247, 38.063, 4933, 50.0, M
EL MIRAGE CALIFORNIA, San Bernardino, CA07, -117.550, 34.634, 2880, 60.3, M
ESPERANZA CALIFORNIA, Calaveras, CA05, -120.515, 38.243, 2559, 53.3, M
FANCHER CREEK CALIFORNIA, Fresno, CA05, -119.466, 36.884, 920, 61.4, M
FAWNSKIN CALIFORNIA, San Bernardino, CA06, -116.899, 34.266, 6900, 44.9, M
FENCE MEADOW CALIFORNIA, Fresno, CA05, -119.175, 36.961, 5048, 51.0, M
FORT HUNTER LIGGET CALIFORNIA, Monterey, CA04, -121.242, 36.012, 1100, 54.2, M
FIGUEROA CALIFORNIA, Santa Barbara, CA06, -120.007, 34.733, 3200, 57.2, M
FISH CREEK MTN CALIFORNIA, Imperial, CA07, -116.067, 32.990, 760, 75.3, M
FIVE MILE CALIFORNIA, Inyo, CA07, -117.918, 35.872, 4150, 63.1, M
FORESTHILL CALIFORNIA, Placer, CA02, -120.732, 39.091, 4355, 51.1, M
FOUNTAIN SPRINGS CALIFORNIA, Tulare, CA05, -118.915, 35.892, 210, 59.5, M
FREMONT CANYON CALIFORNIA, Orange, CA06, -117.711, 33.808, 1781, 60.7, M
FRIEND MOUNTAIN CALIFORNIA, Trinity, CA01, -123.342, 40.505, 4000, 46.5, M
GASQUET CALIFORNIA, Del Norte, CA01, -123.979, 41.846, 500, 52.9, M
GRASSHOPPER CALIFORNIA, Lassen, CA03, -120.784, 40.782, 6158, 41.5, M
GOOSE VALLEY CALIFORNIA, San Diego, CA06, -116.846, 33.074, 1530, 59.4, M
GORDON CALIFORNIA, Lassen, CA03, -120.896, 40.759, 6200, 42.3, M
GREEN SPRING CALIFORNIA, Tuolumne, CA05, -120.500, 37.833, 1020, 57.5, M
HASTINGS CALIFORNIA, Monterey, CA04, -121.552, 36.389, 1885, 53.8, M
HAWKEYE CALIFORNIA, Sonoma, CA01, -122.917, 38.782, 2000, 53.0, M
HAYFORK CALIFORNIA, Trinity, CA01, -123.165, 40.550, 2323, 51.4, M
HELL HOLE CALIFORNIA, Placer, CA02, -120.422, 39.072, 5240, 47.8, M
HERNANDEZ CALIFORNIA, San Benito, CA04, -120.856, 36.383, 3733, 52.4, M
HIGH GLADE LOOKOUT CALIFORNIA, Lake, CA02, -122.808, 39.208, 4840, 49.1, M
HIGH SIERRA CALIFORNIA, Fresno, CA05, -119.038, 37.315, 7403, 43.2, M
HOPLAND CALIFORNIA, Mendocino, CA01, -123.081, 39.031, 2682, 51.9, M
HOLLISTER CALIFORNIA, San Benito, CA04, -121.362, 36.842, 404, 56.6, M
HUNTER MOUNTAIN CALIFORNIA, Inyo, CA07, -117.474, 36.563, 6880, 48.5, M
HORSE LAKE CALIFORNIA, Lassen, CA03, -120.503, 40.631, 5100, 45.0, M
HOOPA CALIFORNIA, Humboldt, CA01, -123.671, 41.048, 375, 55.0, M
HORSE THIEF SPRINGS CALIFORNIA, San Bernardino, CA07, -115.909, 35.771, 5000, 58.4, M
HURLEY CALIFORNIA, Fresno, CA05, -119.568, 37.015, 1201, 55.8, M
INDIAN WELL CALIFORNIA, Siskiyou, CA01, -121.538, 41.742, 4770, 45.5, M
JARBO GAP CALIFORNIA, Butte, CA02, -121.489, 39.736, 2490, 54.0, M
JERSEYDALE CALIFORNIA, Mariposa, CA05, -119.839, 37.544, 3900, 53.8, M
JOHNSONDALE CALIFORNIA, Tulare, CA05, -118.545, 35.972, 4700, 49.1, M
JUANITA LAKE CALIFORNIA, Siskiyou, CA01, -122.006, 41.786, 5400, 44.3, M
JULIAN CALIFORNIA, San Diego, CA07, -116.591, 33.076, 4240, 54.0, M
JUNIPER CREEK CALIFORNIA, Modoc, CA02, -120.472, 41.332, 4372, 46.3, M
KEENWILD CALIFORNIA, Riverside, CA06, -116.767, 33.667, 4920, 54.6, M
KETTLEMAN HILLS CALIFORNIA, Kings, CA05, -120.057, 36.033, 810, 63.4, M
KNOXVILLE CREEK CALIFORNIA, Lake, CA02, -122.417, 38.862, 2200, 55.0, M
KONOCTI CALIFORNIA, Lake, CA02, -122.706, 38.912, 2163, 54.4, M
LOS BANOS CALIFORNIA, Merced, CA05, -121.053, 37.055, 350, 62.3, M
MT. LAGUNA CALIFORNIA, San Diego, CA07, -116.420, 32.880, 5760, 49.2, M
LA HONDA CALIFORNIA, San Mateo, CA04, -122.255, 37.305, 872, 53.8, M
LA PANZA CALIFORNIA, San Luis Obispo, CA04, -120.187, 35.381, 1630, 55.2, M
LAURAL MOUNTAIN CALIFORNIA, Kern, CA07, -117.699, 35.478, 4390, 59.5, M
LASSEN LODGE CALIFORNIA, Tehama, CA02, -121.714, 40.344, 4159, 50.1, M
LAUFMAN CALIFORNIA, Lassen, CA03, -120.353, 40.142, 5800, 48.6, M
LAYTONVILLE CALIFORNIA, Mendocino, CA01, -123.485, 39.702, 1820, 51.5, M
LADDER BUTTE CALIFORNIA, Lassen, CA02, -121.297, 40.807, 5750, 44.3, M
LEO CARRILLO CALIFORNIA, Los Angeles, CA06, -118.936, 34.046, 50, 58.3, M
LOS GATOS CALIFORNIA, Santa Clara, CA04, -121.943, 37.203, 2000, 55.9, M
LOST HORSE CALIFORNIA, Riverside, CA07, -116.188, 34.018, 4200, 57.3, M
LINCOLN CALIFORNIA, Placer, CA02, -121.268, 38.883, 200, 59.6, M
LOWER KLAMATH CALIFORNIA, Siskiyou, CA01, -121.700, 41.999, 4098, 45.4, M
LOS PRIETOS CALIFORNIA, Santa Barbara, CA06, -119.783, 34.536, 1020, 60.3, M
LAS TABLAS CALIFORNIA, San Luis Obispo, CA04, -120.924, 35.656, 994, 56.1, M
LITTLE TUJUNGA CALIFORNIA, Los Angeles, CA06, -118.361, 34.294, 1390, 60.4, M
LYONS VALLEY CALIFORNIA, Lake, CA01, -123.074, 39.126, 3200, 49.1, M
LYTLE CREEK CALIFORNIA, San Bernardino, CA06, -117.480, 34.234, 2792, 59.9, M
MAD RIVER CALIFORNIA, Trinity, CA01, -123.524, 40.463, 2775, 48.2, M
MALIBU HILLS CALIFORNIA, Los Angeles, CA06, -118.633, 34.058, 1575, 61.2, M
MANZANITA LAKE CALIFORNIA, Shasta, CA02, -121.580, 40.540, 5660, 41.1, M
MILL CREEK (BDF) CALIFORNIA, San Bernardino, CA06, -117.035, 34.084, 2950, 60.8, M
MCGUIRES CALIFORNIA, Mendocino, CA01, -123.601, 39.353, 593, 52.6, M
MEANS LAKE CALIFORNIA, San Bernardino, CA07, -116.517, 34.391, 2900, 64.2, M
MENDOCINO PASS CALIFORNIA, Mendocino, CA01, -122.945, 39.808, 5420, 43.1, M
METCALF GAP CALIFORNIA, Madera, CA05, -119.768, 37.409, 3077, 56.3, M
MEYERS CALIFORNIA, El Dorado, CA03, -120.018, 38.849, 6310, 42.1, M
MID HILLS CALIFORNIA, San Bernardino, CA07, -115.411, 35.123, 5413, 54.8, M
MILL CREEK (ANF) CALIFORNIA, Los Angeles, CA06, -118.082, 34.390, 5021, 53.1, M
MILO CALIFORNIA, Tulare, CA05, -118.869, 36.231, 1923, 58.6, M
MALLORY RIDGE CALIFORNIA, Contra Costa, CA05, -121.779, 37.817, 2040, 54.9, M
MONTECITO CALIFORNIA, Santa Barbara, CA06, -119.648, 34.461, 1500, 60.0, M
MODOC NWR CALIFORNIA, Modoc, CA02, -120.354, 41.459, 4380, 46.4, M
MORMON ROCK CALIFORNIA, San Bernardino, CA06, -117.502, 34.318, 3300, 58.9, M
MOUNTAIN REST CALIFORNIA, Fresno, CA05, -119.371, 37.054, 4100, 52.6, M
MARKLEEVILLE CALIFORNIA, Alpine, CA03, -119.767, 38.683, 5501, 46.5, M
MT. SHASTA CALIFORNIA, Siskiyou, CA02, -122.316, 41.316, -, 48.4, M
MARIPOSA CALIFORNIA, Mariposa, CA05, -119.987, 37.504, 2231, 54.8, M
MT. DIABLO CALIFORNIA, Contra Costa, CA05, -121.914, 37.882, 3849, 47.4, M
MOUNT ZION CALIFORNIA, Amador, CA05, -120.651, 38.389, 2960, 54.1, M
NORTH FORK CALIFORNIA, Madera, CA05, -119.505, 37.233, 2720, 54.7, M
OAK KNOLL CALIFORNIA, Siskiyou, CA01, -122.850, 41.839, 1940, 52.6, M
OAK MOUNTAIN CALIFORNIA, Shasta, CA02, -121.983, 41.006, 1700, 56.5, M
OAK CREEK CALIFORNIA, Inyo, CA07, -118.259, 36.843, 4855, 58.4, M
OJAI CALIFORNIA, Ventura, CA06, -119.230, 34.448, 765, 58.0, M
OAK GROVE CALIFORNIA, San Diego, CA06, -116.795, 33.393, 2752, 58.3, M
OAKLAND NORTH CALIFORNIA, Contra Costa, CA04, -122.221, 37.865, 1403, 54.0, M
OAK OPENING CALIFORNIA, Tulare, CA05, -118.702, 36.175, 3240, 55.2, M
OAKLAND SOUTH CALIFORNIA, Alameda, CA04, -122.145, 37.786, 1095, 54.7, M
OPAL MOUNTAIN CALIFORNIA, San Bernardino, CA07, -117.176, 35.154, 3240, 62.0, M
OWENS CAMP LOC CALIFORNIA, El Dorado, CA02, -120.245, 38.733, 5240, 48.3, M
OWENS VALLEY CALIFORNIA, Inyo, CA07, -118.551, 37.390, 4640, 57.9, M
OZENA CALIFORNIA, Ventura, CA06, -119.354, 34.682, 3670, 57.3, M
PANAMINT CALIFORNIA, Inyo, CA07, -117.088, 36.120, 6880, 51.7, M
PARKFIELD CALIFORNIA, Monterey, CA04, -120.432, 35.899, 1535, 56.5, M
PATTY MOCUS CALIFORNIA, Tehama, CA02, -122.867, 40.295, 3500, 49.6, M
PINE HILLS CALIFORNIA, San Diego, CA06, -116.634, 33.016, -, 55.1, M
PIERCE CALIFORNIA, Plumas, CA02, -120.642, 40.246, 5700, 44.8, M
PINEHURST CALIFORNIA, Fresno, CA05, -119.000, 36.685, 4060, 52.0, M
PIKE COUNTY LOOKOUT CALIFORNIA, Yuba, CA02, -121.202, 39.475, 3714, 51.5, M
PILOT HILL CALIFORNIA, El Dorado, CA02, -121.009, 38.833, 1200, 55.5, M
PIRU CALIFORNIA, Ventura, CA06, -118.810, 34.404, 614, 61.4, M
PARK RIDGE CALIFORNIA, Tulare, CA05, -118.942, 36.724, 7540, 44.5, M
PINNACLES CALIFORNIA, San Benito, CA04, -121.147, 36.471, 1322, 57.9, M
POPPY PARK CALIFORNIA, Los Angeles, CA07, -118.383, 34.733, 2760, 59.4, M
POTRERO CALIFORNIA, San Diego, CA06, -116.609, 32.606, 2345, 56.0, M
PANOCHE ROAD CALIFORNIA, Fresno, CA05, -120.766, 36.727, 2032, 58.6, M
PULGAS CALIFORNIA, San Mateo, CA04, -122.298, 37.475, 644, 56.6, M
QUARTZ HILL CALIFORNIA, Siskiyou, CA01, -122.934, 41.599, 4225, 47.7, M
QUINCY RD CALIFORNIA, Plumas, CA02, -120.942, 39.973, 3500, 50.5, M
RAVENDALE CALIFORNIA, Lassen, CA03, -120.316, 40.731, 5298, 45.7, M
RANCHITA CALIFORNIA, San Diego, CA07, -116.497, 33.222, 4415, 56.4, M
READER RANCH CALIFORNIA, Nevada, CA02, -121.117, 39.304, 1968, 55.1, M
REDDING AIRPORT CALIFORNIA, Shasta, CA02, -122.291, 40.516, 500, 58.3, M
RICE VALLEY CALIFORNIA, Riverside, CA07, -114.732, 34.061, 820, 72.6, M
ROCK CREEK, Mono, CA07, -118.667, 37.551, 7040, 46.4, M
RODEO VALLEY, Mendocino, CA01, -123.321, 39.668, 2428, 50.3, M
GARDEN GROVE 0.8 ESE, Orange, CA06, -117.946, 33.775, 85, M, 0.96
DESCANSO 3.7 NNW, San Diego, CA06, -116.626, 32.906, 3278, M, 3.45
EL CAJON 2.8SE, San Diego, CA06, -116.920, 32.772, 686, M, 1.48
VACAVILLE 7.2 WNW, Solano, CA02, -122.081, 38.415, 1427, M, 4.03
WOODSIDE 3.4 S, San Mateo, CA04, -122.264, 37.375, 1592, M, 8.88
ADELANTO 3.1 S, San Bernardino, CA07, -117.433, 34.525, 3085, M, 0.47
RIO VISTA 8.5 S, Sacramento, CA05, -121.703, 38.050, 5, M, 1.92
YUCCA VALLEY 1.1 SW, San Bernardino, CA07, -116.443, 34.100, 3628, M, 0.65
ROSE VALLEY CALIFORNIA, Ventura, CA06, -119.184, 34.543, 3331, 51.5, M
ROUND MOUNTAIN, Siskiyou, CA02, -121.464, 41.427, 5258, 44.5, M
ROSE PEAK CALIFORNIA, Alameda, CA04, -121.735, 37.502, 3060, 50.2, M
RUSH CREEK CALIFORNIA, Modoc, CA02, -120.864, 41.294, 4800, 44.6, M
RUTH CALIFORNIA, Trinity, CA01, -123.316, 40.251, 2732, 50.4, M
SACRAMENTO NWR CALIFORNIA, Glenn, CA02, -122.182, 39.417, 120, 60.5, M
SADDLEBACK BUTTE CALIFORNIA, Los Angeles, CA07, -117.821, 34.685, 2590, 60.2, M
SAUGUS CALIFORNIA, Los Angeles, CA06, -118.525, 34.425, 1450, 61.8, M
SAWYERS BAR CALIFORNIA, Siskiyou, CA01, -123.132, 41.300, 2192, 48.3, M
SANTA CRUZ ISLAND CALIFORNIA, Santa Barbara, CA06, -119.722, 33.996, 250, 58.2, M
SCORPION CALIFORNIA, Trinity, CA01, -122.697, 41.112, 4400, 49.7, M
SODA CREEK CALIFORNIA, Lake, CA01, -122.977, 39.425, 1773, 52.7, M
SECRET TOWN CALIFORNIA, Nevada, CA02, -120.885, 39.184, 2826, 53.0, M
SANTA FE DAM CALIFORNIA, Los Angeles, CA06, -117.946, 34.121, 500, 64.8, M
SHAVER CALIFORNIA, Fresno, CA05, -119.256, 37.135, 5746, 43.8, M
SCHOOL HOUSE CALIFORNIA, Humboldt, CA01, -123.906, 41.138, 2640, 46.1, M
SHIP MTN. CALIFORNIA, Del Norte, CA01, -123.792, 41.736, 5300, 35.3, M
SHADEQUARTER CALIFORNIA, Tulare, CA05, -118.956, 36.567, 4069, 51.9, M
SIMS CALIFORNIA, Shasta, CA02, -122.373, 41.075, 2400, 52.7, M
SIMI VALLEY CALIFORNIA, Ventura, CA06, -118.814, 34.291, 914, 59.8, M
SLATER BUTTE CALIFORNIA, Siskiyou, CA01, -123.352, 41.859, 4670, 44.1, M
SAN MIGUEL CALIFORNIA, San Diego, CA06, -116.974, 32.685, 425, 61.0, M
SAN LUIS NWR CALIFORNIA, Merced, CA05, -120.794, 37.182, 65, 60.6, M
SANTA RITA CALIFORNIA, San Benito, CA05, -120.598, 36.348, 5000, 49.5, M
SOLDIER MOUNTAIN CALIFORNIA, Shasta, CA02, -121.586, 40.926, 3710, 49.6, M
SOMES BAR CALIFORNIA, Siskiyou, CA01, -123.496, 41.390, 920, 56.2, M
SQUAW SPRINGS CALIFORNIA, San Bernardino, CA07, -117.568, 35.370, 3620, 61.5, M
SQUAW LAKE CALIFORNIA, Imperial, CA07, -114.494, 32.908, 300, 75.1, M
SANTA ROSA ISLAND CALIFORNIA, Santa Barbara, CA06, -120.078, 33.978, 1298, 52.4, M
SANTA ROSA PLATEAU CALIFORNIA, Riverside, CA06, -117.231, 33.529, 1980, 59.8, M
SANTA ROSA CALIFORNIA, Sonoma, CA01, -122.712, 38.479, 576, 56.2, M
STAMPEDE CALIFORNIA, Sierra, CA03, -120.075, 39.483, 6867, 56.5, M
STONYFORD CALIFORNIA, Colusa, CA02, -122.575, 39.367, 1200, 55.2, M
SUGARLOAF (SHF) CALIFORNIA, Shasta, CA02, -122.438, 40.917, 4200, 50.4, M
SPRING VALLEY CALIFORNIA, San Mateo, CA04, -122.436, 37.563, 1075, 53.1, M
TANBARK CALIFORNIA, Los Angeles, CA06, -117.761, 34.207, 2600, 58.9, M
TEMESCAL (LPF) CALIFORNIA, Ventura, CA06, -118.756, 34.481, 1140, 60.7, M
THOMES CREEK CALIFORNIA, Tehama, CA02, -122.610, 39.864, 1040, 59.1, M
THOUSAND OAKS CALIFORNIA, Ventura, CA06, -118.870, 34.210, 795, 59.2, M
TIMBER MOUNTAIN CALIFORNIA, Modoc, CA01, -121.298, 41.629, 4960, 44.4, M
MOUNT TOM CALIFORNIA, Fresno, CA05, -119.178, 37.376, 9018, 39.9, M
LAS TRAMPAS CALIFORNIA, Contra Costa, CA04, -122.067, 37.834, 1760, 54.5, M
TRINITY CAMP CALIFORNIA, Trinity, CA01, -122.804, 40.786, 3308, 48.4, M
TRIMMER CALIFORNIA, Fresno, CA05, -119.305, 36.911, 1540, 58.3, M
UHL / HOT SPRINGS, Tulare, CA05, -118.633, 35.889, 3720, 52.7, M
UNDERWOOD CALIFORNIA, Trinity, CA01, -123.495, 40.722, 2600, 50.6, M
VALLEY CENTER CALIFORNIA, San Diego, CA06, -117.009, 33.237, 1483, 59.6, M
VAN BREMMER CALIFORNIA, Siskiyou, CA01, -121.794, 41.643, 4928, 44.5, M
VALYERMO CALIFORNIA, Los Angeles, CA07, -117.851, 34.446, 3780, 56.6, M
VANDENBERG CALIFORNIA, Santa Barbara, CA06, -120.486, 34.759, 1050, 56.3, M
WALKER CALIFORNIA, Mono, CA03, -119.459, 38.565, 5440, 52.1, M
WALKER PASS CALIFORNIA, Kern, CA05, -118.057, 35.665, 5572, 54.8, M
WARM SPRINGS CALIFORNIA, Los Angeles, CA06, -118.579, 34.596, 4930, 56.2, M
WEED AIRPORT CALIFORNIA, Siskiyou, CA01, -122.454, 41.479, 2930, 50.2, M
WESTWOOD CALIFORNIA, Lassen, CA02, -120.900, 40.307, 5800, 42.9, M
WHITE CLOUD CALIFORNIA, Nevada, CA02, -120.837, 39.317, 4320, 51.1, M
WHITTIER HILLS CALIFORNIA, Los Angeles, CA06, -118.010, 33.984, 950, 63.6, M
WHITMORE CALIFORNIA, Shasta, CA02, -121.899, 40.619, 2417, 57.1, M
WILEY RIDGE CALIFORNIA, Ventura, CA06, -118.841, 34.372, 1645, 59.8, M
WOFFORD HEIGHTS CALIFORNIA, Kern, CA05, -118.499, 35.722, 3150, 55.6, M
WOLVERTON CALIFORNIA, Tulare, CA05, -118.703, 36.445, 5240, 52.3, M
WOODACRE CALIFORNIA, Marin, CA01, -122.645, 37.991, 1400, 54.8, M
WHITAKER PEAK CALIFORNIA, Los Angeles, CA06, -118.740, 34.569, 4120, 55.5, M
WHITE WOLF CALIFORNIA, Tuolumne, CA05, -119.650, 37.851, 8025, 39.8, M
YOLLA BOLLA CALIFORNIA, Trinity, CA01, -123.066, 40.338, 4524, 46.4, M
YUCCA VALLEY CALIFORNIA, San Bernardino, CA07, -116.408, 34.123, 3260, 61.2, M
YUROK CALIFORNIA, Humboldt, CA01, -123.857, 41.290, 495, 53.7, M
HAGAN'S MEADOW, El Dorado, CA03, -119.940, 38.850, 7776, 37.9, 2.20
BLUE LAKES, Alpine, CA05, -119.920, 38.610, 8057, 35.8, 3.30
POISON FLAT, Alpine, CA03, -119.630, 38.510, 7736, 38.3, 1.70
SONORA PASS, Mono, CA03, -119.600, 38.310, 8827, 37.3, 2.90
LEAVITT MEADOWS, Mono, CA03, -119.550, 38.300, 7198, 41.6, 2.00
VIRGINIA LAKES RIDGE, Mono, CA03, -119.230, 38.070, 9445, 37.8, 1.20
LOBDELL LAKE, Mono, CA03, -119.370, 38.440, 9233, 35.8, 0.90
EBBETTS PASS, Alpine, CA03, -119.800, 38.550, 8765, 37.6, 4.60
HEAVENLY VALLEY, El Dorado, CA03, -119.920, 38.920, 8582, 36.8, 2.40
LEAVITT LAKE, Mono, CA03, -119.610, 38.280, 9617, 35.4, 5.10
SPRATT CREEK, Alpine, CA03, -119.820, 38.670, 6115, 44.9, 1.60
MONITOR PASS, Alpine, CA03, -119.610, 38.670, 8310, 40.1, 1.00
BURNSIDE LAKE, Alpine, CA03, -119.890, 38.720, 8129, 34.6, 3.00
SUMMIT MEADOW, Mono, CA03, -119.540, 38.400, 9313, 35.6, 2.20
FORESTDALE CREEK, Alpine, CA03, -119.960, 38.680, 8017, 39.4, 3.90
HORSE MEADOW, Alpine, CA03, -119.890, 38.840, 8557, 37.0, 1.20
CARSON PASS, Alpine, CA02, -119.990, 38.690, 8353, 37.4, 3.60
CROWDER FLAT, Modoc, CA01, -120.750, 41.890, 5170, 42.8, 2.30
CEDAR PASS, Modoc, CA02, -120.300, 41.580, 7030, 38.8, 4.60
DISMAL SWAMP, Modoc, CA03, -120.180, 41.990, 7360, 36.5, 5.80
ADIN MTN, Modoc, CA02, -120.790, 41.240, 6190, 38.9, 4.80
INDEPENDENCE CREEK, Sierra, CA03, -120.280, 39.490, 6456, 40.3, 2.70
INDEPENDENCE CAMP, Sierra, CA03, -120.290, 39.450, 7003, 38.6, 3.00
BENICIA 1.3 W, Solano, CA01, -122.178, 38.075, 304, M, 2.35
THOUSAND PALMS 0.7 W, Riverside, CA07, -116.398, 33.821, 254, M, 0.05
INDEPENDENCE LAKE, Nevada, CA03, -120.310, 39.430, 8352, 37.2, 4.30
TRUCKEE #2, Placer, CA03, -120.180, 39.300, 6509, 43.0, 2.70
WARD CREEK #3, Placer, CA03, -120.220, 39.140, 6655, 40.8, 4.80
TAHOE CITY CROSS, Placer, CA03, -120.150, 39.170, 6797, 41.2, 3.30
SQUAW VALLEY G.C., Placer, CA03, -120.260, 39.190, 8029, 38.0, 5.10
CSS LAB, Nevada, CA02, -120.370, 39.330, 6855, 39.2, 6.70
RUBICON #2, El Dorado, CA03, -120.130, 39.000, 7689, 40.2, 3.80
ECHO PEAK, El Dorado, CA03, -120.080, 38.850, 7670, 39.9, 4.90
FALLEN LEAF, El Dorado, CA03, -120.050, 38.930, 6236, 41.8, 1.90
BARSTOW 0.8 SSE, San Bernardino, CA07, -117.059, 34.867, 2609, M, 0.60
MCOLF CAMP PENDLETON RED BEACH AIRPORT, San Diego, -, -117.456, 33.286, 89, 58.3, 1.91
CAMPO ASOS, San Diego, CA07, -116.468, 32.626, 2641, 54.3, 2.26
Burbank Glendale Pasadena Area, -, -, -, -, -, 61.7, 2.14
Camarillo Area, -, -, -, -, -, 57.8, 1.69
Needles Area, -, -, -, -, -, 74.7, 0.42
Oxnard Area, -, -, -, -, -, 58.6, 2.02
Palm Springs Area, -, -, -, -, -, 73.8, 0.20
Riverside Area, -, -, -, -, -, 64.6, 0.87
Ramona Area, -, -, -, -, -, 56.2, 1.54
Northern CA 8 Station Index, -, -, -, -, -, M, 6.50
San Joaquin 5 Station Index, -, -, -, -, -, M, 4.86
SMARTSVILLE 2.4 S, Yuba, CA02, -121.291, 39.173, 859, M, 4.32
Crescent City Area, -, -, -, -, -, 49.5, 6.38
Escondido Area, -, -, -, -, -, 61.7, 1.74
Sacramento Downtown Area, -, -, -, -, -, 61.3, 2.65
Tahoe City Area, -, -, -, -, -, 40.4, 2.53
Ukiah Area, -, -, -, -, -, 55.5, 1.35
Alturas Area, -, -, -, -, -, 45.5, 1.64
Mount Shasta Area, -, -, -, -, -, 47.6, 4.44
Palmdale Area, -, -, -, -, -, 60.2, 0.62
Lancaster Area, -, -, -, -, -, 60.1, 0.82
El Cajon Area, -, -, -, -, -, 61.7, 1.54
Hanford Area, -, -, -, -, -, 61.7, 1.79
El Centro Area, -, -, -, -, -, 71.3, 0.06
Madera Area, -, -, -, -, -, 60.0, 1.59
Merced Area, -, -, -, -, -, 61.2, 1.69
San Jose Area, -, -, -, -, -, 59.7, 1.88