Name, County, ClimateDivision, Longitude, Latitude, Elevation, MeanAvgTemperature, TotalPrecipitation
IMPERIAL, Imperial, CA07, -115.567, 32.849, -64, 70.0, 0.02
EL CAPITAN DAM, San Diego, CA06, -116.815, 32.886, 600, 57.3, 1.26
LAKESIDE 2 E, San Diego, CA06, -116.895, 32.854, 690, M, 1.38
POWAY VALLEY, San Diego, CA06, -117.031, 33.020, 648, 61.0, 1.39
JULIAN CDF, San Diego, CA06, -116.592, 33.076, 4215, 53.5, 1.81
CARLSBAD MCCLELLAN PALOMAR AP, San Diego, CA06, -117.277, 33.130, 313, 58.9, 1.16
HENSHAW DAM, San Diego, CA06, -116.761, 33.237, 2700, 51.8, 2.07
VISTA, San Diego, CA06, -117.232, 33.235, 430, 59.8, 1.52
OCEANSIDE MARINA, San Diego, CA06, -117.395, 33.210, 10, 56.0, 1.40
NILAND, Imperial, CA07, -115.524, 33.278, -60, M, 0.00
BORREGO DESERT PARK, San Diego, CA07, -116.404, 33.256, 810, 71.0, 0.15
PALOMAR MTN OBSERVATORY, San Diego, CA06, -116.840, 33.378, 5550, 51.8, 0.90
MECCA FIRE STATION, Riverside, CA07, -116.073, 33.570, -183, 70.2, 0.05
LAGUNA BEACH, Orange, CA06, -117.781, 33.545, 44, M, 0.69
BLYTHE ASOS, Riverside, CA07, -114.715, 33.619, 395, 69.0, 0.03
DESERT RESORTS REGIONAL AP, Riverside, CA07, -116.164, 33.632, -118, 69.0, 0.07
BARSTOW-DAGGETT AIRPORT, San Bernardino, CA07, -116.787, 34.854, 1919, 63.9, 0.36
MERCED, Merced, CA05, -120.516, 37.289, 154, 56.4, 0.24
SAN DIEGO MONTGOMERY FIELD, San Diego, CA06, -117.137, 32.815, 418, 60.1, 1.31
SAN DIEGO INTERNATIONAL AP, San Diego, CA06, -117.183, 32.734, 15, 60.1, 1.22
SAN DIEGO MIRAMAR NAS, San Diego, CA06, -117.133, 32.867, 477, 59.1, 1.40
NORTH ISLAND NAS, San Diego, CA06, -117.210, 32.692, 14, 61.0, 0.92
SAN FRANCISCO INTERNATIONAL AP, San Mateo, CA04, -122.366, 37.620, 10, 54.6, 0.49
SAN LUIS OBISPO MCCHESNEY FIELD, San Luis Obispo, CA04, -120.644, 35.238, 183, 57.4, 0.66
CEDARVILLE, Modoc, CA03, -120.179, 41.530, 4688, 42.9, 0.29
CHICO UNIVERSITY FARM, Butte, CA02, -121.821, 39.691, 185, 56.4, 0.86
CHULA VISTA, San Diego, CA06, -117.086, 32.640, 56, 58.7, 1.24
COLFAX, Placer, CA02, -120.947, 39.090, 2373, 53.9, 3.44
CUYAMACA, San Diego, CA06, -116.587, 32.990, 4640, 49.1, 1.72
DAVIS 2 WSW EXP FARM, Yolo, CA02, -121.776, 38.535, 60, 57.5, 0.90
DEATH VALLEY NATIONAL PARK, Inyo, CA07, -116.867, 36.463, -194, 72.9, 0.57
FAIRMONT, Los Angeles, CA07, -118.430, 34.705, 3060, 58.5, 0.39
FORT BRAGG 5 N, Mendocino, CA01, -123.756, 39.510, 123, 47.2, 3.19
HANFORD 1 S, Kings, CA05, -119.637, 36.316, 237, 59.0, 0.79
HAPPY CAMP RANGER STATION, Siskiyou, CA01, -123.375, 41.796, 1142, 47.7, 3.19
INDIO FIRE STATION, Riverside, CA07, -116.215, 33.709, -21, 73.0, 0.04
LEMON COVE, Tulare, CA05, -119.026, 36.382, 513, 59.1, 0.54
LIVERMORE, Alameda, CA04, -121.751, 37.682, 529, 56.8, 0.33
LODI, San Joaquin, CA05, -121.288, 38.106, 40, 57.6, 0.20
MERCED MUNICIPAL AP, Merced, CA05, -120.518, 37.286, 152, 59.1, 0.74
NAPA STATE HOSPITAL, Napa, CA01, -122.265, 38.278, 35, 56.5, 0.93
OJAI, Ventura, CA06, -119.227, 34.448, 745, 58.0, 1.33
ORLAND, Glenn, CA02, -122.200, 39.746, 254, 57.9, 1.06
ORLEANS, Humboldt, CA01, -123.532, 41.309, 403, 52.3, 3.12
PASADENA, Los Angeles, CA06, -118.145, 34.148, 864, 64.3, 1.36
PASO ROBLES, San Luis Obispo, CA04, -120.685, 35.628, 730, 56.9, 0.69
PETALUMA AIRPORT, Sonoma, CA01, -122.608, 38.258, 20, 53.3, 0.80
QUINCY, Plumas, CA02, -120.947, 39.937, 3420, 45.3, 3.27
REDLANDS, San Bernardino, CA06, -117.195, 34.037, 1410, 61.1, 0.92
SANTA BARBARA, Santa Barbara, CA06, -119.684, 34.417, 16, 58.2, 1.15
SANTA CRUZ, Santa Cruz, CA04, -122.000, 36.988, 70, 57.2, 1.45
TAHOE CITY, Placer, CA03, -120.143, 39.168, 6230, 38.2, 1.92
UKIAH, Mendocino, CA01, -123.210, 39.147, 636, 52.7, 0.00
WASCO, Kern, CA05, -119.352, 35.589, 291, 59.4, 1.08
WEAVERVILLE, Trinity, CA01, -122.940, 40.737, 2058, 49.2, 3.00
WILLOWS 6 W, Glenn, CA02, -122.305, 39.523, 234, 57.6, 0.87
YOSEMITE PARK HEADQUARTERS, Mariposa, CA05, -119.590, 37.750, 4018, 48.7, 2.99
YREKA, Siskiyou, CA01, -122.641, 41.703, 2709, 44.7, 0.71
BERKELEY, Alameda, CA04, -122.260, 37.874, 310, 55.2, 1.14
BLYTHE, Riverside, CA07, -114.597, 33.613, 268, 69.7, 0.00
EUREKA WFO WOODLEY ISLAND, Humboldt, CA01, -124.160, 40.810, 20, 47.6, 3.09
INDEPENDENCE, Inyo, CA07, -118.204, 36.798, 3950, 57.9, 0.00
SAN LUIS OBISPO POLY, San Luis Obispo, CA04, -120.662, 35.306, 308, 59.0, 0.90
BURNEY, Shasta, CA02, -121.655, 40.880, 3198, 43.6, 1.81
IMPERIAL BEACH REAM FIELD NAS, San Diego, CA06, -117.117, 32.568, 24, 56.8, 0.54
CAMPO, San Diego, CA06, -116.470, 32.626, 2630, 53.9, 1.78
EL CENTRO 2 SSW, Imperial, CA07, -115.562, 32.767, -30, 69.4, 0.03
IMPERIAL COUNTY AP, Imperial, CA07, -115.577, 32.835, -55, 69.6, 0.03
EL CENTRO NAF, Imperial, CA07, -115.664, 32.832, -46, 69.7, 0.02
ALPINE, San Diego, CA06, -116.777, 32.836, 1695, 58.5, 1.59
ELSINORE, Riverside, CA06, -117.346, 33.686, 1268, 62.5, 0.46
SANTA ANA JOHN WAYNE AP, Orange, CA06, -117.867, 33.680, 43, 59.9, 0.06
HAYFIELD PUMPING PLANT, Riverside, CA07, -115.629, 33.704, 1370, 66.1, 0.08
IDYLLWILD FIRE DEPT, Riverside, CA06, -116.707, 33.757, 5380, 48.7, 2.03
SAN JACINTO, Riverside, CA06, -116.975, 33.797, 1525, 61.8, 1.29
HEMET, Riverside, CA06, -116.894, 33.738, 1811, 60.8, 0.94
SILVERADO RANGER STATION, Orange, CA06, -117.660, 33.743, 1095, M, 0.74
SANTA ANA FIRE STATION, Orange, CA06, -117.867, 33.744, 135, 61.6, 0.38
EAGLE MOUNTAIN, Riverside, CA07, -115.451, 33.809, 973, 68.1, 0.02
PALM SPRINGS, Riverside, CA07, -116.510, 33.828, 425, 71.4, 0.04
LONG BEACH DAUGHERTY AP, Los Angeles, CA06, -118.147, 33.812, 34, 61.1, 0.85
PALOS VERDES ES FC43D, Los Angeles, CA06, -118.391, 33.800, 220, M, 0.88
PRADO DAM, Riverside, CA06, -117.645, 33.890, 560, M, 1.36
FULLERTON MUNICIPAL AP, Orange, CA06, -117.986, 33.872, 86, 64.5, 0.63
BREA DAM, Orange, CA06, -117.926, 33.891, 275, M, 0.48
BEAUMONT #2, Riverside, CA07, -116.990, 33.926, 2591, M, 1.61
MARCH AFB, Riverside, CA06, -117.250, 33.900, 1536, 57.5, 0.72
CARBON CANYON GILMAN, Orange, CA06, -117.778, 33.923, 1616, M, 0.76
YORBA LINDA, Orange, CA06, -117.819, 33.890, 350, M, 0.08
ORANGE COUNTY RESERVOIR, Orange, CA06, -117.885, 33.938, 660, M, 0.78
FULLERTON DAM, Orange, CA06, -117.888, 33.896, 340, M, 0.49
HAWTHORNE MUNICIPAL AP, Los Angeles, CA06, -118.333, 33.924, 55, 60.4, 0.57
LOS ANGELES INTL AP, Los Angeles, CA06, -118.387, 33.938, 97, 59.2, 0.66
RIVERSIDE FIRE STATION 3, Riverside, CA06, -117.388, 33.951, 840, 62.5, 0.59
RIVERSIDE MUNICIPAL AP, Riverside, CA06, -117.435, 33.953, 845, 62.6, 0.63
CHINO AP, San Bernardino, CA06, -117.625, 33.976, 636, 59.5, 0.46
WHITTIER CITY YARD FC106C, Los Angeles, CA06, -118.022, 33.976, 446, M, 0.53
CULVER CITY, Los Angeles, CA06, -118.414, 34.005, 92, 59.5, 0.63
SANTA MONICA MUNICIPAL AP, Los Angeles, CA06, -118.447, 34.021, 175, 58.4, 1.03
SANTA MONICA PIER, Los Angeles, CA06, -118.500, 34.008, 14, 57.2, 0.00
ONTARIO INTL AP, San Bernardino, CA06, -117.577, 34.053, 924, 62.6, 0.58
POMONA/FAIRPLEX, Los Angeles, CA06, -117.766, 34.082, 999, 62.1, 0.56
COVINA CITY YARD FC387B, Los Angeles, CA06, -117.880, 34.092, 607, M, 0.63
U C L A, Los Angeles, CA06, -118.443, 34.070, 430, 59.9, 0.96
TOPANGA PATROL FC-6, Los Angeles, CA06, -118.599, 34.084, 745, M, 0.96
IRON MOUNTAIN, San Bernardino, CA07, -115.122, 34.147, 922, 70.8, 0.06
TWENTYNINE PALMS, San Bernardino, CA07, -116.037, 34.128, 1975, 66.7, 0.00
JOSHUA TREE, San Bernardino, CA07, -116.275, 34.147, 2563, 61.7, 0.03
SAN DIMAS FIRE FC 95, Los Angeles, CA06, -117.802, 34.105, 958, M, 0.78
SAN GABRIEL FIRE DEPT, Los Angeles, CA06, -118.100, 34.084, 363, 62.1, 0.77
POINT MUGU NF, Ventura, CA06, -119.123, 34.124, 12, M, 0.33
ALTADENA, Los Angeles, CA06, -118.138, 34.182, 1127, M, 1.18
SAN GABRIEL CANYON PH, Los Angeles, CA06, -117.908, 34.155, 744, 65.6, 0.49
WOODLAND HILLS PIERCE COLLEGE, Los Angeles, CA06, -118.574, 34.182, 790, 62.1, 1.07
LYTLE CREEK R S, San Bernardino, CA06, -117.471, 34.238, 2730, M, 0.00
SAN GABRIEL DAM FC425B-E, Los Angeles, CA06, -117.861, 34.205, 1481, M, 0.85
MT WILSON CBS, Los Angeles, CA06, -118.071, 34.231, 5710, 53.6, 1.69
VAN NUYS AP, Los Angeles, CA06, -118.491, 34.212, 785, 63.6, 0.96
CAMARILLO AP, Ventura, CA06, -119.088, 34.211, 71, 58.4, 0.87
OXNARD VENTURA COUNTY AP, Ventura, CA06, -119.204, 34.200, 39, 55.9, 1.10
PARKER RESRVOIR, San Bernardino, CA07, -114.171, 34.290, 738, 64.5, 0.25
TWENTYNINE PALMS MC, San Bernardino, CA07, -116.147, 34.294, 2003, M, 0.11
BIG BEAR LAKE, San Bernardino, CA06, -116.917, 34.243, 6753, 43.6, 1.02
CHATSWORTH FC 24 F, Los Angeles, CA06, -118.600, 34.250, 950, M, 0.83
VENTURA, Ventura, CA06, -119.292, 34.283, 105, M, 1.02
CRYSTAL LAKE FC238C, Los Angeles, CA06, -117.842, 34.318, 5345, M, 0.82
BIG TUJUNGA DAM FC46, Los Angeles, CA06, -118.188, 34.295, 2326, M, 1.23
PACOIMA DAM FC33A-E, Los Angeles, CA06, -118.400, 34.329, 1550, M, 0.96
PIRU 2 ESE, Ventura, CA06, -118.757, 34.406, 712, M, 0.82
SANTA BARBARA MUNI AP, Santa Barbara, CA06, -119.842, 34.424, 8, 57.3, 1.06
JUNCAL DAM, Santa Barbara, CA06, -119.507, 34.491, 2260, M, 1.01
VICTORVILLE, San Bernardino, CA07, -117.293, 34.529, 2880, 57.7, 0.14
ACTON ESCONDIDO FC261, Los Angeles, CA06, -118.271, 34.494, 2833, M, 0.82
GIBRALTAR DAM NO. 2, Santa Barbara, CA06, -119.682, 34.523, 1558, 58.5, 0.79
AMBOY, San Bernardino, CA07, -115.744, 34.559, 648, 67.9, 0.25
PALMDALE, Los Angeles, CA07, -118.094, 34.588, 2612, 60.4, 0.23
SAUGUS POWER PLANT 1, Los Angeles, CA06, -118.454, 34.590, 2161, 58.4, 0.70
LOS PRIETOS RS, Santa Barbara, CA06, -119.791, 34.544, 1024, M, 1.13
CACHUMA LAKE, Santa Barbara, CA06, -119.982, 34.582, 789, 56.9, 0.80
SALSIPUEDES GAGING STATION, Santa Barbara, CA06, -120.408, 34.585, 254, 54.8, 0.96
PALMDALE AP, Los Angeles, CA07, -118.083, 34.629, 2509, 58.4, 0.25
LOMPOC, Santa Barbara, CA06, -120.451, 34.654, 75, 56.5, 1.08
LANCASTER, Los Angeles, CA06, -118.213, 34.741, 2338, 58.5, 0.35
SANDBERG, Los Angeles, CA06, -118.724, 34.744, 4510, 55.2, 0.66
LEBEC, Kern, CA05, -118.865, 34.833, 3575, 51.3, 2.42
NEW CUYAMA FIRE STATION, Santa Barbara, CA06, -119.683, 34.946, 2160, 54.0, 0.37
TWITCHELL DAM, Santa Barbara, CA06, -120.321, 34.988, 582, 60.8, 1.69
MOJAVE, Kern, CA07, -118.162, 35.049, 2735, 59.3, 0.00
PISMO BEACH, San Luis Obispo, CA04, -120.683, 35.160, 39, 55.4, 0.52
BAKER, San Bernardino, CA07, -116.063, 35.276, 962, 64.4, 0.23
SALINAS DAM, San Luis Obispo, CA04, -120.504, 35.337, 1392, 57.4, 0.86
RANDSBURG, Kern, CA07, -117.652, 35.369, 3570, 58.6, 0.27
SANTA MARGARITA BOOST, San Luis Obispo, CA04, -120.637, 35.374, 1148, 57.8, 1.08
MORRO BAY FIRE DEPT, San Luis Obispo, CA04, -120.845, 35.367, 118, 58.7, 0.67
BAKERSFIELD AP, Kern, CA05, -119.055, 35.434, 490, 60.5, 0.83
BUTTONWILLOW, Kern, CA05, -119.470, 35.403, 225, 59.9, 0.53
LOST HILLS, Kern, CA05, -119.689, 35.618, 288, M, 0.72
GLENNVILLE, Kern, CA05, -118.701, 35.727, 3140, 47.4, 0.39
TRONA, San Bernardino, CA07, -117.391, 35.764, 1695, 61.6, 0.29
DELANO, Kern, CA05, -119.260, 35.768, 302, 59.0, 0.99
BRADLEY TELEMETERING, Monterey, CA04, -120.868, 35.930, 443, M, 0.36
KETTLEMAN CITY, Kings, CA05, -119.960, 36.007, 240, 59.4, 0.97
HAIWEE, Inyo, CA07, -117.953, 36.139, 3825, 59.1, 0.10
CORCORAN IRRIGATION DIST., Kings, CA05, -119.582, 36.098, 200, 58.6, 0.88
COALINGA, Fresno, CA05, -120.361, 36.136, 670, 60.1, T
KING CITY, Monterey, CA04, -121.138, 36.207, 320, 58.4, 0.55
LINDSAY, Tulare, CA05, -119.054, 36.203, 435, 58.9, 0.63
BIG SUR STATION, Monterey, CA04, -121.780, 36.247, 200, 54.6, 0.81
VISALIA, Tulare, CA05, -119.300, 36.328, 303, 58.3, 0.51
FIVE POINTS 5 SSW, Fresno, CA05, -120.156, 36.364, 285, 60.2, 0.84
SAN CLEMENTE DAM, Monterey, CA04, -121.709, 36.438, 600, M, 0.46
ASH MOUNTAIN, Tulare, CA05, -118.825, 36.491, 1708, 56.0, 0.98
THREE RIVERS EDISON PH 1, Tulare, CA05, -118.862, 36.465, 1140, 56.6, 1.10
PINNACLES NATIONAL PARK, San Benito, CA04, -121.182, 36.482, 1307, 55.2, 0.34
CARMEL VALLEY, Monterey, CA04, -121.724, 36.481, 480, 55.5, 0.67
LODGEPOLE, Tulare, CA05, -118.732, 36.604, 6735, 36.7, 1.24
PANOCHE 2 W, San Benito, CA05, -120.884, 36.607, 1400, M, 0.29
MONTEREY, Monterey, CA04, -121.855, 36.593, 122, 53.3, 0.98
SALINAS NO. 2, Monterey, CA04, -121.666, 36.659, 45, 55.2, 0.72
SALINAS AP, Monterey, CA04, -121.609, 36.664, 73, 55.8, 0.41
GRANT GROVE, Tulare, CA05, -118.962, 36.738, 6580, 41.9, 1.72
PINE FLAT DAM, Fresno, CA05, -119.337, 36.821, 615, 59.3, 0.41
LOS BANOS ARBURUA RANCH, Merced, CA05, -120.939, 36.875, 843, M, 0.25
HOLLISTER 2, San Benito, CA04, -121.421, 36.848, 275, 56.4, 0.11
BALCH POWER HOUSE, Fresno, CA05, -119.088, 36.909, 1735, 56.5, 0.85
WATSONVILLE WATERWORKS, Santa Cruz, CA04, -121.769, 36.931, 95, 55.6, 0.53
FRIANT GOVERNMENT CAMP, Fresno, CA05, -119.707, 36.997, 410, 57.8, 0.27
MADERA, Madera, CA05, -120.038, 36.954, 270, 59.3, 0.12
WISHON DAM, Fresno, CA05, -118.984, 37.007, 6550, M, 1.36
GILROY, Santa Clara, CA04, -121.561, 37.003, 194, 57.6, 0.02
AUBERRY 2 NW, Fresno, CA05, -119.513, 37.092, 2090, 55.7, 1.00
LOS BANOS, Merced, CA05, -120.867, 37.056, 120, 60.4, 0.32
BEN LOMOND NO. 4, Santa Cruz, CA04, -122.080, 37.086, 420, 57.5, 2.43
MORGAN HILL, Santa Clara, CA04, -121.602, 37.136, 375, M, M
HUNTINGTON LAKE, Fresno, CA05, -119.221, 37.228, 7020, M, 1.80
NORTH FORK RS, Madera, CA05, -119.510, 37.233, 2645, 52.3, 1.54
LOS GATOS, Santa Clara, CA04, -121.959, 37.232, 365, 54.2, 0.75
NEWMAN, Stanislaus, CA05, -121.018, 37.281, 90, 59.8, 0.48
MOUNT HAMILTON, Santa Clara, CA04, -121.635, 37.343, 4220, 49.5, 1.06
BISHOP AIRPORT, Inyo, CA07, -118.359, 37.371, 4110, 52.9, T
MOFFETT FEDERAL AIRFIELD, Santa Clara, CA04, -122.048, 37.406, 39, 57.2, 0.79
WOODSIDE FIRE STATION 1, San Mateo, CA04, -122.256, 37.429, 380, 55.6, 1.00
PALO ALTO, Santa Clara, CA04, -122.140, 37.444, 25, 55.0, 0.72
REDWOOD CITY, San Mateo, CA04, -122.239, 37.477, 31, 56.4, 0.71
HALF MOON BAY, San Mateo, CA04, -122.443, 37.473, 27, 50.8, 1.34
SO ENTRANCE YOSEMITE N.P., Mariposa, CA05, -119.633, 37.512, 5047, 41.7, 2.65
MARIPOSA R S, Mariposa, CA05, -119.986, 37.495, 2100, M, 1.32
NEWARK, Alameda, CA04, -122.032, 37.515, 10, 56.5, 0.69
EXCHEQUER DAM, Mariposa, CA05, -120.267, 37.585, 442, M, 1.38
MODESTO AP, Stanislaus, CA05, -120.955, 37.625, 87, 59.5, 1.07
HAYWARD AIR TERMINAL, Alameda, CA04, -122.121, 37.659, 31, 56.0, 0.34
TRACY CARBONA, San Joaquin, CA05, -121.347, 37.682, 135, 56.0, 0.38
LIVERMORE MUNICIPAL AP, Alameda, CA04, -121.815, 37.693, 393, 56.0, 0.44
OAKLAND INTERNATIONAL AIRPORT, Alameda, CA04, -122.233, 37.718, 5, 56.6, 0.49
UPPER SAN LEANDRO FILTERS, Alameda, CA04, -122.167, 37.772, 394, M, 0.96
SAN FRANCISCO DOWNTOWN, San Francisco, CA04, -122.427, 37.771, 150, 55.2, 0.97
SAN FRANCISCO OCEANSIDE, San Francisco, CA04, -122.505, 37.728, 8, 51.2, 0.41
GROVELAND 2, Tuolumne, CA05, -120.226, 37.844, 2800, 49.2, 2.12
TRACY PUMPING PLANT, Alameda, CA05, -121.583, 37.796, 61, 59.5, 0.23
OAKLAND MUSEUM, Alameda, CA04, -122.264, 37.798, 30, 57.3, 0.70
TUOLUMNE MEADOWS R.S., Tuolumne, CA05, -119.344, 37.877, 8694, 31.9, 1.70
MOUNT DIABLO JUNCTION, Contra Costa, CA04, -121.930, 37.879, 2170, 53.7, 0.63
STOCKTON AP, San Joaquin, CA05, -121.226, 37.890, 27, 57.5, 0.89
RICHMOND, Contra Costa, CA04, -122.377, 37.919, 20, 55.7, 0.71
MUIR WOODS, Marin, CA01, -122.569, 37.898, 220, 54.2, 1.78
SONORA, Tuolumne, CA05, -120.387, 37.967, 1675, 52.1, 1.72
STOCKTON FIRE STA 4, San Joaquin, CA05, -121.318, 37.999, 12, 56.1, 0.20
ANTIOCH PUMPING PLANT #3, Contra Costa, CA05, -121.752, 37.983, 60, 58.9, 0.15
CONCORD BUCHANAN FIELD, Contra Costa, CA04, -122.053, 37.992, 23, 56.0, 0.68
CONCORD WASTEWATER PLANT, Contra Costa, CA04, -122.069, 37.983, 40, 58.1, 0.56
SAN RAFAEL-CIVIC CENTER, Marin, CA01, -122.537, 37.998, 120, 55.4, 0.95
KENTFIELD, Marin, CA01, -122.545, 37.957, 145, 55.4, 0.84
MARTINEZ WATER PLANT, Contra Costa, CA04, -122.114, 38.013, 40, 55.2, 0.46
SAN ANDREAS 2, Calaveras, CA05, -120.671, 38.191, 1100, 55.4, 1.66
BODIE CALIFORNIA STATE HISTORIC PARK, Mono, CA03, -119.014, 38.212, 8370, 33.2, 0.12
ACAMPO 5NE, San Joaquin, CA05, -121.201, 38.218, 87, M, 1.50
NAPA COUNTY AIRPORT, Napa, CA04, -122.280, 38.208, 16, 53.1, 0.37
BRIDGEPORT, Mono, CA03, -119.229, 38.258, 6470, 38.8, 0.38
TRAVIS FIELD AFB, Solano, CA02, -121.933, 38.267, 62, 56.4, 0.34
FAIRFIELD, Solano, CA02, -122.068, 38.274, 40, 57.4, 1.07
SONOMA, Sonoma, CA01, -122.462, 38.299, 97, 54.0, 0.66
SUTTER HILL CDF, Amador, CA05, -120.801, 38.377, 1586, 57.1, 0.89
WEST POINT, Calaveras, CA05, -120.545, 38.378, 2775, M, 3.13
ATLAS ROAD BROWN, Napa, CA01, -122.248, 38.427, 1680, M, 1.12
GRATON, Sonoma, CA01, -122.865, 38.431, 200, 54.2, 1.95
OCCIDENTAL, Sonoma, CA01, -122.966, 38.386, 865, 53.0, 2.86
FIDDLETOWN DEXTER RCH, Amador, CA05, -120.698, 38.525, 2170, M, 2.89
SACRAMENTO AP ASOS, Sacramento, CA02, -121.496, 38.507, 19, 56.9, 1.38
WINTERS, Yolo, CA02, -121.978, 38.525, 135, 58.2, 0.57
LAKE SOLANO, Solano, CA02, -122.004, 38.492, 187, 57.5, 0.60
SAINT HELENA, Napa, CA01, -122.471, 38.507, 225, 56.8, 0.36
SAINT HELENA 4 WSW, Napa, CA01, -122.538, 38.493, 1780, M, 1.80
SACRAMENTO 5 ESE, Sacramento, CA02, -121.418, 38.555, 38, 59.4, 1.59
ANGWIN PACIFIC UNION COLLEGE, Napa, CA01, -122.440, 38.573, 1715, 53.1, 2.10
CALISTOGA, Napa, CA01, -122.578, 38.577, 350, 52.3, 1.79
VENADO, Sonoma, CA01, -123.018, 38.609, 1260, M, 2.88
WOODLAND 1 WNW, Yolo, CA02, -121.794, 38.683, 67, 57.2, 1.60
PLACERVILLE IFG, El Dorado, CA02, -120.733, 38.733, 2755, 54.0, 2.99
SACRAMENTO METROPOLITAN AP, Sacramento, CA02, -121.595, 38.701, 24, 56.8, 1.50
PACIFIC HOUSE, El Dorado, CA02, -120.503, 38.758, 3450, 48.1, 4.07
MIDDLETOWN, Lake, CA02, -122.626, 38.748, 1121, M, 3.23
CLOVERDALE, Sonoma, CA01, -123.026, 38.793, 400, 56.8, 3.02
KELSEY 1 N, El Dorado, CA02, -120.821, 38.809, 2000, M, 2.88
SOUTH LAKE TAHOE AP, El Dorado, CA03, -119.996, 38.898, 6257, 40.0, 1.34
GEORGETOWN RS, El Dorado, CA02, -120.801, 38.933, 3001, 51.5, 3.35
AUBURN, Placer, CA02, -121.084, 38.907, 1292, 55.1, 1.49
NICOLAUS #2, Sutter, CA02, -121.545, 38.926, 43, M, 1.46
YORKVILLE, Mendocino, CA01, -123.231, 38.905, 1100, M, 2.68
CLEARLAKE 4 SE, Lake, CA02, -122.567, 38.924, 1349, 51.8, 1.53
FORESTHILL RANGER STATION, Placer, CA02, -120.845, 39.010, 3015, M, 3.06
HELL HOLE, Placer, CA02, -120.415, 39.058, 4850, M, 2.98
MARYSVILLE AIRPORT (ASOS), Yuba, CA02, -121.569, 39.102, 62, 57.2, 2.18
UKIAH MUNICIPAL AP, Mendocino, CA01, -123.200, 39.128, 603, 53.4, 2.21
UKIAH 4 WSW, Mendocino, CA01, -123.272, 39.127, 1328, M, 2.67
PARADISE, Butte, CA02, -121.624, 39.754, 1750, 55.8, 3.16
COVELO, Mendocino, CA01, -123.244, 39.816, 1413, 52.3, 2.70
VINTON, Plumas, CA02, -120.186, 39.806, 4950, 47.4, 0.42
PORTOLA, Plumas, CA02, -120.472, 39.805, 4850, 41.9, 0.87
DE SABLA, Butte, CA02, -121.611, 39.872, 2710, M, 5.35
LEGGETT, Mendocino, CA01, -123.720, 39.874, 703, M, 5.20
BUCKS CREEK, Plumas, CA02, -121.315, 39.937, 1891, M, 2.68
DOYLE 4 SSE, Lassen, CA03, -120.083, 39.972, 4390, 44.9, 0.38
MIRANDA 4 SE, Humboldt, CA01, -123.776, 40.182, 266, M, 4.00
FORT SEWARD, Humboldt, CA01, -123.632, 40.218, 220, M, 4.08
HONEYDEW 1 SW, Humboldt, CA01, -124.132, 40.238, 373, M, 4.80
CHESTER, Plumas, CA02, -121.242, 40.303, 4530, 42.1, 2.76
MINERAL, Tehama, CA02, -121.609, 40.346, 4875, 40.9, 5.27
GOLD RUN 4 SW, Placer, CA02, -120.900, 39.150, 3220, M, 3.86
WILLIAMS, Colusa, CA02, -122.150, 39.150, 85, M, 3.28
GRASS VALLEY NO. 2, Nevada, CA02, -121.068, 39.204, 2400, 50.3, 3.15
HARRY L. ENGLEBRIGHT DAM, Nevada, CA02, -121.267, 39.237, 800, M, 2.98
BLUE CANYON NYACK AP, Placer, CA02, -120.709, 39.276, 5286, 45.9, 5.32
NEVADA CITY, Nevada, CA02, -121.001, 39.247, 2781, 50.6, 3.82
TRUCKEE AIRPORT, Nevada, CA03, -120.139, 39.320, 5900, 37.5, 1.24
TRUCKEE RS, Nevada, CA03, -120.173, 39.333, 5823, M, 0.19
DONNER MEMORIAL ST PARK, Nevada, CA03, -120.233, 39.324, 5937, 38.2, 2.81
COLGATE POWERHOUSE, Yuba, CA02, -121.192, 39.331, 595, M, 2.61
MOULTON WEIR, Colusa, CA02, -122.017, 39.333, 76, M, 0.88
BOCA, Nevada, CA03, -120.094, 39.389, 5575, 39.4, 1.16
POTTER VALLEY POWERHOUSE, Mendocino, CA01, -123.129, 39.362, 1018, 53.3, 3.32
FARAD, Nevada, CA03, -120.033, 39.428, 5153, M, 0.80
OROVILLE, Butte, CA02, -121.553, 39.518, 171, 57.5, 2.36
OROVILLE MUNICIPAL AP, Butte, CA02, -121.622, 39.494, 187, 56.6, 2.04
SIERRAVILLE RS, Sierra, CA02, -120.370, 39.583, 4975, 42.6, 0.74
STRAWBERRY VALLEY, Yuba, CA02, -121.108, 39.563, 3808, 46.6, 6.19
STONY GORGE RESERVOIR, Glenn, CA02, -122.534, 39.586, 800, 53.0, 0.66
BRUSH CREEK RANGER STATION, Butte, CA02, -121.345, 39.695, 3560, M, 6.21
COLEMAN FISHERIES STATION, Shasta, CA02, -122.143, 40.400, 420, M, 2.65
VOLTA PH, Shasta, CA02, -121.866, 40.458, 2220, M, 1.42
SCOTIA, Humboldt, CA01, -124.104, 40.483, 136, 51.1, 3.45
MANZANITA LAKE, Shasta, CA02, -121.577, 40.541, 5750, 38.2, 2.54
WHISKEYTOWN RESERVOIR, Shasta, CA02, -122.528, 40.612, 1295, 54.7, 4.39
SHASTA DAM, Shasta, CA02, -122.416, 40.714, 1075, 57.0, 4.47
TRINITY RIVER HATCHERY, Trinity, CA01, -122.795, 40.726, 1861, 50.4, 2.01
BIG BAR 4 E, Trinity, CA01, -123.208, 40.741, 1253, 52.6, 2.41
BUCKHORN, Shasta, CA02, -121.932, 40.880, 3700, M, 4.31
PIT RIVER PH 5, Shasta, CA02, -121.977, 40.987, 1458, M, 6.03
WILLOW CREEK 1 NW, Humboldt, CA01, -123.636, 40.947, 464, 53.6, 2.42
FALL RIVER MILLS, Shasta, CA02, -121.435, 41.008, 3300, M, 0.87
ADIN RANGER STATION, Modoc, CA02, -120.945, 41.193, 4202, M, 0.42
DUNSMUIR TREATMENT PL, Siskiyou, CA02, -122.282, 41.183, 2169, 47.7, 5.07
JESS VALLEY, Modoc, CA02, -120.295, 41.268, 5400, 38.5, 0.42
MCCLOUD, Siskiyou, CA02, -122.138, 41.252, 3233, 44.8, 2.97
ORICK, Humboldt, CA01, -124.067, 41.283, 5, M, 3.40
CALLAHAN, Siskiyou, CA01, -122.825, 41.338, 3085, 44.6, 1.62
SAWYERS BAR RS, Siskiyou, CA01, -123.133, 41.301, 2255, 44.0, 3.45
ORLEANS RS, Humboldt, CA01, -123.534, 41.303, 433, M, 2.96
ALTURAS, Modoc, CA02, -120.544, 41.490, 4378, 40.1, 0.17
FORT JONES RS, Siskiyou, CA01, -122.848, 41.601, 2729, 43.1, 0.96
LAVA BEDS NAT MON, Siskiyou, CA01, -121.501, 41.702, 4770, 41.5, 0.27
MOUNT HEBRON RS, Siskiyou, CA01, -122.045, 41.783, 4265, 41.1, 0.17
CRESCENT CITY 3 NNW, Del Norte, CA01, -124.215, 41.796, 43, 47.5, 5.96
CRESCENT CITY MCNAMARA AP, Del Norte, CA01, -124.238, 41.784, 56, 47.9, 4.79
OAK KNOLL W. C., Siskiyou, CA01, -122.850, 41.839, 1980, M, 1.00
FORT BIDWELL, Modoc, CA03, -120.157, 41.872, 4739, 42.4, 0.47
GASQUET RS, Del Norte, CA01, -123.965, 41.845, 387, 48.8, 5.76
FORT DICK RIVER, Del Norte, CA01, -124.135, 41.881, -, M, 5.72
TULELAKE, Siskiyou, CA01, -121.474, 41.960, 4038, 41.0, 0.27
COPCO NO 1 DAM, Siskiyou, CA01, -122.338, 41.980, 2665, 47.6, 0.55
ELK VALLEY, Del Norte, CA01, -123.718, 41.988, 1708, M, 3.80
BARSTOW, San Bernardino, CA07, -117.022, 34.893, 2220, 60.8, 0.41
PEARBLOSSOM, Los Angeles, CA07, -117.897, 34.503, 3101, 58.6, 0.00
EL CAJON, San Diego, CA06, -116.928, 32.801, 495, 61.4, 1.35
MARKLEY COVE, Napa, CA02, -122.124, 38.492, 480, 54.6, 1.00
LORAINE 5 NNE, Kern, CA05, -118.412, 35.384, 4235, 49.6, T
DEL MAR FIRE DEPT, San Diego, CA06, -117.262, 32.972, 12, M, 0.00
LEE VINING, Mono, CA07, -119.119, 37.957, 6797, 43.8, 0.03
ANAHEIM, Orange, CA06, -117.842, 33.865, 235, 62.9, 1.25
NEW MELONES DAM HQ, Tuolumne, CA05, -120.486, 38.005, 960, 57.2, 2.34
MAMMOTH LAKES RS, Mono, CA07, -118.962, 37.648, 7804, 38.9, 0.60
FRAZIER PARK 9 SW, Ventura, CA05, -119.104, 34.733, 5169, M, 1.19
MONTEREY WFO, Monterey, CA04, -121.855, 36.593, 122, 52.0, 1.05
SKYLINE RIDGE PRESERVE, San Mateo, CA04, -122.185, 37.313, 2270, 52.9, 2.10
FREMONT, Alameda, CA04, -122.016, 37.542, 38, 56.3, 0.31
MAD RIVER 12 SE, Trinity, CA01, -123.374, 40.319, 2763, M, 4.96
NEWHALL 5NW, Los Angeles, CA06, -118.594, 34.393, 1765, 63.2, 0.80
TEHACHAPI 4 SE, Kern, CA05, -118.422, 35.101, 4220, 49.4, 0.41
WRIGHTWOOD, San Bernardino, CA07, -117.639, 34.362, 6000, M, 0.26
NORTHRIDGE CAL STATE, Los Angeles, CA06, -118.525, 34.245, 904, 62.4, 1.04
OXNARD WFO, Ventura, CA06, -119.137, 34.207, 52, 57.0, 0.96
HANFORD MUNICIPAL AP, Kings, CA05, -119.623, 36.311, 249, 58.9, 0.67
RAMONA AIRPORT, San Diego, CA06, -116.916, 33.038, 1385, 55.4, 1.41
VACAVILLE/NUT TREE AP ASOS, Solano, CA02, -121.959, 38.378, 104, 56.3, 0.56
ALTURAS MUNICIPAL AP, Modoc, CA02, -120.561, 41.484, 4383, 40.0, 0.32
MADERA MUNICIPAL AP, Madera, CA05, -120.111, 36.985, 251, 58.4, 0.75
BAKERSFIELD 5 NW, Kern, CA05, -119.051, 35.419, 470, 60.0, 0.81
FRESNO 5 NE, Fresno, CA05, -119.709, 36.767, 338, 61.1, 0.63
OCEANSIDE MUNICIPAL AP, San Diego, CA06, -117.350, 33.219, 30, 57.2, 1.62
SAN DIEGO SEAWORLD, San Diego, CA06, -117.231, 32.765, 14, 57.5, 1.33
ARCATA EUREKA AP, Humboldt, CA01, -124.105, 40.978, 211, 45.8, 3.47
NEWPORT BEACH HARBOR, Orange, CA06, -117.884, 33.603, 10, 57.6, 0.30
ESCONDIDO NO. 2, San Diego, CA06, -117.090, 33.121, 600, 61.6, 1.74
REDDING AP, Shasta, CA02, -122.298, 40.515, 501, 56.1, 3.45
AVALON CATALINA AP, Los Angeles, CA06, -118.415, 33.404, 1565, 58.0, 0.47
SANTA MARIA PUBLIC AP, Santa Barbara, CA06, -120.452, 34.894, 243, 56.5, 0.70
MOUNT SHASTA, Siskiyou, CA02, -122.333, 41.333, 3535, 44.9, 2.89
RED BLUFF MUNI AP, Tehama, CA02, -122.255, 40.152, 354, 57.2, 0.93
NEEDLES AIRPORT, San Bernardino, CA07, -114.618, 34.768, 888, 69.8, 0.25
CHINA LAKE NAF, Kern, CA07, -117.693, 35.688, 2230, 60.8, 0.19
SUSANVILLE 2SW, Lassen, CA03, -120.663, 40.417, 4212, 44.4, 0.26
TEJON RANCHO, Kern, CA05, -118.750, 35.023, 1425, 58.3, 1.03
BURBANK GLENDALE PASADENA AP, Los Angeles, CA06, -118.365, 34.200, 731, 64.0, 0.89
OAKLAND 7.8 SE, Alameda, CA04, -122.139, 37.764, 395, M, 0.52
SUTTER CREEK 0.1 WSW, Amador, CA05, -120.805, 38.390, 1266, M, 2.65
PINE GROVE 1.9 SSE, Amador, CA05, -120.641, 38.389, 2714, M, 2.23
CHICO 2.9 W, Butte, CA02, -121.861, 39.749, 190, M, 1.35
CHICO 8.9 NW, Butte, CA02, -121.905, 39.859, 266, M, 1.58
CHICO 1.8 SW, Butte, CA02, -121.832, 39.737, 209, M, 1.49
MAGALIA 2.3 SE, Butte, CA02, -121.582, 39.804, 2327, M, 3.48
CHICO 5.5 NW, Butte, CA02, -121.891, 39.800, 191, M, 1.36
MORAGA 2.4 NNW, Contra Costa, CA04, -122.138, 37.870, 748, M, 0.85
SMITH RIVER 1.1 SSE, Del Norte, CA01, -124.136, 41.915, 120, M, 6.58
FORT DICK 0.2 SSW, Del Norte, CA01, -124.151, 41.865, 49, M, 6.63
CAMINO 2.6 ESE, El Dorado, CA02, -120.634, 38.719, 3108, M, 3.57
TOLLHOUSE 2.8 SSE, Fresno, CA05, -119.396, 36.978, 2111, M, 1.23
CLOVIS 1.3 NE, Fresno, CA05, -119.681, 36.833, 375, M, 0.69
FRESNO 2.4 NW, Fresno, CA05, -119.822, 36.805, 319, M, 0.42
SAN FERNANDO 4.2 E, Los Angeles, CA06, -118.363, 34.279, 1239, M, 1.10
SUSANVILLE 3.5 SSW, Lassen, CA03, -120.674, 40.363, 4347, M, 0.87
SUSANVILLE 0.6 WSW, Lassen, CA03, -120.660, 40.407, 4220, M, 0.47
AHWAHNEE 2.5 NNW, Madera, CA05, -119.738, 37.400, 2840, M, 0.80
WESTPORT 1.6 NNE, Mendocino, CA01, -123.770, 39.657, 722, M, 2.85
ALBION 4.0 SE, Mendocino, CA01, -123.710, 39.188, 636, M, 1.88
LAYTONVILLE 9.8 NNW, Mendocino, CA01, -123.534, 39.814, 2078, M, 4.64
LUCAS VALLEY 0.7 SSW, Marin, CA01, -122.571, 38.027, 185, M, 0.87
FAIRFAX 0.6 SSE, Marin, CA01, -122.591, 37.981, 146, M, 1.19
MONTEREY 1.5 WSW, Monterey, CA04, -121.905, 36.590, 235, M, 1.06
MONTEREY 1.1 SSW, Monterey, CA04, -121.886, 36.586, 164, M, 1.12
AMERICAN CANYON 3.5 NE, Napa, CA01, -122.217, 38.210, 319, M, 0.11
ALTA SIERRA 2.3 WSW, Nevada, CA02, -121.089, 39.106, 1677, M, 2.38
GRASS VALLEY 4.2 SE, Nevada, CA02, -120.993, 39.186, 2784, M, 3.52
GRASS VALLEY 1.3 NNE, Nevada, CA02, -121.046, 39.238, 2782, M, 2.97
GRASS VALLEY 2.7 SW, Nevada, CA02, -121.092, 39.194, 2334, M, 3.28
ORANGE 3.0 ENE, Orange, CA06, -117.778, 33.826, 649, M, 0.74
ROCKLIN 1.1 N, Placer, CA02, -121.244, 38.818, 550, M, 1.06
ROSEVILLE 2.4 SE, Placer, CA02, -121.257, 38.740, 156, M, 2.18
APPLEGATE 0.5 SE, Placer, CA02, -120.986, 38.996, 1983, M, 2.19
LAKE ELSINORE 4.7 SSW, Riverside, CA06, -117.359, 33.609, 3095, M, 1.39
MURRIETA 4.3 ENE, Riverside, CA06, -117.140, 33.584, 1312, M, 0.00
SACRAMENTO 4.7 SW, Sacramento, CA02, -121.520, 38.512, 8, M, 1.44
FAIR OAKS 1.9 N, Sacramento, CA02, -121.252, 38.676, 199, M, 0.00
MORGAN HILL 2.7 S, Santa Clara, CA04, -121.632, 37.092, 338, M, 1.07
SAN JOSE 5.8 NNE, Santa Clara, CA04, -121.824, 37.386, 293, M, 0.89
SAN JOSE 3.3 SSE, Santa Clara, CA04, -121.827, 37.259, 179, M, 0.94
ENCINITAS 2.7N, San Diego, CA06, -117.292, 33.076, 188, M, 1.23
CARLSBAD 8.7SE, San Diego, CA06, -117.221, 33.095, 605, M, 1.33
ESCONDIDO 7.2 SE, San Diego, CA06, -116.992, 33.056, 1585, M, 1.37
RAMONA 3ENE, San Diego, CA06, -116.828, 33.051, 2034, M, 1.67
SAN DIEGO 8NE, San Diego, CA06, -117.064, 32.800, 312, M, 1.36
RANCHO BERNARDO 1.9WSW, San Diego, CA06, -117.106, 33.014, 687, M, 1.75
SAN DIEGO 13.9N, San Diego, CA06, -117.163, 32.917, 406, M, 1.33
SAN FRANCISCO 3.0 W, San Francisco, CA04, -122.474, 37.778, 205, M, 0.60
SHINGLETOWN 10.3 ENE, Shasta, CA02, -121.701, 40.532, 4217, M, 3.80
REDDING 3.3 N, Shasta, CA02, -122.376, 40.619, 665, M, 3.48
SHINGLETOWN 2.8 NNW, Shasta, CA02, -121.909, 40.530, 2582, M, 3.08
ANDERSON 1.5 WNW, Shasta, CA02, -122.319, 40.459, 439, M, 2.65
REDDING 2.8 NW, Shasta, CA02, -122.401, 40.602, 661, M, 3.10
SHINGLETOWN 3.5 ENE, Shasta, CA02, -121.834, 40.519, 3796, M, 4.33
REDDING 1.6 W, Shasta, CA02, -122.395, 40.575, 635, M, 1.81
MOUNT SHASTA 5.1 NW, Siskiyou, CA02, -122.397, 41.364, 3911, M, 3.33
DORRIS 0.2 SW, Siskiyou, CA01, -121.923, 41.963, 4249, M, 0.12
TEMPLETON 0.4 E, San Luis Obispo, CA04, -120.701, 35.555, 792, M, 0.34
TEMPLETON 5.5 WSW, San Luis Obispo, CA04, -120.804, 35.535, 1469, M, 1.02
HALF MOON BAY 0.7 NW, San Mateo, CA04, -122.445, 37.478, 36, M, 1.52
EL GRANADA 0.7 W, San Mateo, CA04, -122.479, 37.509, 78, M, 1.37
CAZADERO 6.9 WNW, Sonoma, CA01, -123.206, 38.565, 645, M, 2.62
CAZADERO 5.6 W, Sonoma, CA01, -123.189, 38.532, 1211, M, 1.27
GUERNEVILLE 2.0 SSW, Sonoma, CA01, -123.005, 38.485, 69, M, 2.83
GLEN ELLEN 1.9 NNW, Sonoma, CA01, -122.551, 38.382, 365, M, 1.52
RANCHO CUCAMONGA 1.6 W, San Bernardino, CA06, -117.598, 34.122, 1379, M, 0.69
BARSTOW 4.2 NE, San Bernardino, CA07, -117.018, 34.924, 2170, M, 0.32
FAWNSKIN 0.3 NE, San Bernardino, CA06, -116.938, 34.271, 7030, M, 0.80
SOQUEL 0.8 NE, Santa Cruz, CA04, -121.936, 37.002, 414, M, 1.35
SANTA CRUZ 3.1 NW, Santa Cruz, CA04, -122.075, 37.006, 969, M, 1.69
RED BLUFF 6.0 W, Tehama, CA02, -122.352, 40.159, 418, M, 1.56
COTTONWOOD 7.7 SSW, Tehama, CA02, -122.333, 40.287, 635, M, 0.89
RED BLUFF 2.3 N, Tehama, CA02, -122.235, 40.207, 428, M, 0.53
RED BLUFF 7.2 WNW, Tehama, CA02, -122.360, 40.224, 557, M, 1.65
RED BLUFF 1.1 S, Tehama, CA02, -122.236, 40.158, 323, M, 1.03
COTTONWOOD 4.4 ESE, Tehama, CA02, -122.201, 40.369, 567, M, 1.35
RED BLUFF 5.1 NNW, Tehama, CA02, -122.281, 40.242, 497, M, 1.36
COTTONWOOD 9.1 SW, Tehama, CA02, -122.378, 40.282, 639, M, 1.60
RED BLUFF 3.2 NNW, Tehama, CA02, -122.266, 40.216, 368, M, 1.43
RED BLUFF 4.5 W, Tehama, CA02, -122.326, 40.171, 501, M, 1.54
COTTONWOOD 3.6 SSW, Tehama, CA02, -122.302, 40.341, 554, M, 1.69
MOUNT SHASTA, Siskiyou, CA02, -122.317, 41.322, 3613, 45.8, 3.46
WATSONVILLE MUNICIPAL AIRPORT, Santa Cruz, CA04, -121.790, 36.939, 162, 53.9, 0.59
SANTA ROSA SONOMA CO AP, Sonoma, CA04, -122.811, 38.504, 119, 53.5, 2.55
HEARST CASTLE, San Luis Obispo, CA04, -121.168, 35.684, 1526, 57.0, 1.29
GETTY CENTER, Los Angeles, CA06, -118.479, 34.087, 1117, 56.9, 2.81
HESPERIA 2E, San Bernardino, CA07, -117.266, 34.421, 3055, 58.5, 0.09
RANCHO BERNARDO, San Diego, CA06, -117.081, 33.022, 690, 60.2, 1.49
APPLE VALLEY #2, San Bernardino, CA07, -117.279, 34.536, 2780, M, 0.10
OCOTILLO WELLS 2W, San Diego, CA07, -116.169, 33.155, 390, 73.9, 0.05
IRVINE RANCH, Orange, CA06, -117.723, 33.720, 540, 60.3, 0.74
MT. LAGUNA #3, San Diego, CA07, -116.419, 32.867, 5920, 49.0, 1.31
AVALON INLAND, Los Angeles, CA06, -118.330, 33.338, 90, 52.5, 0.37
DESERT CENTER 2 NNE, Riverside, CA07, -115.392, 33.738, 747, 65.4, 0.00
TORRANCE AP, Los Angeles, CA06, -118.342, 33.802, 90, 58.6, 0.80
MERCED 23 WSW, Merced, CA05, -120.882, 37.238, 78, 56.4, 0.68
REDDING 12 WNW, Shasta, CA02, -122.607, 40.651, 1418, 54.3, 3.48
STOVEPIPE WELLS 1 SW, Inyo, CA07, -117.145, 36.602, 84, 72.0, 0.00
RED BLUFF 2.8 N, Tehama, CA02, -122.243, 40.215, 406, M, 1.26
COTTONWOOD 6.7 SSW, Tehama, CA02, -122.347, 40.307, 585, M, 1.45
LOS ANGELES DOWNTOWN/USC, Los Angeles, CA06, -118.291, 34.024, 179, 62.0, 0.54
FRESNO YOSEMITE INT'L, Fresno, CA05, -119.720, 36.780, 334, 62.1, 0.65
MONTEREY PENINSUL AP, Monterey, CA04, -121.849, 36.590, 160, 52.4, 1.21
PASO ROBLES MUNICIPAL AP, San Luis Obispo, CA04, -120.629, 35.669, 820, 57.0, 0.44
MONTAGUE SISKIYOU AIRPORT, Siskiyou, CA01, -122.468, 41.774, 2645, 44.8, 0.78
SAN JOSE, Santa Clara, CA04, -121.924, 37.359, 49, 56.7, 0.87
PALM SPRINGS ASOS, Riverside, CA07, -116.504, 33.822, 409, 71.2, 0.04
FILLMORE 2 W, Ventura, CA06, -118.945, 34.409, 495, M, 0.68
SAN DIEGO BROWN FIELD, San Diego, CA06, -116.994, 32.576, 521, 58.4, 1.06
Bakersfield Area, -, -, -, -, -, 60.5, 0.83
Bishop Area, -, -, -, -, -, 52.9, T
Los Angeles Downtown Area, -, -, -, -, -, 62.0, 0.54
Eureka Area, -, -, -, -, -, 47.6, 3.09
Fresno Area, -, -, -, -, -, 62.1, 0.65
Los Angeles Airport Area, -, -, -, -, -, 59.2, 0.66
Long Beach Area, -, -, -, -, -, 61.1, 0.85
Redding Area, -, -, -, -, -, 56.1, 3.45
Sacramento Area, -, -, -, -, -, 56.9, 1.38
San Diego Area, -, -, -, -, -, 60.1, 1.22
Stockton Area, -, -, -, -, -, 57.5, 0.89
San Francisco Airport Area, -, -, -, -, -, 54.6, 0.49
Santa Maria Area, -, -, -, -, -, 56.5, 0.70
CAMP PENDLETON MCAS, San Diego, CA06, -117.355, 33.304, 70, 58.4, 0.00
LEMOORE REEVES NAS, Fresno, CA05, -119.950, 36.333, 232, 58.1, 0.79
RED BLUFF 6.2 NW, Tehama, CA02, -122.334, 40.228, 474, M, 1.61
CORNING 4.4 ENE, Tehama, CA02, -122.102, 39.944, 216, M, 1.12
LOS MOLINOS 0.4 SE, Tehama, CA02, -122.092, 40.023, 224, M, 0.99
COTTONWOOD 3.9 SW, Tehama, CA02, -122.342, 40.358, 447, M, 1.16
GERBER-LAS FLORES 1.7 SW, Tehama, CA02, -122.172, 40.044, 257, M, 0.90
DAVIS 2.4 W, Yolo, CA02, -121.780, 38.559, 53, M, 0.87
MOUNTAIN PASS 1SE, San Bernardino, CA07, -115.531, 35.459, 4777, 50.0, 0.19
ARVIN, Kern, CA05, -118.834, 35.211, 450, 60.2, 0.08
CHIRIACO SUMMIT, Riverside, CA07, -115.721, 33.662, 1706, 63.9, 0.10
EDWARDS AFB NORTH AUXILIARY AIRFIELD, Kern, CA07, -117.865, 34.988, 2283, 57.7, 0.10
FALLBROOK 5 NE, San Diego, CA06, -117.190, 33.439, 1140, 60.9, 1.41
SANTA BARBARA 11 W, Santa Barbara, CA06, -119.880, 34.414, 18, 55.0, 1.62
BODEGA 6 WSW, Sonoma, CA01, -123.075, 38.321, 63, 48.9, 1.96
YOSEMITE VILLAGE 12 W, Mariposa, CA05, -119.821, 37.759, 6620, 43.3, 4.06
YUCCA MESA, San Bernardino, CA07, -116.407, 34.218, 3445, 60.8, 0.04
YUCCA VALLEY, San Bernardino, CA07, -116.388, 34.129, 3249, 59.2, 0.07
JOHNSON VALLEY, San Bernardino, CA07, -116.538, 34.359, 3167, 58.7, 0.06
REDONDO BEACH, Los Angeles, CA06, -118.376, 33.834, 142, 57.6, 0.97
BURBANK VALLEY PUMP PLANT, Los Angeles, CA06, -118.348, 34.187, 655, 61.3, 0.97
PIEDMONT 1.0 SE, Alameda, CA04, -122.216, 37.812, 372, M, 0.89
CASTRO VALLEY 0.4 NNE, Alameda, CA04, -122.059, 37.717, 536, M, 0.38
PLEASANTON 1.8 SSE, Alameda, CA04, -121.875, 37.648, 351, M, 0.13
FREMONT 2.6 ESE, Alameda, CA04, -121.952, 37.515, 30, M, 0.83
BERKELEY 3.8 ESE, Alameda, CA04, -122.230, 37.856, 882, M, 0.92
PLEASANTON 0.4 ESE, Alameda, CA04, -121.881, 37.670, 344, M, 0.50
VOLCANO 5.4 NE, Amador, CA05, -120.560, 38.497, 3488, M, 2.97
VOLCANO 6.4 NE, Amador, CA05, -120.536, 38.499, 3659, M, 3.38
OROVILLE 2.7 ENE, Butte, CA02, -121.518, 39.514, 535, M, 2.54
MARTINEZ 0.8 SSE, Contra Costa, CA04, -122.108, 37.990, 252, M, 0.58
WALNUT CREEK 1.7 SSE, Contra Costa, CA04, -122.034, 37.878, 243, M, 0.48
LAFAYETTE 0.7 E, Contra Costa, CA04, -122.104, 37.894, 248, M, 0.85
LAFAYETTE 1.9 WSW, Contra Costa, CA04, -122.153, 37.888, 518, M, 0.90
TWENTYNINE PALMS 12E - WONDER VALLEY, San Bernardino, CA07, -115.850, 34.121, 1376, 66.4, 0.00
MORONGO VALLEY NORTH, San Bernardino, CA07, -116.562, 34.086, 3145, 60.4, 0.20
SHAFTER 6E, Kern, CA05, -119.146, 35.487, 404, 58.3, 0.98
TRUCKEE-TAHOE AP, Nevada, CA03, -120.145, 39.318, 5900, 37.5, 1.24
MARTINEZ 2.2 SW, Contra Costa, CA04, -122.138, 37.974, 692, M, 0.61
ANTIOCH 2.2 WSW, Contra Costa, CA05, -121.838, 37.979, 178, M, 0.38
ALAMO 1.0 WSW, Contra Costa, CA04, -122.016, 37.854, 331, M, 0.42
CONCORD 0.8 WNW, Contra Costa, CA04, -122.013, 37.978, 124, M, 0.54
WALNUT CREEK 1.4 SSE, Contra Costa, CA04, -122.028, 37.885, 277, M, 0.44
ANTIOCH 2.2 SSE, Contra Costa, CA05, -121.781, 37.959, 245, M, 0.10
WALLACE 0.3 NE, Calaveras, CA05, -120.973, 38.197, 298, M, 1.65
CRESCENT CITY 5.5 NNE, Del Norte, CA01, -124.148, 41.824, 65, M, 2.67
PLACERVILLE 3.7 SW, El Dorado, CA02, -120.849, 38.695, 1755, M, 2.24
CAMERON PARK 0.9 SE, El Dorado, CA05, -120.976, 38.672, 1414, M, 0.92
PLACERVILLE 0.9 NE, El Dorado, CA02, -120.785, 38.739, 2036, M, 2.56
CLOVIS 2.9 N, Fresno, CA05, -119.693, 36.861, 382, M, 0.92
TOLLHOUSE 2.0 SSE, Fresno, CA05, -119.397, 36.990, 1673, M, 1.22
TOLLHOUSE 6.2 SSE, Fresno, CA05, -119.359, 36.934, 1397, M, 0.90
SANGER 6.8 N, Fresno, CA05, -119.553, 36.798, 418, M, 0.45
FRESNO 4.3 NNW, Fresno, CA05, -119.829, 36.836, 333, M, 0.47
HELM 2.7 NNE, Fresno, CA05, -120.089, 36.570, 183, M, 1.01
ARCATA 1.1 NE, Humboldt, CA01, -124.069, 40.881, 420, M, 3.53
BAYSIDE 1.8 SE, Humboldt, CA01, -124.038, 40.825, 77, M, 3.67
ORICK 5.9 SSW, Humboldt, CA01, -124.103, 41.208, 567, M, 3.67
MCKINLEYVILLE 2.7 SE, Humboldt, CA01, -124.084, 40.923, 325, M, 3.60
MCKINLEYVILLE 7.3 ESE, Humboldt, CA01, -123.998, 40.896, 366, M, 3.05
TRINIDAD 1.5 NNW, Humboldt, CA01, -124.152, 41.078, 201, M, 3.20
HONEYDEW 3.1 WNW, Humboldt, CA01, -124.182, 40.252, 316, M, 6.15
MCKINLEYVILLE 2.3 NE, Humboldt, CA01, -124.086, 40.978, 270, M, 4.11
FORTUNA 1.5 NW, Humboldt, CA01, -124.161, 40.600, 98, M, 2.99
REDWAY 4.8 WNW, Humboldt, CA01, -123.906, 40.139, 1820, M, 3.22
MIRANDA 4.1 SW, Humboldt, CA01, -123.894, 40.209, 539, M, 5.77
BAYVIEW 0.8 SE, Humboldt, CA01, -124.166, 40.756, 176, M, 3.07
ARCATA 1.4 NNE, Humboldt, CA01, -124.072, 40.887, 289, M, 3.67
WILLOW CREEK 4.5 NNE, Humboldt, CA01, -123.624, 40.939, 655, M, 2.66
BRIDGEVILLE 5.2 ENE, Humboldt, CA01, -123.701, 40.473, 2675, M, 6.07
FORTUNA 0.1 NW, Humboldt, CA01, -124.141, 40.587, 65, M, 3.29
GARBERVILLE 2.2 SW, Humboldt, CA01, -123.824, 40.077, 415, M, 4.42
GARBERVILLE 2.9 SW, Humboldt, CA01, -123.830, 40.068, 389, M, 3.96
KNEELAND 4.8 WNW, Humboldt, CA01, -124.080, 40.790, 106, M, 2.60
EUREKA 2.2 S, Humboldt, CA01, -124.148, 40.764, 194, M, 3.28
SHELTER COVE 1.2 ENE, Humboldt, CA01, -124.052, 40.037, 1107, M, 6.29
BISHOP 0.6 SE, Inyo, CA07, -118.388, 37.363, 4140, M, 0.00
BISHOP 8.5 WSW, Inyo, CA07, -118.540, 37.323, 6002, M, T
BISHOP 1.7 NW, Inyo, CA07, -118.414, 37.388, 4181, M, T
LEMOORE 0.9 ESE, Kings, CA05, -119.772, 36.293, 223, M, 0.90
LEMOORE 0.3 SW, Kings, CA05, -119.791, 36.295, 223, M, 0.65
HANFORD 3.6 N, Kings, CA05, -119.653, 36.377, 258, M, 0.75
HANFORD 1.7 WNW, Kings, CA05, -119.674, 36.335, 245, M, 0.81
INYOKERN 9.4 WSW, Kern, CA07, -117.978, 35.635, 4319, M, 0.29
FRAZIER PARK 0.6 WNW, Kern, CA05, -118.955, 34.827, 5023, M, 0.52
PINE MOUNTAIN CLUB 0.9 SSW, Kern, CA05, -119.163, 34.835, 6017, M, 0.76
ONYX 2.8 ENE, Kern, CA05, -118.174, 35.702, 3039, M, 0.35
GLENDALE 2.4 WSW, Los Angeles, CA06, -118.295, 34.169, 511, M, 1.00
TORRANCE 2.8 SW, Los Angeles, CA06, -118.337, 33.790, 200, M, 0.80
ALTADENA 0.7 ESE, Los Angeles, CA06, -118.124, 34.187, 1323, M, 1.26
MONTE NIDO 0.2 SSW, Los Angeles, CA06, -118.687, 34.079, 682, M, 0.92
SHERMAN OAKS 1.7 ENE, Los Angeles, CA06, -118.420, 34.154, 638, M, 1.05
WHITTIER 2.9 WNW, Los Angeles, CA06, -118.066, 33.986, 171, M, 0.62
REDONDO BEACH 2.6 S, Los Angeles, CA06, -118.377, 33.819, 117, M, 1.09
WINNETKA 0.7 SSE, Los Angeles, CA06, -118.568, 34.203, 768, M, 1.10
CANYON COUNTRY 2.6 E, Los Angeles, CA06, -118.427, 34.427, 1617, M, 0.65
ARCADIA 2.1 NNE, Los Angeles, CA06, -118.028, 34.162, 652, M, 1.03
LAKEPORT 4.5 N, Lake, CA02, -122.909, 39.107, 1437, M, 1.66
LAKEPORT 2.5 N, Lake, CA02, -122.917, 39.079, 1370, M, 1.74
MIDDLETOWN 3.3 SSE, Lake, CA02, -122.603, 38.706, 1273, M, 2.55
LOWER LAKE 4.0 SE, Lake, CA02, -122.564, 38.865, 1585, M, 1.63
SUSANVILLE 3.2 SSW, Lassen, CA03, -120.674, 40.368, 4353, M, 0.89
OAKHURST 7.5 N, Madera, CA05, -119.632, 37.442, 4274, M, 3.31
UKIAH 8.4 NW, Mendocino, CA01, -123.331, 39.221, 2492, M, 2.49
BOONVILLE 2.2 WSW, Mendocino, CA01, -123.408, 39.006, 1061, M, 2.57
ELK 1.8 NNE, Mendocino, CA01, -123.706, 39.105, 147, M, 1.76
UKIAH 1.2 NW, Mendocino, CA01, -123.225, 39.158, 746, M, 2.79
UKIAH 0.6 ESE, Mendocino, CA01, -123.199, 39.141, 601, M, 2.26
HOPLAND 2.4 WNW, Mendocino, CA01, -123.158, 38.984, 574, M, 2.42
WILLITS 6.0 WSW, Mendocino, CA01, -123.450, 39.370, 1873, M, 3.89
REDWOOD VALLEY 1.3 WNW, Mendocino, CA01, -123.227, 39.272, 810, M, 2.93
REDWOOD VALLEY 1.5 ENE, Mendocino, CA01, -123.178, 39.272, 912, M, 2.08
CARMICHAEL 0.9 S, Sacramento, CA02, -121.319, 38.621, 108, M, 1.14
FOLSOM 2.4 SW, Sacramento, CA02, -121.176, 38.651, 194, M, 2.10
SACRAMENTO 13.7 SE, Sacramento, CA05, -121.283, 38.456, 97, M, 1.59
SACRAMENTO 2.0 SE, Sacramento, CA02, -121.437, 38.550, 34, M, 1.78
SACRAMENTO 4.1 NE, Sacramento, CA02, -121.412, 38.609, 46, M, 1.75
SACRAMENTO 5.7 SSE, Sacramento, CA02, -121.419, 38.493, 28, M, 0.24
FOLSOM 0.6 NE, Sacramento, CA02, -121.138, 38.682, 399, M, 1.89
LA RIVIERA 1.0 NE, Sacramento, CA02, -121.340, 38.575, 64, M, 1.76
GOLETA 3.7 WNW, Santa Barbara, CA06, -119.896, 34.440, 158, M, 1.02
SANTA BARBARA 1.9 NE, Santa Barbara, CA06, -119.700, 34.450, 811, M, 0.26
MOUNTAIN VIEW 1.2 S, Santa Clara, CA04, -122.075, 37.385, 109, M, 0.87
SUNNYVALE 1.9 SE, Santa Clara, CA04, -122.004, 37.365, 85, M, 0.88
SAN JOSE 5.4 SW, Santa Clara, CA04, -121.775, 37.305, 223, M, 0.67
MONTE SERENO 0.4 SSW, Santa Clara, CA04, -121.990, 37.232, 467, M, 1.74
SAN JOSE 4.6 NE, Santa Clara, CA04, -121.795, 37.354, 318, M, 0.76
LOS ALTOS 0.6 NNW, Santa Clara, CA04, -122.100, 37.378, 156, M, 0.97
SAN JOSE 2.7 SSW, Santa Clara, CA04, -121.876, 37.271, 162, M, 0.80
CAMBRIAN PARK 2.2 SE, Santa Clara, CA04, -121.897, 37.234, 252, M, 0.95
SAN JOSE 3.5 ENE, Santa Clara, CA04, -121.789, 37.319, 200, M, 0.69
SAN JOSE 2.3 SSW, Santa Clara, CA04, -121.866, 37.273, 161, M, 0.72
SARATOGA 0.5 N, Santa Clara, CA04, -122.023, 37.275, 373, M, 1.43
PALO ALTO 1.2 NE, Santa Clara, CA04, -122.149, 37.452, 32, M, 0.81
SAN JOSE 3.0 WSW, Santa Clara, CA04, -121.927, 37.309, 159, M, 0.95
LOS GATOS 6.1 S, Santa Clara, CA04, -121.972, 37.143, 1732, M, 0.18
PALO ALTO 0.8 NNE, Santa Clara, CA04, -122.135, 37.410, 60, M, 0.79
SAN JOSE 6.2 W, Santa Clara, CA04, -121.961, 37.319, 139, M, 1.05
LOS GATOS 5.4 SSW, Santa Clara, CA04, -121.988, 37.156, 1662, M, 2.01
SAN MARCOS 2.5 ENE, San Diego, CA06, -117.132, 33.147, 666, M, 1.94
IMPERIAL BEACH 3.3 E, San Diego, CA06, -117.062, 32.574, 138, M, 1.05
OCEANSIDE 8.4NE, San Diego, CA06, -117.266, 33.270, 252, M, 1.43
EL CAJON 2.3ENE, San Diego, CA06, -116.925, 32.811, 610, M, 1.43
ENCINITAS 3.34ENE, San Diego, CA06, -117.237, 33.050, 193, M, 1.63
ESCONDIDO 5.2NNW, San Diego, CA06, -117.128, 33.185, 1474, M, 1.83
EL CAJON 1.5WSW, San Diego, CA06, -116.987, 32.791, 727, M, 1.46
ESCONDIDO 2.5 SSE, San Diego, CA06, -117.048, 33.106, 690, M, 1.66
POWAY 3.2NE, San Diego, CA06, -117.004, 32.996, 1206, M, 1.51
JAMUL 9.9ESE, San Diego, CA06, -116.706, 32.680, 2737, M, 1.83
BORREGO SPRINGS 2.4 WSW, San Diego, CA07, -116.390, 33.223, 777, M, 0.08
LA JOLLA 2.5SE, San Diego, CA06, -117.240, 32.825, 508, M, 0.20
CHULA VISTA 6.3E, San Diego, CA06, -116.975, 32.638, 555, M, 1.35
OCEANSIDE 5.6NE, San Diego, CA06, -117.313, 33.254, 60, M, 2.00
POWAY 1.4SW, San Diego, CA06, -117.059, 32.949, 444, M, 1.41
CARDIFF BY THE SEA 0.2 E, San Diego, CA06, -117.271, 33.027, 266, M, 1.56
CHULA VISTA 2.5SE, San Diego, CA06, -117.052, 32.617, 266, M, 1.19
PAUMA VALLEY 1.7 SE, San Diego, CA06, -116.957, 33.290, 1132, M, 1.78
FALLBROOK 6.5 NE, San Diego, CA06, -117.160, 33.436, 1377, M, 1.79
SAN DIEGO 3.5NE, San Diego, CA06, -117.110, 32.747, 344, M, 1.66
SANTEE 1.8NW, San Diego, CA06, -116.996, 32.856, 470, M, 1.53
SAN DIEGO 7.9NE, San Diego, CA06, -117.073, 32.806, 242, M, 1.52
LA JOLLA 2.1 SE, San Diego, CA06, -117.250, 32.826, 491, M, 1.18
RANCHO BERNARDO 0.5SE, San Diego, CA06, -117.067, 33.018, 483, M, 1.61
EL CAJON 0.7 S, San Diego, CA06, -116.959, 32.792, 444, M, 1.51
LA JOLLA 2.2 NE, San Diego, CA06, -117.248, 32.870, 371, M, 1.47
VISTA 1.5NNW, San Diego, CA06, -117.254, 33.219, 417, M, 1.37
EL CAJON 2.3 S, San Diego, CA06, -116.959, 32.770, 738, M, 1.57
SAN DIEGO 9NE, San Diego, CA06, -117.059, 32.817, 292, M, 1.09
POWAY 4.7NNW, San Diego, CA06, -117.047, 33.026, 739, M, 1.40
SAN DIEGO COUNTRY ESTATES 1.5 WNW, San Diego, CA06, -116.807, 33.016, 1474, M, 1.64
SAN FRANCISCO 2.8 WNW, San Francisco, CA04, -122.470, 37.783, 173, M, 0.64
SAN FRANCISCO 1.1 SW, San Francisco, CA04, -122.435, 37.765, 194, M, 0.70
COTTONWOOD 0.5 NNE, Shasta, CA02, -122.276, 40.397, 452, M, 1.43
SHINGLETOWN 5.3 ENE, Shasta, CA02, -121.796, 40.524, 3964, M, 1.97
REDDING 2.7 NNW, Shasta, CA02, -122.380, 40.610, 708, M, 2.14
REDDING 7.9 NNE, Shasta, CA02, -122.291, 40.672, 681, M, 3.54
REDDING 3.7 N, Shasta, CA02, -122.358, 40.626, 618, M, 3.71
REDDING 3.6 N, Shasta, CA02, -122.354, 40.623, 604, M, 3.65
REDDING 0.6 NW, Shasta, CA02, -122.373, 40.580, 475, M, 3.04
REDDING 2.6 NNE, Shasta, CA02, -122.347, 40.607, 590, M, 3.86
REDDING 4.1 N, Shasta, CA02, -122.358, 40.631, 616, M, 1.53
ANDERSON 2.6 NE, Shasta, CA02, -122.261, 40.478, 409, M, 2.82
LINDEN 5.8 ENE, San Joaquin, CA05, -121.008, 38.063, 146, M, 1.79
STOCKTON 2.1 NW, San Joaquin, CA05, -121.333, 37.991, 7, M, 0.77
STOCKTON 5.8 NNE, San Joaquin, CA05, -121.255, 38.038, 35, M, 1.21
LODI 1.0 NNW, San Joaquin, CA05, -121.304, 38.136, 43, M, 1.16
STOCKTON 3.3 SE, San Joaquin, CA05, -121.259, 37.942, 23, M, 0.83
TRACY 2.1 W, San Joaquin, CA05, -121.470, 37.735, 52, M, 0.24
YREKA 4.5 S, Siskiyou, CA01, -122.621, 41.665, 2937, M, 0.70
WEED 5.4 N, Siskiyou, CA01, -122.370, 41.495, 3064, M, 1.21
ETNA 3.9 NNW, Siskiyou, CA01, -122.923, 41.511, 2966, M, 0.97
YREKA 0.9 WNW, Siskiyou, CA01, -122.649, 41.733, 2692, M, 0.86
MONTAGUE 1.6 ESE, Siskiyou, CA01, -122.501, 41.718, 2556, M, 0.56
SANTA MARGARITA 8.9 ESE, San Luis Obispo, CA04, -120.453, 35.381, 2005, M, 0.07
PACIFICA 0.3 W, San Mateo, CA04, -122.483, 37.612, 227, M, 1.33
FOSTER CITY 1.3 SW, San Mateo, CA04, -122.259, 37.549, 7, M, 0.58
HALF MOON BAY 0.5 SSW, San Mateo, CA04, -122.441, 37.463, 54, M, 1.62
REDWOOD CITY 2.5 SW, San Mateo, CA04, -122.240, 37.493, 17, M, 0.75
PORTOLA VALLEY 1.3 ENE, San Mateo, CA04, -122.198, 37.382, 531, M, 1.09
ROHNERT PARK 1.6 WNW, Sonoma, CA01, -122.727, 38.352, 93, M, 1.20
GEYSERVILLE 10.6 WNW, Sonoma, CA01, -123.098, 38.737, 1328, M, 2.44
SANTA ROSA 3.1 W, Sonoma, CA01, -122.758, 38.451, 107, M, 0.43
SEBASTOPOL 3.7 WSW, Sonoma, CA01, -122.893, 38.385, 383, M, 1.90
CALISTOGA 4.6 WNW, Sonoma, CA01, -122.658, 38.612, 497, M, 2.25
SEBASTOPOL 4.5 WSW, Sonoma, CA01, -122.904, 38.375, 423, M, 2.05
PETALUMA 1.0 N, Sonoma, CA01, -122.623, 38.256, 52, M, 0.90
GRATON 2.7 NNE, Sonoma, CA01, -122.840, 38.472, 69, M, 1.27
WINDSOR 1.5 WNW, Sonoma, CA01, -122.823, 38.555, 123, M, 1.80
WINDSOR 1.4 SE, Sonoma, CA01, -122.780, 38.532, 140, M, 1.71
SANTA ROSA 4.7 S, Sonoma, CA01, -122.725, 38.378, 94, M, 1.19
SANTA ROSA 3.1 NW, Sonoma, CA01, -122.744, 38.479, 140, M, 1.29
CLOVERDALE 3.2 ESE, Sonoma, CA01, -122.963, 38.781, 797, M, 2.24
WINDSOR 1.8 SE, Sonoma, CA01, -122.777, 38.526, 142, M, 1.35
SEBASTOPOL 2.6 SSE, Sonoma, CA01, -122.804, 38.366, 214, M, 1.43
BODEGA BAY 4.8 NNW, Sonoma, CA01, -123.078, 38.381, 91, M, 2.24
SANTA ROSA 2.9 ENE, Sonoma, CA01, -122.655, 38.471, 292, M, 1.28
MONTE RIO 1.6 W, Sonoma, CA01, -123.042, 38.464, 20, M, 2.32
SEBASTOPOL 3.0 SW, Sonoma, CA01, -122.869, 38.372, 539, M, 1.70
SANTA ROSA 4.4 NNW, Sonoma, CA01, -122.719, 38.511, 392, M, 1.54
SEBASTOPOL 1.1 SSE, Sonoma, CA01, -122.819, 38.384, 168, M, 1.35
WINDSOR 1.2 NNW, Sonoma, CA01, -122.805, 38.562, 155, M, 1.41
HEALDSBURG 7.5 NW, Sonoma, CA01, -122.963, 38.693, 203, M, 1.91
SANTA ROSA 2.6 NE, Sonoma, CA01, -122.664, 38.473, 273, M, 1.40
SONOMA 1.9 E, Sonoma, CA01, -122.425, 38.290, 124, M, 1.26
SANTA ROSA 1.3 NW, Sonoma, CA01, -122.715, 38.464, 173, M, 1.42
PETALUMA 1.3 SW, Sonoma, CA01, -122.639, 38.226, 36, M, 0.50
WINDSOR 0.6 NNE, Sonoma, CA01, -122.793, 38.553, 157, M, 1.67
SEBASTOPOL 0.9 WNW, Sonoma, CA01, -122.841, 38.407, 213, M, 1.68
GLEN ELLEN 1.9 WNW, Sonoma, CA01, -122.572, 38.365, 956, M, 1.65
ROHNERT PARK 0.9 SW, Sonoma, CA01, -122.711, 38.339, 96, M, 1.15
CLOVERDALE 0.6 W, Sonoma, CA01, -123.028, 38.799, 382, M, 2.42
ROHNERT PARK 0.9 ESE, Sonoma, CA01, -122.681, 38.345, 125, M, 1.03
GLEN ELLEN 1.5 N, Sonoma, CA01, -122.534, 38.378, 337, M, 1.60
SANTA ROSA 2.7 ENE, Sonoma, CA01, -122.659, 38.470, 281, M, 1.43
BOYES HOT SPRINGS 0.5 ENE, Sonoma, CA01, -122.473, 38.316, 295, M, 0.98
SEBASTOPOL 3.3 WSW, Sonoma, CA01, -122.885, 38.384, 362, M, 1.81
OCCIDENTAL 2.8 SW, Sonoma, CA01, -122.974, 38.365, 614, M, 2.13
HEALDSBURG 12.6 NNW, Sonoma, CA01, -122.963, 38.784, 1026, M, 2.33
BENICIA 0.2 SSW, Solano, CA01, -122.155, 38.070, 403, M, 0.34
WRIGHTWOOD 1.2 WNW, San Bernardino, CA07, -117.651, 34.365, 6148, M, 0.43
UPLAND 0.5 ESE, San Bernardino, CA06, -117.650, 34.115, 1415, M, 0.61
APPLE VALLEY 2.6 SE, San Bernardino, CA07, -117.181, 34.504, 2941, M, 0.36
JOSHUA TREE 2.0 S, San Bernardino, CA07, -116.318, 34.097, 3409, M, 0.08
CRESTLINE 0.2 WSW, San Bernardino, CA07, -117.299, 34.246, 4530, M, 0.12
LANDERS 1.6 NE, San Bernardino, CA07, -116.375, 34.283, 2954, M, 0.06
PINON HILLS 3.5 N, San Bernardino, CA07, -117.644, 34.485, 3495, M, T
APPLE VALLEY 1.9 N, San Bernardino, CA07, -117.211, 34.556, 2935, M, 0.58
KNIGHTS FERRY 5.2 WSW, Stanislaus, CA05, -120.752, 37.789, 144, M, 1.13
OAKDALE 4.2 ENE, Stanislaus, CA05, -120.777, 37.782, 232, M, 0.91
SAN JUAN BAUTISTA 0.5 S, San Benito, CA04, -121.537, 36.839, 252, M, 0.70
HOLLISTER 5.4 NNE, San Benito, CA04, -121.370, 36.931, 247, M, 0.56
HOLLISTER 2.1 ESE, San Benito, CA04, -121.365, 36.842, 389, M, 0.50
DAVENPORT 4.2 NW, Santa Cruz, CA04, -122.218, 37.065, 495, M, 1.24
BOULDER CREEK 3.6 NE, Santa Cruz, CA04, -122.091, 37.181, 1724, M, 1.78
SCOTTS VALLEY 1.7 SW, Santa Cruz, CA04, -122.029, 37.040, 573, M, 2.27
APTOS 2.6 E, Santa Cruz, CA04, -121.854, 36.996, 383, M, 0.77
FELTON 0.1 SE, Santa Cruz, CA04, -122.071, 37.042, 238, M, 2.00
BONNY DOON 2.0 NE, Santa Cruz, CA04, -122.133, 37.068, 1880, M, 1.92
SOQUEL 1.8 N, Santa Cruz, CA04, -121.950, 37.019, 152, M, 1.54
APTOS 1.7 SSE, Santa Cruz, CA04, -121.883, 36.971, 309, M, 1.03
BOULDER CREEK 3.0 NW, Santa Cruz, CA04, -122.164, 37.169, 875, M, 2.22
FELTON 4.5 NNE, Santa Cruz, CA04, -122.047, 37.105, 838, M, 2.41
RED BLUFF 4.3 W, Tehama, CA02, -122.322, 40.179, 396, M, 1.56
TERRA BELLA 6.3 W, Tulare, CA05, -119.149, 35.950, 374, M, 0.84
VISALIA 0.7 SSE, Tulare, CA05, -119.318, 36.315, 318, M, 0.90
DOUGLAS CITY 2.4 SW, Trinity, CA01, -122.978, 40.633, 1689, M, 2.33
HAWKINS BAR 0.6 NW, Trinity, CA01, -123.530, 40.877, 674, M, 2.90
MAD RIVER 7.4 SE, Trinity, CA01, -123.376, 40.321, 2762, M, 3.82
TRINITY CENTER 0.6 ESE, Trinity, CA01, -122.696, 40.983, 2427, M, 2.69
THOUSAND OAKS 2.1 WSW, Ventura, CA06, -118.898, 34.177, 692, M, 0.59
FRAZIER PARK 10.7 WSW, Ventura, CA06, -119.110, 34.746, 5274, M, 0.83
SIMI VALLEY 3.8 SW, Ventura, CA06, -118.805, 34.231, 1081, M, 0.82
VENTURA 0.5 WNW, Ventura, CA06, -119.276, 34.273, 56, M, 1.12
SIMI VALLEY 1.0 NW, Ventura, CA06, -118.764, 34.272, 848, M, 0.75
THOUSAND OAKS 2.5 WSW, Ventura, CA06, -118.909, 34.179, 703, M, 0.63
CHALLENGE-BROWNSVILLE 1.3 WSW, Yuba, CA02, -121.280, 39.452, 2049, M, 4.56
DAVIS 1.2 SE, Yolo, CA02, -121.721, 38.543, 36, M, 1.19
DAVIS 0.8 NE, Yolo, CA02, -121.724, 38.562, 41, M, 1.12
DAVIS 1.4 SSE, Yolo, CA02, -121.722, 38.538, 4, M, 1.14
DAVIS 6.1 WNW, Yolo, CA02, -121.845, 38.578, 83, M, 0.37
DAVIS 2.7 W, Yolo, CA02, -121.786, 38.552, 57, M, 0.83
WOODLAND 2.8 SE, Yolo, CA02, -121.732, 38.647, 38, M, 0.85
PLACERVILLE 3 ENE, El Dorado, CA02, -120.742, 38.785, 2658, 54.0, 2.99
TAHOMA, El Dorado, CA03, -120.129, 39.060, 6315, 36.1, 2.73
CORONA MUNICIPAL AIRPORT, Riverside, -, -117.602, 33.898, 533, 57.7, 0.68
OAKLAND 4.4 NNW, Alameda, CA04, -122.250, 37.832, 191, M, 0.66
SAN LORENZO 0.5 NNW, Alameda, CA04, -122.133, 37.682, 30, M, 0.24
OROVILLE 4.8 E, Butte, CA02, -121.477, 39.493, 668, M, 3.29
MCKINLEYVILLE 4.3 E, Humboldt, CA01, -124.034, 40.953, 173, M, 3.80
KNEELAND 0.4 NNW, Humboldt, CA01, -123.999, 40.766, 2008, M, 3.81
MCKINLEYVILLE 1.2 SSW, Humboldt, CA01, -124.126, 40.938, 58, M, 3.52
BISHOP 8.8 WNW, Inyo, CA07, -118.547, 37.411, 4537, M, T
HANFORD 1.2 WNW, Kings, CA05, -119.667, 36.331, 243, M, 0.04
CLAREMONT 0.5 E, Los Angeles, CA06, -117.707, 34.121, 1465, M, 0.63
LANCASTER 6.5 ENE, Los Angeles, CA07, -118.066, 34.718, 2366, M, 0.24
FOOTHILL RANCH 0.3 NW, Orange, CA06, -117.664, 33.689, 1045, M, 0.99
CORONA 12.5 SE, Riverside, CA06, -117.431, 33.735, 1302, M, 0.70
CARLSBAD 2.2SE, San Diego, CA06, -117.321, 33.143, 22, M, 1.14
DESCANSO 0.3 WNW, San Diego, CA06, -116.621, 32.854, 3442, M, 2.29
SAN DIEGO 5.2WNW, San Diego, CA06, -117.245, 32.735, 251, M, 0.99
VISTA 1.2SE, San Diego, CA06, -117.231, 33.186, 505, M, 1.70
IGO 0.2 S, Shasta, CA02, -122.541, 40.503, 1074, M, 2.72
STOCKTON 0.7 E, San Joaquin, CA05, -121.293, 37.969, 16, M, 1.04
BELMONT 0.7 WSW, San Mateo, CA04, -122.306, 37.510, 482, M, 0.74
FORESTVILLE 0.7 SW, Sonoma, CA01, -122.897, 38.473, 201, M, 2.41
RIALTO 2.1 N, San Bernardino, CA06, -117.381, 34.144, 1482, M, 1.22
THREE RIVERS 1.7 NE, Tulare, CA05, -118.886, 36.458, 1010, M, 0.87
TRINITY CENTER 0.2 ENE, Trinity, CA01, -122.704, 40.986, 2481, M, 2.77
VERDI 2W, Sierra, CA03, -120.027, 39.521, 5429, 41.9, 0.96
CHICO 1.2 NNW, Butte, CA02, -121.814, 39.770, 251, M, 1.51
PASADENA 2.0 SE, Los Angeles, CA06, -118.116, 34.139, 739, M, 0.91
RAYMOND 6.8 NE, Madera, CA05, -119.802, 37.272, 1802, M, 0.75
SUNNYVALE 3.6 S (W6NW), Santa Clara, CA04, -122.018, 37.334, 170, M, 0.97
PIONEER 6.4 NE, Amador, CA05, -120.499, 38.505, 4073, M, 3.52
CRESCENT CITY 4.2 NE, Del Norte, CA01, -124.143, 41.800, 98, M, 5.60
POLLOCK PINES 0.5 NW, El Dorado, CA02, -120.578, 38.757, 3895, M, 4.68
EUREKA 3.0 SSW, Humboldt, CA01, -124.181, 40.757, 100, M, 2.97
MCKINLEYVILLE 0.7 ESE, Humboldt, CA01, -124.104, 40.950, 127, M, 3.32
TEHACHAPI 2.2 W, Kern, CA05, -118.480, 35.132, 3945, M, 0.29
DIAMOND BAR 1.9 NNE, Los Angeles, CA06, -117.796, 34.023, 935, M, 0.77
LA CRESCENTA-MONTROSE 3.9 NW, Los Angeles, CA06, -118.287, 34.270, 1974, M, 1.42
RANCHO PALOS VERDES 2.0 NW, Los Angeles, CA06, -118.385, 33.780, 1083, M, 1.65
YOSEMITE LAKES 4.7 S, Madera, CA05, -119.761, 37.124, 1598, M, 0.56
MARIPOSA 12.5 E, Mariposa, CA05, -119.740, 37.462, 2940, M, 2.29
BIG SUR 7.2 NNW, Monterey, CA04, -121.818, 36.353, 2434, M, 0.93
IRVINE 2.9 WSW, Orange, CA06, -117.838, 33.640, 193, M, 0.52
MISSION VIEJO 3.5 SSE(K6WTA), Orange, CA06, -117.639, 33.563, 613, M, 1.03
IRVINE 4.1 NNE, Orange, CA06, -117.772, 33.718, 152, M, 0.54
ANAHEIM 4.9 E, Orange, CA06, -117.787, 33.847, 374, M, 0.61
LOS ALTOS HILLS 1.3 N, Santa Clara, CA04, -122.135, 37.387, 194, M, 0.46
CHULA VISTA 3.1SE, San Diego, CA06, -117.051, 32.604, 200, M, 1.10
SAN DIEGO 9.5 NNW, San Diego, CA06, -117.221, 32.843, 284, M, 1.35
CARLSBAD 3.8SE, San Diego, CA06, -117.304, 33.119, 168, M, 0.93
RANCHO BERNARDO 1NNW, San Diego, CA06, -117.083, 33.034, 517, M, 1.45
LOS OSOS 0.5 N, San Luis Obispo, CA04, -120.832, 35.329, 77, M, 0.39
MENLO PARK 2.4 W, San Mateo, CA04, -122.187, 37.477, 25, M, 0.55
BURLINGAME 2.0 WSW, San Mateo, CA04, -122.398, 37.584, 447, M, 1.00
BODEGA BAY 1.0 SE, Sonoma, CA01, -123.018, 38.312, 226, M, 1.81
BODEGA BAY 0.1 NNW, Sonoma, CA01, -123.030, 38.324, 218, M, 1.93
SUTTER 0.3 W, Sutter, CA02, -121.751, 39.160, 73, M, 1.82
CAMARILLO 2.4 W, Ventura, CA06, -119.072, 34.228, 114, M, 0.90
MARYSVILLE 5.0 N, Yuba, CA02, -121.594, 39.224, 73, M, 1.87
WHEATLAND 0.1 ENE, Yuba, CA02, -121.424, 39.013, 85, M, 2.15
CHICO 1.7 SW, Butte, CA02, -121.832, 39.739, 210, M, 1.45
BLUE LAKE 0.6 NNW, Humboldt, CA01, -123.994, 40.888, 179, M, 2.69
REDWAY 1.8 WSW, Humboldt, CA01, -123.852, 40.109, 955, M, 4.33
LAWS 0.1SW, Inyo, CA07, -118.347, 37.399, 4116, M, 0.00
UPPER LAKE 3.6 W, Lake, CA02, -122.978, 39.168, 1440, M, 2.51
MORGAN HILL 1.4 SW, Santa Clara, CA04, -121.659, 37.117, 433, M, 0.83
FALLBROOK 2.3SE, San Diego, CA06, -117.225, 33.352, 618, M, 1.98
REDDING 3.8 S, Shasta, CA02, -122.369, 40.518, 444, M, 2.80
FORKS OF SALMON 1.0 NW, Siskiyou, CA01, -123.334, 41.269, 1664, M, 3.61
SAN MATEO 3.4 SSW, San Mateo, CA04, -122.343, 37.518, 585, M, 0.83
FILLMORE 0.6 N, Ventura, CA06, -118.917, 34.408, 506, M, 0.49
ARBUCKLE BASIN CALIFORNIA, Shasta, CA02, -122.833, 40.398, 1900, 52.9, M
ACTON CALIFORNIA, Los Angeles, CA06, -118.200, 34.446, 2600, 60.8, M
ARROYO GRANDE CALIFORNIA, San Luis Obispo, CA04, -120.392, 35.179, 1048, 58.9, M
ALDER SPRINGS CALIFORNIA, Glenn, CA02, -122.724, 39.651, 4300, 48.6, M
ALPINE CALIFORNIA, San Diego, CA06, -116.739, 32.834, 2041, 58.5, M
LOS ALTOS CALIFORNIA, Santa Clara, CA04, -122.147, 37.358, 645, 56.4, M
ANZA CALIFORNIA, Riverside, CA06, -116.673, 33.555, 3920, 52.2, M
ALDER POINT CALIFORNIA, Humboldt, CA01, -123.590, 40.187, 923, 51.3, M
ARROYO SECO (MT. DIABLO) CALIF, Monterey, CA04, -121.492, 36.230, 980, 57.7, M
ASH CREEK CALIFORNIA, Siskiyou, CA02, -121.979, 41.277, 3200, 44.2, M
ASH VALLEY CALIFORNIA, Lassen, CA02, -120.686, 41.052, 5100, 40.1, M
BALD MTN LOC CALIFORNIA, El Dorado, CA02, -120.697, 38.906, 4680, 50.8, M
BARNABY CALIFORNIA, Marin, CA01, -122.702, 38.028, 1240, 54.9, M
BATTERSON CALIFORNIA, Madera, CA05, -119.508, 37.232, 3160, 54.5, M
BIG BAR CALIFORNIA, Trinity, CA01, -123.233, 40.733, 1500, 51.9, M
BELL CANYON CALIFORNIA, Orange, CA06, -117.592, 33.542, 700, 60.2, M
BRADLEY CALIFORNIA, Monterey, CA04, -120.803, 35.864, 537, 58.2, M
BEAR PEAK CALIFORNIA, Tulare, CA05, -118.052, 35.884, 8228, 42.2, M
BENTON CALIFORNIA, Mono, CA07, -118.478, 37.843, 5450, 48.3, M
BEAUMONT CALIFORNIA, Riverside, CA06, -116.950, 33.931, 2604, 58.8, M
BEVERLY HILLS CALIFORNIA, Los Angeles, CA06, -118.412, 34.125, 1260, 64.5, M
BANGOR CALIFORNIA, Butte, CA02, -121.386, 39.398, 803, 56.1, M
BIG HILL CALIFORNIA, Humboldt, CA01, -123.636, 41.098, 3570, 45.0, M
BIG PINES CALIFORNIA, Los Angeles, CA07, -117.692, 34.379, 6917, 46.7, M
BIG ROCK CALIFORNIA, Marin, CA01, -122.570, 38.039, 1500, 54.7, M
BLACK DIAMOND CALIFORNIA, Contra Costa, CA04, -121.884, 37.950, 1600, 56.0, M
BLUE DOOR CALIFORNIA, Lassen, CA02, -120.337, 41.055, 5615, 39.5, M
BEN BOLT CALIFORNIA, El Dorado, CA05, -120.934, 38.591, 905, 55.3, M
BEN LOMOND CALIFORNIA, Santa Cruz, CA04, -122.170, 37.132, 2630, 52.9, M
BOGARD R.S. CALIFORNIA, Lassen, CA02, -121.083, 40.598, 5650, 37.4, M
BOONVILLE CALIFORNIA, Mendocino, CA01, -123.349, 38.988, 644, 51.4, M
BIG PINE FLAT CALIFORNIA, San Bernardino, CA07, -117.013, 34.319, 6861, 47.0, M
BRIDGEPORT 4NW CALIFORNIA, Mono, CA03, -119.289, 38.272, 6650, 42.5, M
BRANCH MOUNTAIN CALIFORNIA, San Luis Obispo, CA04, -120.083, 35.189, 3770, 54.0, M
BEAR FLAT CALIFORNIA, Modoc, CA02, -120.313, 41.295, 6200, 38.8, M
BRIONES CALIFORNIA, Contra Costa, CA04, -122.118, 37.944, 1450, 54.8, M
BLACKROCK CALIFORNIA, Tulare, CA05, -118.260, 36.093, 8200, 41.1, M
BROOKS CALIFORNIA, Yolo, CA02, -122.145, 38.738, 354, 56.6, M
BIG SUR CALIFORNIA, Monterey, CA04, -121.785, 36.236, 450, 55.4, M
BULL FLAT CALIFORNIA, Lassen, CA03, -120.114, 40.481, 4395, 43.0, M
BURNS CANYON CALIFORNIA, San Bernardino, CA07, -116.634, 34.210, 6000, 53.0, M
BUTTERCUP CALIFORNIA, Imperial, CA07, -114.884, 32.740, 217, 70.7, M
BEAVER CAMP LOC CALIFORNIA, Amador, CA05, -120.325, 38.488, 5000, 50.7, M
BRAZIE RANCH CALIFORNIA, Siskiyou, CA01, -122.594, 41.685, 3000, 47.3, M
CAHUILLA CALIFORNIA, Imperial, CA07, -115.174, 32.974, 278, 71.5, M
CALLAHAN CALIFORNIA, Siskiyou, CA01, -122.796, 41.308, 3136, 46.7, M
CAMERON FIRE STATION CALIFORNI, San Diego, CA06, -116.463, 32.721, 3443, 52.1, M
CANBY CALIFORNIA, Modoc, CA02, -120.868, 41.434, 4312, 42.4, M
CARRIZO CALIFORNIA, San Luis Obispo, CA05, -119.773, 35.096, 2490, 57.8, M
CATHEYS VALLEY CALIFORNIA, Mariposa, CA05, -120.111, 37.468, 1200, 58.0, M
CHEESEBORO CALIFORNIA, Ventura, CA06, -118.717, 34.185, 1650, 63.3, M
CHICO CALIFORNIA, Butte, CA02, -121.779, 39.712, 230, 56.5, M
CHILAO CALIFORNIA, Los Angeles, CA06, -118.030, 34.332, 5450, 53.7, M
CHUCHUPATE CALIFORNIA, Ventura, CA05, -119.012, 34.808, 4900, 45.6, M
CLAREMONT CALIFORNIA, Los Angeles, CA06, -117.707, 34.137, 1645, 59.8, M
CLEAR CREEK CALIFORNIA, Los Angeles, CA06, -118.152, 34.271, 3000, 57.9, M
CLARK CALIFORNIA, Riverside, CA06, -117.309, 33.877, 1720, 60.3, M
CALAVERAS ROAD CALIFORNIA, Alameda, CA04, -121.844, 37.553, 1230, 55.8, M
CASE MOUNTAIN CALIFORNIA, Tulare, CA05, -118.809, 36.411, 6450, 46.0, M
COHASSET CALIFORNIA, Butte, CA02, -121.769, 39.872, 1733, 57.1, M
COLLINS BALDY CALIFORNIA, Siskiyou, CA01, -122.950, 41.775, 5493, 41.2, M
CONVERSE CALIFORNIA, San Bernardino, CA06, -116.913, 34.194, 5618, 49.9, M
COOSKIE MOUNTAIN CALIFORNIA, Humboldt, CA01, -124.266, 40.257, 2950, 46.6, M
CORRALITOS CALIFORNIA, Santa Cruz, CA04, -121.798, 36.991, 450, 56.0, M
COUNTY LINE CALIFORNIA, Lake, CA02, -122.412, 39.019, 2085, 56.1, M
CAMP 9 CALIFORNIA, Los Angeles, CA06, -118.422, 34.362, 4000, 56.4, M
CRANE FLAT LOOKOUT CALIFORNIA, Mariposa, CA05, -119.825, 37.762, 6644, 43.9, M
CRESTVIEW CALIFORNIA, Mono, CA07, -118.983, 37.745, 7600, 40.0, M
CORNING CALIFORNIA, Tehama, CA02, -122.170, 39.939, 294, 57.2, M
CARPENTER RIDGE CALIFORNIA, Butte, CA02, -121.582, 40.069, 4812, 46.9, M
CRANSTON CALIFORNIA, Riverside, CA06, -116.841, 33.740, 1950, 61.7, M
CRAZY PEAK CALIFORNIA, Del Norte, CA01, -123.604, 41.992, 3970, 43.8, M
CASHMAN CALIFORNIA, Plumas, CA02, -120.915, 40.002, 4520, 48.5, M
DESCANSO CALIFORNIA, San Diego, CA06, -116.622, 32.857, 3480, 54.6, M
DEVILS GARDEN CALIFORNIA, Modoc, CA02, -120.671, 41.530, 5022, 41.3, M
DIABLO GRANDE CALIFORNIA, Stanislaus, CA05, -121.294, 37.329, 1850, 56.5, M
DINKEY CALIFORNIA, Fresno, CA05, -119.039, 37.066, 5668, 41.3, M
DOG VALLEY CALIFORNIA, Sierra, CA03, -120.048, 39.562, 5976, 41.9, M
DOYLE CALIFORNIA, Lassen, CA03, -120.106, 40.022, 4240, 47.2, M
DEL VALLE CALIFORNIA, Los Angeles, CA06, -118.683, 34.431, 1278, 62.2, M
DEVORE CALIFORNIA, San Bernardino, CA06, -117.404, 34.221, 2057, 60.3, M
EAGLE PEAK CALIFORNIA, Tehama, CA02, -122.657, 39.928, 3713, 50.5, M
EEL RIVER CAMP CALIFORNIA, Humboldt, CA01, -123.824, 40.138, 446, 51.9, M
EEL RIVER CALIFORNIA, Mendocino, CA01, -123.083, 39.833, 1500, 52.9, M
EL CARISO CALIFORNIA, Riverside, CA06, -117.411, 33.647, 3038, 59.8, M
MOUNT ELIZABETH CALIFORNIA, Tuolumne, CA05, -120.247, 38.063, 4933, 49.6, M
EL MIRAGE CALIFORNIA, San Bernardino, CA07, -117.550, 34.634, 2880, 58.3, M
ESPERANZA CALIFORNIA, Calaveras, CA05, -120.515, 38.243, 2559, 52.7, M
FANCHER CREEK CALIFORNIA, Fresno, CA05, -119.466, 36.884, 920, 61.0, M
FAWNSKIN CALIFORNIA, San Bernardino, CA06, -116.899, 34.266, 6900, 44.1, M
FENCE MEADOW CALIFORNIA, Fresno, CA05, -119.175, 36.961, 5048, 50.6, M
FORT HUNTER LIGGET CALIFORNIA, Monterey, CA04, -121.242, 36.012, 1100, 55.8, M
FIGUEROA CALIFORNIA, Santa Barbara, CA06, -120.007, 34.733, 3200, 57.9, M
FISH CREEK MTN CALIFORNIA, Imperial, CA07, -116.067, 32.990, 760, 74.7, M
FIVE MILE CALIFORNIA, Inyo, CA07, -117.918, 35.872, 4150, 61.4, M
FORESTHILL CALIFORNIA, Placer, CA02, -120.732, 39.091, 4355, 50.6, M
FOUNTAIN SPRINGS CALIFORNIA, Tulare, CA05, -118.915, 35.892, 210, 57.9, M
FREMONT CANYON CALIFORNIA, Orange, CA06, -117.711, 33.808, 1781, 60.7, M
FRIEND MOUNTAIN CALIFORNIA, Trinity, CA01, -123.342, 40.505, 4000, 45.1, M
GASQUET CALIFORNIA, Del Norte, CA01, -123.979, 41.846, 500, 50.2, M
GRASSHOPPER CALIFORNIA, Lassen, CA03, -120.784, 40.782, 6158, 38.8, M
GOOSE VALLEY CALIFORNIA, San Diego, CA06, -116.846, 33.074, 1530, 60.1, M
GORDON CALIFORNIA, Lassen, CA03, -120.896, 40.759, 6200, 39.1, M
GREEN SPRING CALIFORNIA, Tuolumne, CA05, -120.500, 37.833, 1020, 56.9, M
HASTINGS CALIFORNIA, Monterey, CA04, -121.552, 36.389, 1885, 54.6, M
HAWKEYE CALIFORNIA, Sonoma, CA01, -122.917, 38.782, 2000, 53.3, M
HAYFORK CALIFORNIA, Trinity, CA01, -123.165, 40.550, 2323, 47.3, M
HERNANDEZ CALIFORNIA, San Benito, CA04, -120.856, 36.383, 3733, 53.4, M
HIGH GLADE LOOKOUT CALIFORNIA, Lake, CA02, -122.808, 39.208, 4840, 46.6, M
HIGH SIERRA CALIFORNIA, Fresno, CA05, -119.038, 37.315, 7403, 41.4, M
HOLLISTER CALIFORNIA, San Benito, CA04, -121.362, 36.842, 404, 56.5, M
HUNTER MOUNTAIN CALIFORNIA, Inyo, CA07, -117.474, 36.563, 6880, 46.0, M
HORSE LAKE CALIFORNIA, Lassen, CA03, -120.503, 40.631, 5100, 41.3, M
HOOPA CALIFORNIA, Humboldt, CA01, -123.671, 41.048, 375, 52.4, M
HORSE THIEF SPRINGS CALIFORNIA, San Bernardino, CA07, -115.909, 35.771, 5000, 55.1, M
HURLEY CALIFORNIA, Fresno, CA05, -119.568, 37.015, 1201, 54.1, M
INDIAN WELL CALIFORNIA, Siskiyou, CA01, -121.538, 41.742, 4770, 42.9, M
JARBO GAP CALIFORNIA, Butte, CA02, -121.489, 39.736, 2490, 53.9, M
JERSEYDALE CALIFORNIA, Mariposa, CA05, -119.839, 37.544, 3900, 52.7, M
JOHNSONDALE CALIFORNIA, Tulare, CA05, -118.545, 35.972, 4700, 47.0, M
JUANITA LAKE CALIFORNIA, Siskiyou, CA01, -122.006, 41.786, 5400, 43.1, M
JULIAN CALIFORNIA, San Diego, CA07, -116.591, 33.076, 4240, 53.4, M
JUNIPER CREEK CALIFORNIA, Modoc, CA02, -120.472, 41.332, 4372, 41.8, M
KEENWILD CALIFORNIA, Riverside, CA06, -116.767, 33.667, 4920, 53.4, M
KETTLEMAN HILLS CALIFORNIA, Kings, CA05, -120.057, 36.033, 810, 61.7, M
KNOXVILLE CREEK CALIFORNIA, Lake, CA02, -122.417, 38.862, 2200, 53.5, M
KONOCTI CALIFORNIA, Lake, CA02, -122.706, 38.912, 2163, 54.0, M
LOS BANOS CALIFORNIA, Merced, CA05, -121.053, 37.055, 350, 60.8, M
MT. LAGUNA CALIFORNIA, San Diego, CA07, -116.420, 32.880, 5760, 48.6, M
LA HONDA CALIFORNIA, San Mateo, CA04, -122.255, 37.305, 872, 52.9, M
LA PANZA CALIFORNIA, San Luis Obispo, CA04, -120.187, 35.381, 1630, 53.8, M
LAURAL MOUNTAIN CALIFORNIA, Kern, CA07, -117.699, 35.478, 4390, 57.3, M
LASSEN LODGE CALIFORNIA, Tehama, CA02, -121.714, 40.344, 4159, 49.5, M
LAUFMAN CALIFORNIA, Lassen, CA03, -120.353, 40.142, 5800, 44.9, M
LAYTONVILLE CALIFORNIA, Mendocino, CA01, -123.485, 39.702, 1820, 50.4, M
LADDER BUTTE CALIFORNIA, Lassen, CA02, -121.297, 40.807, 5750, 41.7, M
LEO CARRILLO CALIFORNIA, Los Angeles, CA06, -118.936, 34.046, 50, 57.7, M
LOS GATOS CALIFORNIA, Santa Clara, CA04, -121.943, 37.203, 2000, 55.6, M
LOST HORSE CALIFORNIA, Riverside, CA07, -116.188, 34.018, 4200, 55.1, M
LINCOLN CALIFORNIA, Placer, CA02, -121.268, 38.883, 200, 56.7, M
LOWER KLAMATH CALIFORNIA, Siskiyou, CA01, -121.700, 41.999, 4098, 42.2, M
LOS PRIETOS CALIFORNIA, Santa Barbara, CA06, -119.783, 34.536, 1020, 59.5, M
LAS TABLAS CALIFORNIA, San Luis Obispo, CA04, -120.924, 35.656, 994, 54.1, M
LITTLE TUJUNGA CALIFORNIA, Los Angeles, CA06, -118.361, 34.294, 1390, 59.6, M
LYONS VALLEY CALIFORNIA, Lake, CA01, -123.074, 39.126, 3200, 50.0, M
LYTLE CREEK CALIFORNIA, San Bernardino, CA06, -117.480, 34.234, 2792, 57.8, M
MAD RIVER CALIFORNIA, Trinity, CA01, -123.524, 40.463, 2775, 47.6, M
MALIBU HILLS CALIFORNIA, Los Angeles, CA06, -118.633, 34.058, 1575, 61.3, M
MANZANITA LAKE CALIFORNIA, Shasta, CA02, -121.580, 40.540, 5660, 39.3, M
MILL CREEK (BDF) CALIFORNIA, San Bernardino, CA06, -117.035, 34.084, 2950, 59.9, M
MCGUIRES CALIFORNIA, Mendocino, CA01, -123.601, 39.353, 593, 50.5, M
MEANS LAKE CALIFORNIA, San Bernardino, CA07, -116.517, 34.391, 2900, 61.2, M
MENDOCINO PASS CALIFORNIA, Mendocino, CA01, -122.945, 39.808, 5420, 42.8, M
METCALF GAP CALIFORNIA, Madera, CA05, -119.768, 37.409, 3077, 55.8, M
MEYERS CALIFORNIA, El Dorado, CA03, -120.018, 38.849, 6310, 43.4, M
MID HILLS CALIFORNIA, San Bernardino, CA07, -115.411, 35.123, 5413, 52.3, M
MILL CREEK (ANF) CALIFORNIA, Los Angeles, CA06, -118.082, 34.390, 5021, 53.1, M
MILO CALIFORNIA, Tulare, CA05, -118.869, 36.231, 1923, 58.4, M
MALLORY RIDGE CALIFORNIA, Contra Costa, CA05, -121.779, 37.817, 2040, 54.9, M
MONTECITO CALIFORNIA, Santa Barbara, CA06, -119.648, 34.461, 1500, 60.7, M
MODOC NWR CALIFORNIA, Modoc, CA02, -120.354, 41.459, 4380, 41.7, M
MOUNTAIN REST CALIFORNIA, Fresno, CA05, -119.371, 37.054, 4100, 51.8, M
MARKLEEVILLE CALIFORNIA, Alpine, CA03, -119.767, 38.683, 5501, 44.0, M
MT. SHASTA CALIFORNIA, Siskiyou, CA02, -122.316, 41.316, -, 44.6, M
MARIPOSA CALIFORNIA, Mariposa, CA05, -119.987, 37.504, 2231, 54.0, M
MT. DIABLO CALIFORNIA, Contra Costa, CA05, -121.914, 37.882, 3849, 48.5, M
MOUNT ZION CALIFORNIA, Amador, CA05, -120.651, 38.389, 2960, 54.7, M
NORTH FORK CALIFORNIA, Madera, CA05, -119.505, 37.233, 2720, 54.1, M
OAK KNOLL CALIFORNIA, Siskiyou, CA01, -122.850, 41.839, 1940, 48.2, M
OAK MOUNTAIN CALIFORNIA, Shasta, CA02, -121.983, 41.006, 1700, 52.1, M
OAK CREEK CALIFORNIA, Inyo, CA07, -118.259, 36.843, 4855, 56.6, M
OAK GROVE CALIFORNIA, San Diego, CA06, -116.795, 33.393, 2752, 55.9, M
OAKLAND NORTH CALIFORNIA, Contra Costa, CA04, -122.221, 37.865, 1403, 53.5, M
OAK OPENING CALIFORNIA, Tulare, CA05, -118.702, 36.175, 3240, 54.4, M
OAKLAND SOUTH CALIFORNIA, Alameda, CA04, -122.145, 37.786, 1095, 54.0, M
OPAL MOUNTAIN CALIFORNIA, San Bernardino, CA07, -117.176, 35.154, 3240, 60.4, M
OWENS CAMP LOC CALIFORNIA, El Dorado, CA02, -120.245, 38.733, 5240, 45.4, M
OWENS VALLEY CALIFORNIA, Inyo, CA07, -118.551, 37.390, 4640, 55.0, M
OZENA CALIFORNIA, Ventura, CA06, -119.354, 34.682, 3670, 53.6, M
PANAMINT CALIFORNIA, Inyo, CA07, -117.088, 36.120, 6880, 48.9, M
PARKFIELD CALIFORNIA, Monterey, CA04, -120.432, 35.899, 1535, 54.9, M
PATTY MOCUS CALIFORNIA, Tehama, CA02, -122.867, 40.295, 3500, 49.7, M
PINE HILLS CALIFORNIA, San Diego, CA06, -116.634, 33.016, -, 54.2, M
PIERCE CALIFORNIA, Plumas, CA02, -120.642, 40.246, 5700, 42.0, M
PINEHURST CALIFORNIA, Fresno, CA05, -119.000, 36.685, 4060, 51.8, M
PIKE COUNTY LOOKOUT CALIFORNIA, Yuba, CA02, -121.202, 39.475, 3714, 51.1, M
PILOT HILL CALIFORNIA, El Dorado, CA02, -121.009, 38.833, 1200, 54.5, M
PARK RIDGE CALIFORNIA, Tulare, CA05, -118.942, 36.724, 7540, 23.8, M
PINNACLES CALIFORNIA, San Benito, CA04, -121.147, 36.471, 1322, 57.9, M
POPPY PARK CALIFORNIA, Los Angeles, CA07, -118.383, 34.733, 2760, 59.2, M
POTRERO CALIFORNIA, San Diego, CA06, -116.609, 32.606, 2345, 55.1, M
POVERTY CALIFORNIA, Santa Clara, CA04, -121.771, 37.443, 2066, 53.9, M
PANOCHE ROAD CALIFORNIA, Fresno, CA05, -120.766, 36.727, 2032, 57.3, M
PULGAS CALIFORNIA, San Mateo, CA04, -122.298, 37.475, 644, 55.9, M
QUARTZ HILL CALIFORNIA, Siskiyou, CA01, -122.934, 41.599, 4225, 45.8, M
QUINCY RD CALIFORNIA, Plumas, CA02, -120.942, 39.973, 3500, 49.0, M
RAVENDALE CALIFORNIA, Lassen, CA03, -120.316, 40.731, 5298, 41.3, M
RANCHITA CALIFORNIA, San Diego, CA07, -116.497, 33.222, 4415, 55.4, M
READER RANCH CALIFORNIA, Nevada, CA02, -121.117, 39.304, 1968, 54.6, M
REDDING AIRPORT CALIFORNIA, Shasta, CA02, -122.291, 40.516, 500, 56.2, M
RICE VALLEY CALIFORNIA, Riverside, CA07, -114.732, 34.061, 820, 67.5, M
ROCK CREEK, Mono, CA07, -118.667, 37.551, 7040, 43.2, M
RODEO VALLEY, Mendocino, CA01, -123.321, 39.668, 2428, 44.5, M
ROSE VALLEY CALIFORNIA, Ventura, CA06, -119.184, 34.543, 3331, 50.4, M
ROUND MOUNTAIN, Siskiyou, CA02, -121.464, 41.427, 5258, 42.1, M
ROSE PEAK CALIFORNIA, Alameda, CA04, -121.735, 37.502, 3060, 51.0, M
RUSH CREEK CALIFORNIA, Modoc, CA02, -120.864, 41.294, 4800, 42.5, M
RUTH CALIFORNIA, Trinity, CA01, -123.316, 40.251, 2732, 48.5, M
SACRAMENTO NWR CALIFORNIA, Glenn, CA02, -122.182, 39.417, 120, 57.9, M
SADDLEBACK BUTTE CALIFORNIA, Los Angeles, CA07, -117.821, 34.685, 2590, 58.2, M
SAUGUS CALIFORNIA, Los Angeles, CA06, -118.525, 34.425, 1450, 62.3, M
SAWYERS BAR CALIFORNIA, Siskiyou, CA01, -123.132, 41.300, 2192, 48.3, M
SANTA BARBARA ISLAND CALIFORNI, Santa Barbara, CA06, -119.033, 33.483, 176, M, M
SANTA CRUZ ISLAND CALIFORNIA, Santa Barbara, CA06, -119.722, 33.996, 250, 58.3, M
SCORPION CALIFORNIA, Trinity, CA01, -122.697, 41.112, 4400, 50.2, M
SODA CREEK CALIFORNIA, Lake, CA01, -122.977, 39.425, 1773, 50.2, M
SECRET TOWN CALIFORNIA, Nevada, CA02, -120.885, 39.184, 2826, 52.0, M
SANTA FE DAM CALIFORNIA, Los Angeles, CA06, -117.946, 34.121, 500, 64.5, M
SHAVER CALIFORNIA, Fresno, CA05, -119.256, 37.135, 5746, 42.2, M
SCHOOL HOUSE CALIFORNIA, Humboldt, CA01, -123.906, 41.138, 2640, 45.5, M
SHIP MTN. CALIFORNIA, Del Norte, CA01, -123.792, 41.736, 5300, 40.6, M
SHADEQUARTER CALIFORNIA, Tulare, CA05, -118.956, 36.567, 4069, 51.9, M
SIMS CALIFORNIA, Shasta, CA02, -122.373, 41.075, 2400, 52.1, M
SLATER BUTTE CALIFORNIA, Siskiyou, CA01, -123.352, 41.859, 4670, 46.0, M
SAN MIGUEL CALIFORNIA, San Diego, CA06, -116.974, 32.685, 425, 60.4, M
SAN LUIS NWR CALIFORNIA, Merced, CA05, -120.794, 37.182, 65, 58.9, M
SANTA RITA CALIFORNIA, San Benito, CA05, -120.598, 36.348, 5000, 48.9, M
SOLDIER MOUNTAIN CALIFORNIA, Shasta, CA02, -121.586, 40.926, 3710, 47.2, M
SOMES BAR CALIFORNIA, Siskiyou, CA01, -123.496, 41.390, 920, 53.5, M
SQUAW SPRINGS CALIFORNIA, San Bernardino, CA07, -117.568, 35.370, 3620, 60.7, M
SQUAW LAKE CALIFORNIA, Imperial, CA07, -114.494, 32.908, 300, 71.7, M
SANTA ROSA ISLAND CALIFORNIA, Santa Barbara, CA06, -120.078, 33.978, 1298, 54.3, M
SANTA ROSA PLATEAU CALIFORNIA, Riverside, CA06, -117.231, 33.529, 1980, 59.1, M
SANTA ROSA CALIFORNIA, Sonoma, CA01, -122.712, 38.479, 576, 54.6, M
STAMPEDE CALIFORNIA, Sierra, CA03, -120.075, 39.483, 6867, 41.3, M
STONYFORD CALIFORNIA, Colusa, CA02, -122.575, 39.367, 1200, 53.4, M
SUGARLOAF (SHF) CALIFORNIA, Shasta, CA02, -122.438, 40.917, 4200, 49.9, M
SPRING VALLEY CALIFORNIA, San Mateo, CA04, -122.436, 37.563, 1075, 52.2, M
TANBARK CALIFORNIA, Los Angeles, CA06, -117.761, 34.207, 2600, 59.0, M
TEMESCAL (LPF) CALIFORNIA, Ventura, CA06, -118.756, 34.481, 1140, 60.0, M
THOMES CREEK CALIFORNIA, Tehama, CA02, -122.610, 39.864, 1040, 58.7, M
TIMBER MOUNTAIN CALIFORNIA, Modoc, CA01, -121.298, 41.629, 4960, 41.8, M
MOUNT TOM CALIFORNIA, Fresno, CA05, -119.178, 37.376, 9018, 36.4, M
LAS TRAMPAS CALIFORNIA, Contra Costa, CA04, -122.067, 37.834, 1760, 54.7, M
TRINITY CAMP CALIFORNIA, Trinity, CA01, -122.804, 40.786, 3308, 46.9, M
TRIMMER CALIFORNIA, Fresno, CA05, -119.305, 36.911, 1540, 57.0, M
UHL / HOT SPRINGS, Tulare, CA05, -118.633, 35.889, 3720, 52.2, M
UNDERWOOD CALIFORNIA, Trinity, CA01, -123.495, 40.722, 2600, 48.4, M
VALLEY CENTER CALIFORNIA, San Diego, CA06, -117.009, 33.237, 1483, 59.2, M
VAN BREMMER CALIFORNIA, Siskiyou, CA01, -121.794, 41.643, 4928, 42.8, M
VALYERMO CALIFORNIA, Los Angeles, CA07, -117.851, 34.446, 3780, 55.0, M
VANDENBERG CALIFORNIA, Santa Barbara, CA06, -120.486, 34.759, 1050, 56.1, M
WALKER CALIFORNIA, Mono, CA03, -119.459, 38.565, 5440, 47.8, M
WALKER PASS CALIFORNIA, Kern, CA05, -118.057, 35.665, 5572, 53.5, M
WARM SPRINGS CALIFORNIA, Los Angeles, CA06, -118.579, 34.596, 4930, 57.6, M
WEED AIRPORT CALIFORNIA, Siskiyou, CA01, -122.454, 41.479, 2930, 46.4, M
WESTWOOD CALIFORNIA, Lassen, CA02, -120.900, 40.307, 5800, 41.8, M
WHITE CLOUD CALIFORNIA, Nevada, CA02, -120.837, 39.317, 4320, 51.1, M
WHITTIER HILLS CALIFORNIA, Los Angeles, CA06, -118.010, 33.984, 950, 62.1, M
WHITMORE CALIFORNIA, Shasta, CA02, -121.899, 40.619, 2417, 53.0, M
WILEY RIDGE CALIFORNIA, Ventura, CA06, -118.841, 34.372, 1645, 60.2, M
WOFFORD HEIGHTS CALIFORNIA, Kern, CA05, -118.499, 35.722, 3150, 54.8, M
WOLVERTON CALIFORNIA, Tulare, CA05, -118.703, 36.445, 5240, 50.8, M
WOODACRE CALIFORNIA, Marin, CA01, -122.645, 37.991, 1400, 54.3, M
WHITAKER PEAK CALIFORNIA, Los Angeles, CA06, -118.740, 34.569, 4120, 56.5, M
WHITE WOLF CALIFORNIA, Tuolumne, CA05, -119.650, 37.851, 8025, 39.5, M
YOLLA BOLLA CALIFORNIA, Trinity, CA01, -123.066, 40.338, 4524, 46.2, M
YUCCA VALLEY CALIFORNIA, San Bernardino, CA07, -116.408, 34.123, 3260, 59.0, M
YUROK CALIFORNIA, Humboldt, CA01, -123.857, 41.290, 495, 52.8, M
HAGAN'S MEADOW, El Dorado, CA03, -119.940, 38.850, 7776, 37.1, 1.90
BLUE LAKES, Alpine, CA05, -119.920, 38.610, 8057, 34.2, 3.60
POISON FLAT, Alpine, CA03, -119.630, 38.510, 7736, 36.6, 1.60
SONORA PASS, Mono, CA03, -119.600, 38.310, 8827, 35.7, 2.40
LEAVITT MEADOWS, Mono, CA03, -119.550, 38.300, 7198, 39.6, 1.60
VIRGINIA LAKES RIDGE, Mono, CA03, -119.230, 38.070, 9445, 35.8, 1.40
LOBDELL LAKE, Mono, CA03, -119.370, 38.440, 9233, 33.8, 1.50
EBBETTS PASS, Alpine, CA03, -119.800, 38.550, 8765, 36.6, 4.10
HEAVENLY VALLEY, El Dorado, CA03, -119.920, 38.920, 8582, 35.1, 2.30
LEAVITT LAKE, Mono, CA03, -119.610, 38.280, 9617, 34.5, 4.10
SPRATT CREEK, Alpine, CA03, -119.820, 38.670, 6115, 42.4, 2.00
MONITOR PASS, Alpine, CA03, -119.610, 38.670, 8310, 38.0, 1.50
BURNSIDE LAKE, Alpine, CA03, -119.890, 38.720, 8129, 33.7, 2.60
SUMMIT MEADOW, Mono, CA03, -119.540, 38.400, 9313, 34.8, 1.60
FORESTDALE CREEK, Alpine, CA03, -119.960, 38.680, 8017, 38.0, 3.40
HORSE MEADOW, Alpine, CA03, -119.890, 38.840, 8557, 36.0, 1.40
CARSON PASS, Alpine, CA02, -119.990, 38.690, 8353, 36.2, 3.10
CROWDER FLAT, Modoc, CA01, -120.750, 41.890, 5170, 39.8, 1.00
CEDAR PASS, Modoc, CA02, -120.300, 41.580, 7030, 36.7, 1.70
DISMAL SWAMP, Modoc, CA03, -120.180, 41.990, 7360, 33.5, 2.20
ADIN MTN, Modoc, CA02, -120.790, 41.240, 6190, 35.9, 1.10
INDEPENDENCE CREEK, Sierra, CA03, -120.280, 39.490, 6456, 37.9, 1.30
INDEPENDENCE CAMP, Sierra, CA03, -120.290, 39.450, 7003, 37.2, 1.40
INDEPENDENCE LAKE, Nevada, CA03, -120.310, 39.430, 8352, 36.2, 3.40
ANDERSON 8.5 WNW, Shasta, CA02, -122.452, 40.475, 819, M, 1.65
KING CITY 11.1 SSW, Monterey, CA04, -121.189, 36.060, 1354, M, 1.17
RED BLUFF 5.7 W, Tehama, CA02, -122.346, 40.161, 490, M, 1.45
OAKLAND 1.0 NE, Alameda, CA04, -122.212, 37.782, 129, M, 0.29
CHICO 1.1 SSE, Butte, CA02, -121.798, 39.739, 248, M, 1.06
BENICIA 1.0 N, Solano, CA01, -122.157, 38.086, 246, M, 0.32
SANTA CRUZ 6.3 NNE, Santa Cruz, CA04, -121.981, 37.057, 400, M, 2.09
RED BLUFF 19.0 SW, Tehama, CA02, -122.535, 40.016, 773, M, 1.05
RED BLUFF 3.5 NNE, Tehama, CA02, -122.205, 40.216, 345, M, 1.29
GARDEN GROVE 0.8 ESE, Orange, CA06, -117.946, 33.775, 85, M, 0.45
DESCANSO 3.7 NNW, San Diego, CA06, -116.626, 32.906, 3278, M, 0.02
ESCONDIDO 0.8 NNE, San Diego, CA06, -117.066, 33.147, 734, M, 1.77
EL CAJON 2.8SE, San Diego, CA06, -116.920, 32.772, 686, M, 1.35
OCEANSIDE 8.1ENE, San Diego, CA06, -117.256, 33.250, 189, M, 1.26
OCEANSIDE 2.2ENE, San Diego, CA06, -117.344, 33.205, 241, M, 0.00
SAN DIEGO 2NNE, San Diego, CA06, -117.150, 32.744, 295, M, 1.50
VACAVILLE 7.2 WNW, Solano, CA02, -122.081, 38.415, 1427, M, 1.07
OROVILLE 4.6 ENE, Butte, CA02, -121.489, 39.531, 394, M, 1.98
MEADOW VALLEY 5.6 WSW, Plumas, CA02, -121.100, 39.919, 4438, M, 0.60
MORGAN HILL 6.4 NE, Santa Clara, CA04, -121.546, 37.186, 2624, M, 0.37
SPRING VALLEY 0.9 W, San Diego, CA06, -117.004, 32.719, 339, M, 0.68
LOS MOLINOS 5.8 N, Tehama, CA02, -122.084, 40.111, 259, M, 0.97
WOODSIDE 3.4 S, San Mateo, CA04, -122.264, 37.375, 1592, M, 1.60
LA CRESCENTA-MONTROSE 1.6 WNW, Los Angeles, CA06, -118.261, 34.241, 1872, M, 0.00
COTTONWOOD 3.2 WSW, Shasta, CA02, -122.339, 40.378, 460, M, 2.06
ADELANTO 3.1 S, San Bernardino, CA07, -117.433, 34.525, 3085, M, 0.10
CHICO 1.3 E, Butte, CA02, -121.782, 39.755, 362, M, 1.95
FOLSOM 0.5 W, Sacramento, CA02, -121.156, 38.675, 335, M, 1.07
REDDING 7.3 NE, Shasta, CA02, -122.255, 40.637, 682, M, 2.03
YUCCA VALLEY 1.1 SW, San Bernardino, CA07, -116.443, 34.100, 3628, M, 0.17
SAUSALITO 0.3 WNW, Marin, CA01, -122.497, 37.859, 159, M, 0.68
LONG BEACH 1.1 SE, Los Angeles, CA06, -118.147, 33.777, 48, M, 0.87
RANCHO PALOS VERDES 1.3 NNW, Los Angeles, CA06, -118.370, 33.775, 1014, M, 1.46
THOUSAND OAKS 2.7 NW, Ventura, CA06, -118.897, 34.222, 681, M, 0.00
RANCHO CORDOVA 1.5 SE, Sacramento, CA02, -121.281, 38.580, 104, M, 1.78
ATASCADERO 3.1 WNW, San Luis Obispo, CA04, -120.738, 35.503, 1403, M, 1.23
TRUCKEE #2, Placer, CA03, -120.180, 39.300, 6509, 41.2, 2.00
WARD CREEK #3, Placer, CA03, -120.220, 39.140, 6655, 39.5, 5.20
TAHOE CITY CROSS, Placer, CA03, -120.150, 39.170, 6797, 40.3, 2.70
SQUAW VALLEY G.C., Placer, CA03, -120.260, 39.190, 8029, 37.4, 4.30
CSS LAB, Nevada, CA02, -120.370, 39.330, 6855, 39.2, 5.00
RUBICON #2, El Dorado, CA03, -120.130, 39.000, 7689, 38.9, 3.30
ECHO PEAK, El Dorado, CA03, -120.080, 38.850, 7670, 38.7, 4.50
FALLEN LEAF, El Dorado, CA03, -120.050, 38.930, 6236, 39.5, 2.10
BEAR VALLEY F.D., Kern, CA01, -118.644, 35.166, 4100, 44.4, 1.30
GRIDLEY 0.4 NNE, Butte, CA02, -121.693, 39.369, 86, M, 1.53
WASCO 0.8 SSW, Kern, CA05, -119.348, 35.583, 325, M, 0.02
NEVADA CITY 1.7 SSE, Nevada, CA02, -121.006, 39.238, 3168, M, 1.65
GERBER-LAS FLORES 3.5 SW, Tehama, CA02, -122.190, 40.022, 272, M, 0.77
CARLSBAD 1.3ENE, San Diego, CA06, -117.331, 33.166, 194, M, 1.10
SAN MATEO 1.2 SW, San Mateo, CA04, -122.329, 37.550, 114, M, 0.60
IRVINE 2.2 NNW, Orange, CA06, -117.811, 33.691, 62, M, 0.67
BARSTOW 0.8 SSE, San Bernardino, CA07, -117.059, 34.867, 2609, M, 0.39
MCOLF CAMP PENDLETON RED BEACH AIRPORT, San Diego, -, -117.456, 33.286, 89, 57.3, 0.88
CAMPO ASOS, San Diego, CA07, -116.468, 32.626, 2641, 52.8, 1.43
Burbank Glendale Pasadena Area, -, -, -, -, -, 64.0, 0.89
Camarillo Area, -, -, -, -, -, 58.4, 0.87
Needles Area, -, -, -, -, -, 69.8, 0.25
Oxnard Area, -, -, -, -, -, 57.0, 0.96
Palm Springs Area, -, -, -, -, -, 71.2, 0.04
Riverside Area, -, -, -, -, -, 62.6, 0.63
Ramona Area, -, -, -, -, -, 55.4, 1.41
Northern CA 8 Station Index, -, -, -, -, -, M, 3.67
San Joaquin 5 Station Index, -, -, -, -, -, M, 2.81
Tulare 6 Station Index, -, -, -, -, -, M, 1.06
SMARTSVILLE 2.4 S, Yuba, CA02, -121.291, 39.173, 859, M, 2.58
Crescent City Area, -, -, -, -, -, 47.9, 4.79
Escondido Area, -, -, -, -, -, 61.6, 1.74
Sacramento Downtown Area, -, -, -, -, -, 59.4, 1.59
Tahoe City Area, -, -, -, -, -, 38.2, 1.92
Ukiah Area, -, -, -, -, -, 53.4, 2.21
Alturas Area, -, -, -, -, -, 40.0, 0.32
Mount Shasta Area, -, -, -, -, -, 44.9, 2.89
Palmdale Area, -, -, -, -, -, 58.4, 0.25
Lancaster Area, -, -, -, -, -, 58.5, 0.35
PIONEER 2.7 NNE, Amador, CA05, -120.551, 38.468, 3412, M, 2.15
El Cajon Area, -, -, -, -, -, 61.4, 1.35
Hanford Area, -, -, -, -, -, 58.9, 0.67
El Centro Area, -, -, -, -, -, 69.6, 0.03
Madera Area, -, -, -, -, -, 58.4, 0.75
Merced Area, -, -, -, -, -, 59.1, 0.74
San Jose Area, -, -, -, -, -, 56.7, 0.87
UKIAH 4.3 S, Mendocino, CA01, -123.219, 39.083, 691, M, 2.65
LAYTONVILLE 1.1 SW, Mendocino, CA01, -123.490, 39.672, 1647, M, 4.63
POINT ARENA 4.8 ESE, Mendocino, CA01, -123.610, 38.883, 1048, M, 0.59
LEE VINING 5.9 NW, Mono, CA03, -119.170, 38.034, 7094, M, 0.06
MARIPOSA 3.7 NNW, Mariposa, CA05, -119.988, 37.540, 2942, M, 1.76
MARIPOSA 12.5 E, Mariposa, CA05, -119.742, 37.461, 2952, M, 2.23
LA GRANGE 7.8 ESE, Mariposa, CA05, -120.327, 37.635, 1114, M, 1.32
CATHEYS VALLEY 1.2 S, Mariposa, CA05, -120.100, 37.415, 1172, M, 0.98
WOODACRE 0.6 SW, Marin, CA01, -122.635, 38.005, 439, M, 1.47
SAN ANSELMO 1.2 NNW, Marin, CA01, -122.580, 37.997, 370, M, 1.16
NOVATO 4.8 WNW, Marin, CA01, -122.644, 38.106, 246, M, 0.97
SAN ANSELMO 0.4 NE, Marin, CA01, -122.564, 37.987, 107, M, 1.27
IGNACIO 0.6 SW, Marin, CA01, -122.546, 38.065, 57, M, 0.77
PETALUMA 10.1 W, Marin, CA01, -122.812, 38.248, 119, M, 1.45
TOMALES 1.3 ENE, Marin, CA01, -122.883, 38.251, 128, M, 1.42
SAN RAFAEL 3.9 NW, Marin, CA01, -122.547, 38.027, 72, M, 1.09
MILL VALLEY 1.5 S, Marin, CA01, -122.544, 37.886, 209, M, 1.40
LOCKWOOD 3.6 NW, Monterey, CA04, -121.117, 35.981, 1181, M, 0.49
KING CITY 13.2 S, Monterey, CA04, -121.174, 36.025, 1104, M, 0.78
CASTROVILLE 1.6 ENE, Monterey, CA04, -121.728, 36.776, 18, M, 0.48
KING CITY 2.0 SSW, Monterey, CA04, -121.146, 36.187, 371, M, 0.45
PACIFIC GROVE 1.5 SSW, Monterey, CA04, -121.932, 36.602, 280, M, 0.92
BIG SUR 4.0 SE, Monterey, CA04, -121.763, 36.224, 824, M, 1.20
BIG SUR 3.2 SE, Monterey, CA04, -121.769, 36.236, 739, M, 1.35
AROMAS 2.0 SSW, Monterey, CA04, -121.650, 36.850, 344, M, 0.76
CARMEL VALLEY VILLAGE 0.7 SSE, Monterey, CA04, -121.720, 36.476, 446, M, 0.33
CASTROVILLE 1.6 ENE, Monterey, CA04, -121.727, 36.777, 17, M, 0.49
MARINA 0.8 SSE, Monterey, CA04, -121.784, 36.673, 118, M, 0.75
CARMEL VALLEY VILLAGE 5.4 WNW, Monterey, CA04, -121.810, 36.522, 133, M, 0.86
BIG SUR 9.5 NNW, Monterey, CA04, -121.869, 36.398, 1100, M, 0.74
CALISTOGA 0.4 SSE, Napa, CA01, -122.578, 38.576, 348, M, 1.64
ST. HELENA 1.1 S, Napa, CA01, -122.462, 38.489, 248, M, 1.62
AMERICAN CANYON 0.3 S, Napa, CA01, -122.260, 38.169, 37, M, 0.24
NEVADA CITY 3.4 NNW, Nevada, CA02, -121.040, 39.307, 2390, M, 3.46
KINGVALE 1.3 WSW, Nevada, CA02, -120.452, 39.317, 6035, M, 5.18
GRASS VALLEY 5.0 S, Nevada, CA02, -121.042, 39.149, 2312, M, 1.21
ALTA SIERRA 1.3 S, Nevada, CA02, -121.057, 39.104, 2154, M, 1.41
LAKE OF THE PINES 1.0 WSW, Nevada, CA02, -121.077, 39.032, 1576, M, 2.58
ALTA SIERRA 0.4 WSW, Nevada, CA02, -121.060, 39.120, 2303, M, 3.17
NEVADA CITY 5.4 W, Nevada, CA02, -121.121, 39.268, 1982, M, 3.05
ALTA SIERRA 1.4 SSW, Nevada, CA02, -121.058, 39.103, 2057, M, 3.42
GRASS VALLEY 0.5 NNW, Nevada, CA02, -121.059, 39.229, 2669, M, 2.12
LAKE OF THE PINES 4.7 WNW, Nevada, CA02, -121.146, 39.054, 1480, M, 2.96
ORANGE 3.5 ENE, Orange, CA06, -117.770, 33.829, 811, M, 0.73
LAGUNA NIGUEL 0.9 W, Orange, CA06, -117.720, 33.528, 477, M, 0.94
SILVERADO 1.0 ESE, Orange, CA06, -117.620, 33.746, 1394, M, 1.07
LAGUNA BEACH 3.2 SSE, Orange, CA06, -117.739, 33.498, 194, M, 0.20
NEWPORT BEACH 3.1 ESE, Orange, CA06, -117.865, 33.589, 84, M, 0.50
MISSION VIEJO 1.6 ENE, Orange, CA06, -117.627, 33.624, 1018, M, 0.78
MISSION VIEJO 1.3 SSE, Orange, CA06, -117.644, 33.595, 704, M, 0.76
ANAHEIM 4.9 ENE, Orange, CA06, -117.792, 33.863, 298, M, 0.62
SODA SPRINGS 1.5 SSW, Placer, CA02, -120.384, 39.302, 6887, M, 6.87
ROSEVILLE 4.7 WNW, Placer, CA02, -121.377, 38.780, 96, M, 1.80
PENRYN 0.4 SE, Placer, CA02, -121.158, 38.847, 610, M, 2.34
COLFAX 3.1 SW, Placer, CA02, -120.991, 39.061, 2077, M, 3.19
NEWCASTLE 1.6 SSE, Placer, CA02, -121.123, 38.851, 800, M, 2.08
LINCOLN 4.3 SSE, Placer, CA02, -121.284, 38.842, 172, M, 2.09
IDYLLWILD 1.8 NW, Riverside, CA06, -116.735, 33.763, 6325, M, 2.42
DESERT HOT SPRINGS 3.0 NW, Riverside, CA07, -116.541, 33.985, 1339, M, 0.13
HEMET 4.1 ENE, Riverside, CA06, -116.920, 33.753, 1698, M, 1.28
CORONA 12.8 SE, Riverside, CA06, -117.428, 33.731, 1404, M, 0.70
LAKE ELSINORE 3.5 WSW, Riverside, CA06, -117.381, 33.657, 1356, M, 0.92
NORCO 1.2 S, Riverside, CA06, -117.548, 33.908, 661, M, 0.74
PERRIS 8.5 WNW, Riverside, CA06, -117.365, 33.826, 1639, M, 0.57
BEAUMONT 2.5 NW, Riverside, CA06, -117.012, 33.954, 2532, M, 1.49
RIVERSIDE 3.8 NW, Riverside, CA06, -117.454, 33.979, 841, M, 0.89
NORCO 2.3 SE, Riverside, CA06, -117.518, 33.906, 1091, M, 0.67
RIVERSIDE 2.6 E, Riverside, CA06, -117.353, 33.935, 1301, M, 0.59
CARMICHAEL 1.6 SW, Sacramento, CA02, -121.340, 38.617, 102, M, 2.09
SACRAMENTO 8.0 NE, Sacramento, CA02, -121.361, 38.635, 95, M, 2.12
FOLSOM 3.4 ESE, Sacramento, CA05, -121.091, 38.655, 594, M, 2.27
CARMICHAEL 0.9 NE, Sacramento, CA02, -121.306, 38.643, 130, M, 1.76
CARMICHAEL 1.4 W, Sacramento, CA02, -121.345, 38.638, 109, M, 1.93
FOLSOM 1.2 SSE, Sacramento, CA02, -121.140, 38.660, 362, M, 2.04