Name, County, ClimateDivision, Longitude, Latitude, Elevation, MeanAvgTemperature, TotalPrecipitation
IMPERIAL, Imperial, CA07, -115.567, 32.849, -64, 65.2, 1.01
EL CAPITAN DAM, San Diego, CA06, -116.815, 32.886, 600, 64.0, 0.64
LAKESIDE 2 E, San Diego, CA06, -116.895, 32.854, 690, M, 0.39
POWAY VALLEY, San Diego, CA06, -117.031, 33.020, 648, 60.3, 0.45
JULIAN CDF, San Diego, CA06, -116.592, 33.076, 4215, 51.2, 1.48
CARLSBAD MCCLELLAN PALOMAR AP, San Diego, CA06, -117.277, 33.130, 313, 61.9, 0.90
HENSHAW DAM, San Diego, CA06, -116.761, 33.237, 2700, 51.1, 0.75
VISTA, San Diego, CA06, -117.232, 33.235, 430, 61.0, 1.07
OCEANSIDE MARINA, San Diego, CA06, -117.395, 33.210, 10, 59.7, 1.10
NILAND, Imperial, CA07, -115.524, 33.278, -60, M, 0.20
BORREGO DESERT PARK, San Diego, CA07, -116.404, 33.256, 810, 63.7, 0.17
PALOMAR MTN OBSERVATORY, San Diego, CA06, -116.840, 33.378, 5550, 49.2, 1.00
MECCA FIRE STATION, Riverside, CA07, -116.073, 33.570, -183, 64.8, 0.08
LAGUNA BEACH, Orange, CA06, -117.781, 33.545, 44, M, 0.48
BLYTHE ASOS, Riverside, CA07, -114.715, 33.619, 395, 63.2, 0.74
DESERT RESORTS REGIONAL AP, Riverside, CA07, -116.164, 33.632, -118, 62.1, 0.07
BARSTOW-DAGGETT AIRPORT, San Bernardino, CA07, -116.787, 34.854, 1919, 56.4, 1.76
SAN DIEGO MONTGOMERY FIELD, San Diego, CA06, -117.137, 32.815, 418, 61.5, 0.29
SAN DIEGO INTERNATIONAL AP, San Diego, CA06, -117.183, 32.734, 15, 63.9, 1.48
SAN DIEGO MIRAMAR NAS, San Diego, CA06, -117.133, 32.867, 477, 61.2, 0.26
NORTH ISLAND NAS, San Diego, CA06, -117.210, 32.692, 14, 66.6, 1.12
SAN FRANCISCO INTERNATIONAL AP, San Mateo, CA04, -122.366, 37.620, 10, 57.2, 0.91
SAN LUIS OBISPO MCCHESNEY FIELD, San Luis Obispo, CA04, -120.644, 35.238, 183, 59.1, 0.17
CEDARVILLE, Modoc, CA03, -120.179, 41.530, 4688, 41.1, 0.72
CHICO UNIVERSITY FARM, Butte, CA02, -121.821, 39.691, 185, 55.6, 1.16
CHULA VISTA, San Diego, CA06, -117.086, 32.640, 56, 61.9, 0.38
COLFAX, Placer, CA02, -120.947, 39.090, 2373, 56.0, 1.79
CUYAMACA, San Diego, CA06, -116.587, 32.990, 4640, 48.7, 1.98
DAVIS 2 WSW EXP FARM, Yolo, CA02, -121.776, 38.535, 60, 56.2, 0.68
DEATH VALLEY NATIONAL PARK, Inyo, CA07, -116.867, 36.463, -194, 62.9, 0.38
FAIRMONT, Los Angeles, CA07, -118.430, 34.705, 3060, 55.1, 0.60
FORT BRAGG 5 N, Mendocino, CA01, -123.756, 39.510, 123, 50.7, 1.45
HANFORD 1 S, Kings, CA05, -119.637, 36.316, 237, 55.5, 0.33
HAPPY CAMP RANGER STATION, Siskiyou, CA01, -123.375, 41.796, 1142, 47.9, 2.04
INDIO FIRE STATION, Riverside, CA07, -116.215, 33.709, -21, 66.3, 0.12
LEMON COVE, Tulare, CA05, -119.026, 36.382, 513, 56.6, 0.58
LIVERMORE, Alameda, CA04, -121.751, 37.682, 529, 55.0, 1.30
LODI, San Joaquin, CA05, -121.288, 38.106, 40, 55.0, 0.05
MERCED MUNICIPAL AP, Merced, CA05, -120.518, 37.286, 152, 53.9, 0.62
NAPA STATE HOSPITAL, Napa, CA01, -122.265, 38.278, 35, 55.7, 1.13
OJAI, Ventura, CA06, -119.227, 34.448, 745, 57.7, 0.67
ORLAND, Glenn, CA02, -122.200, 39.746, 254, 56.4, 0.67
ORLEANS, Humboldt, CA01, -123.532, 41.309, 403, 48.9, 1.63
PASADENA, Los Angeles, CA06, -118.145, 34.148, 864, 64.8, 1.08
PASO ROBLES, San Luis Obispo, CA04, -120.685, 35.628, 730, 53.7, 0.26
PETALUMA AIRPORT, Sonoma, CA01, -122.608, 38.258, 20, 54.7, 0.87
QUINCY, Plumas, CA02, -120.947, 39.937, 3420, 40.2, 1.03
REDLANDS, San Bernardino, CA06, -117.195, 34.037, 1410, 59.5, 1.33
SANTA BARBARA, Santa Barbara, CA06, -119.684, 34.417, 16, 59.9, 0.92
SANTA CRUZ, Santa Cruz, CA04, -122.000, 36.988, 70, 56.1, 0.72
TAHOE CITY, Placer, CA03, -120.143, 39.168, 6230, 39.4, 0.39
WASCO, Kern, CA05, -119.352, 35.589, 291, 57.9, 0.23
WEAVERVILLE, Trinity, CA01, -122.940, 40.737, 2058, 46.8, 1.42
WILLOWS 6 W, Glenn, CA02, -122.305, 39.523, 234, 57.7, 0.34
YOSEMITE PARK HEADQUARTERS, Mariposa, CA05, -119.590, 37.750, 4018, 47.0, 0.73
YREKA, Siskiyou, CA01, -122.641, 41.703, 2709, 42.5, 0.57
BERKELEY, Alameda, CA04, -122.260, 37.874, 310, 57.7, 1.55
BLYTHE, Riverside, CA07, -114.597, 33.613, 268, 61.8, 0.92
EUREKA WFO WOODLEY ISLAND, Humboldt, CA01, -124.160, 40.810, 20, 49.5, 1.29
INDEPENDENCE, Inyo, CA07, -118.204, 36.798, 3950, 50.6, 0.04
SAN LUIS OBISPO POLY, San Luis Obispo, CA04, -120.662, 35.306, 308, 60.2, 0.34
BURNEY, Shasta, CA02, -121.655, 40.880, 3198, 40.3, 0.69
IMPERIAL BEACH REAM FIELD NAS, San Diego, CA06, -117.117, 32.568, 24, 59.4, T
CAMPO, San Diego, CA06, -116.470, 32.626, 2630, 53.4, 0.87
EL CENTRO 2 SSW, Imperial, CA07, -115.562, 32.767, -30, 65.8, 1.12
IMPERIAL COUNTY AP, Imperial, CA07, -115.577, 32.835, -55, 63.6, 0.95
EL CENTRO NAF, Imperial, CA07, -115.664, 32.832, -46, 63.5, 1.21
ALPINE, San Diego, CA06, -116.777, 32.836, 1695, 59.0, 1.52
DEEP CANYON LAB, Riverside, CA07, -116.376, 33.651, 1200, M, 0.12
ELSINORE, Riverside, CA06, -117.346, 33.686, 1268, 60.4, 0.53
SANTA ANA JOHN WAYNE AP, Orange, CA06, -117.867, 33.680, 43, 63.8, 0.44
HAYFIELD PUMPING PLANT, Riverside, CA07, -115.629, 33.704, 1370, 60.1, 0.07
IDYLLWILD FIRE DEPT, Riverside, CA06, -116.707, 33.757, 5380, 49.2, 1.26
SAN JACINTO, Riverside, CA06, -116.975, 33.797, 1525, 59.4, 0.54
HEMET, Riverside, CA06, -116.894, 33.738, 1811, 61.1, 0.75
SANTA ANA FIRE STATION, Orange, CA06, -117.867, 33.744, 135, 64.0, 0.46
EAGLE MOUNTAIN, Riverside, CA07, -115.451, 33.809, 973, 62.6, 0.58
PALM SPRINGS, Riverside, CA07, -116.510, 33.828, 425, 65.3, 0.11
LONG BEACH DAUGHERTY AP, Los Angeles, CA06, -118.147, 33.812, 34, 63.6, 0.78
PALOS VERDES ES FC43D, Los Angeles, CA06, -118.391, 33.800, 220, M, 0.79
FULLERTON MUNICIPAL AP, Orange, CA06, -117.986, 33.872, 86, 64.2, 0.65
BEAUMONT #2, Riverside, CA07, -116.990, 33.926, 2591, M, 0.90
MARCH AFB, Riverside, CA06, -117.250, 33.900, 1536, 57.3, 0.46
YORBA LINDA, Orange, CA06, -117.819, 33.890, 350, M, 0.64
HAWTHORNE MUNICIPAL AP, Los Angeles, CA06, -118.333, 33.924, 55, 64.6, 0.64
LOS ANGELES INTL AP, Los Angeles, CA06, -118.387, 33.938, 97, 64.1, 0.69
RIVERSIDE FIRE STATION 3, Riverside, CA06, -117.388, 33.951, 840, 61.9, 1.15
RIVERSIDE MUNICIPAL AP, Riverside, CA06, -117.435, 33.953, 845, 62.2, 0.52
CHINO AP, San Bernardino, CA06, -117.625, 33.976, 636, 60.2, 0.13
WHITTIER CITY YARD FC106C, Los Angeles, CA06, -118.022, 33.976, 446, M, 0.77
CULVER CITY, Los Angeles, CA06, -118.414, 34.005, 92, 62.7, 0.53
SANTA MONICA MUNICIPAL AP, Los Angeles, CA06, -118.447, 34.021, 175, 63.5, 0.21
ONTARIO INTL AP, San Bernardino, CA06, -117.577, 34.053, 924, 61.8, 0.32
POMONA/FAIRPLEX, Los Angeles, CA06, -117.766, 34.082, 999, 61.2, 0.73
COVINA CITY YARD FC387B, Los Angeles, CA06, -117.880, 34.092, 607, M, 0.59
U C L A, Los Angeles, CA06, -118.443, 34.070, 430, 65.5, 0.70
TOPANGA PATROL FC-6, Los Angeles, CA06, -118.599, 34.084, 745, M, 0.59
IRON MOUNTAIN, San Bernardino, CA07, -115.122, 34.147, 922, 63.6, 0.86
TWENTYNINE PALMS, San Bernardino, CA07, -116.037, 34.128, 1975, 59.4, 0.74
JOSHUA TREE, San Bernardino, CA07, -116.275, 34.147, 2563, 56.0, 0.33
SAN DIMAS FIRE FC 95, Los Angeles, CA06, -117.802, 34.105, 958, M, 0.78
SAN GABRIEL FIRE DEPT, Los Angeles, CA06, -118.100, 34.084, 363, 63.7, 0.00
POINT MUGU NF, Ventura, CA06, -119.123, 34.124, 12, 62.1, 0.16
ALTADENA, Los Angeles, CA06, -118.138, 34.182, 1127, M, 0.73
SAN GABRIEL CANYON PH, Los Angeles, CA06, -117.908, 34.155, 744, 66.5, 0.92
WOODLAND HILLS PIERCE COLLEGE, Los Angeles, CA06, -118.574, 34.182, 790, 61.8, 0.36
SAN GABRIEL DAM FC425B-E, Los Angeles, CA06, -117.861, 34.205, 1481, M, 1.48
MT WILSON CBS, Los Angeles, CA06, -118.071, 34.231, 5710, 52.2, 1.97
VAN NUYS AP, Los Angeles, CA06, -118.491, 34.212, 785, 62.9, 0.39
CAMARILLO AP, Ventura, CA06, -119.088, 34.211, 71, 60.9, 0.56
OXNARD VENTURA COUNTY AP, Ventura, CA06, -119.204, 34.200, 39, 59.5, 0.61
PARKER RESRVOIR, San Bernardino, CA07, -114.171, 34.290, 738, 60.7, 0.81
TWENTYNINE PALMS MC, San Bernardino, CA07, -116.147, 34.294, 2003, M, 0.49
BIG BEAR LAKE, San Bernardino, CA06, -116.917, 34.243, 6753, 40.7, 0.60
CHATSWORTH FC 24 F, Los Angeles, CA06, -118.600, 34.250, 950, M, 1.18
CRYSTAL LAKE FC238C, Los Angeles, CA06, -117.842, 34.318, 5345, M, 1.96
BIG TUJUNGA DAM FC46, Los Angeles, CA06, -118.188, 34.295, 2326, M, 0.91
PACOIMA DAM FC33A-E, Los Angeles, CA06, -118.400, 34.329, 1550, M, 1.09
PIRU 2 ESE, Ventura, CA06, -118.757, 34.406, 712, M, 0.87
SANTA BARBARA MUNI AP, Santa Barbara, CA06, -119.842, 34.424, 8, 58.4, 0.74
JUNCAL DAM, Santa Barbara, CA06, -119.507, 34.491, 2260, M, 0.93
VICTORVILLE, San Bernardino, CA07, -117.293, 34.529, 2880, 53.1, 0.91
ACTON ESCONDIDO FC261, Los Angeles, CA06, -118.271, 34.494, 2833, M, 0.93
GIBRALTAR DAM NO. 2, Santa Barbara, CA06, -119.682, 34.523, 1558, 57.1, 0.93
AMBOY, San Bernardino, CA07, -115.744, 34.559, 648, 61.4, 0.00
PALMDALE, Los Angeles, CA07, -118.094, 34.588, 2612, 53.6, 1.32
SAUGUS POWER PLANT 1, Los Angeles, CA06, -118.454, 34.590, 2161, 57.1, 0.85
LOS PRIETOS RS, Santa Barbara, CA06, -119.791, 34.544, 1024, M, 0.93
CACHUMA LAKE, Santa Barbara, CA06, -119.982, 34.582, 789, 56.6, 1.14
SALSIPUEDES GAGING STATION, Santa Barbara, CA06, -120.408, 34.585, 254, 54.1, 0.57
PALMDALE AP, Los Angeles, CA07, -118.083, 34.629, 2509, 53.0, 1.86
LOMPOC, Santa Barbara, CA06, -120.451, 34.654, 75, 58.2, 0.51
LANCASTER, Los Angeles, CA06, -118.213, 34.741, 2338, 50.7, 1.45
SANDBERG, Los Angeles, CA06, -118.724, 34.744, 4510, 53.7, 0.39
LEBEC, Kern, CA05, -118.865, 34.833, 3575, 49.7, 0.64
NEW CUYAMA FIRE STATION, Santa Barbara, CA06, -119.683, 34.946, 2160, 52.6, 0.06
TWITCHELL DAM, Santa Barbara, CA06, -120.321, 34.988, 582, 56.3, 0.32
MOJAVE, Kern, CA07, -118.162, 35.049, 2735, 53.7, 0.55
PISMO BEACH, San Luis Obispo, CA04, -120.683, 35.160, 39, 56.5, 0.14
SALINAS DAM, San Luis Obispo, CA04, -120.504, 35.337, 1392, 55.5, 0.10
RANDSBURG, Kern, CA07, -117.652, 35.369, 3570, 53.4, 0.48
SANTA MARGARITA BOOST, San Luis Obispo, CA04, -120.637, 35.374, 1148, 56.0, 0.19
MORRO BAY FIRE DEPT, San Luis Obispo, CA04, -120.845, 35.367, 118, 59.9, 0.28
BAKERSFIELD AP, Kern, CA05, -119.055, 35.434, 490, 58.2, 0.94
BUTTONWILLOW, Kern, CA05, -119.470, 35.403, 225, 55.5, 0.42
LOST HILLS, Kern, CA05, -119.689, 35.618, 288, M, 0.06
GLENNVILLE, Kern, CA05, -118.701, 35.727, 3140, 47.9, 1.16
TRONA, San Bernardino, CA07, -117.391, 35.764, 1695, 55.4, 0.24
DELANO, Kern, CA05, -119.260, 35.768, 302, 56.1, 0.73
BRADLEY TELEMETERING, Monterey, CA04, -120.868, 35.930, 443, M, 0.20
KETTLEMAN CITY, Kings, CA05, -119.960, 36.007, 240, 55.7, 0.13
HAIWEE, Inyo, CA07, -117.953, 36.139, 3825, 50.2, 0.18
CORCORAN IRRIGATION DIST., Kings, CA05, -119.582, 36.098, 200, 55.3, 0.14
COALINGA, Fresno, CA05, -120.361, 36.136, 670, 57.5, 0.15
KING CITY, Monterey, CA04, -121.138, 36.207, 320, 56.2, 0.24
LINDSAY, Tulare, CA05, -119.054, 36.203, 435, 55.6, 0.52
BIG SUR STATION, Monterey, CA04, -121.780, 36.247, 200, 55.8, 0.54
VISALIA, Tulare, CA05, -119.300, 36.328, 303, 54.9, 0.65
FIVE POINTS 5 SSW, Fresno, CA05, -120.156, 36.364, 285, 56.3, 0.27
SAN CLEMENTE DAM, Monterey, CA04, -121.709, 36.438, 600, M, 0.40
ASH MOUNTAIN, Tulare, CA05, -118.825, 36.491, 1708, 56.6, 0.53
THREE RIVERS EDISON PH 1, Tulare, CA05, -118.862, 36.465, 1140, 54.0, 0.47
PINNACLES NATIONAL PARK, San Benito, CA04, -121.182, 36.482, 1307, 54.9, 0.24
CARMEL VALLEY, Monterey, CA04, -121.724, 36.481, 480, 55.7, 0.43
LODGEPOLE, Tulare, CA05, -118.732, 36.604, 6735, 36.4, 0.51
PANOCHE 2 W, San Benito, CA05, -120.884, 36.607, 1400, M, 0.42
MONTEREY, Monterey, CA04, -121.855, 36.593, 122, 56.6, 0.44
SALINAS NO. 2, Monterey, CA04, -121.666, 36.659, 45, 56.2, 0.49
SALINAS AP, Monterey, CA04, -121.609, 36.664, 73, 56.8, 0.47
GRANT GROVE, Tulare, CA05, -118.962, 36.738, 6580, 42.8, 0.29
LOS BANOS ARBURUA RANCH, Merced, CA05, -120.939, 36.875, 843, M, 0.62
HOLLISTER 2, San Benito, CA04, -121.421, 36.848, 275, 54.4, 0.36
BALCH POWER HOUSE, Fresno, CA05, -119.088, 36.909, 1735, 54.6, 0.39
WATSONVILLE WATERWORKS, Santa Cruz, CA04, -121.769, 36.931, 95, 56.9, 0.46
FRIANT GOVERNMENT CAMP, Fresno, CA05, -119.707, 36.997, 410, 56.5, 0.45
MADERA, Madera, CA05, -120.038, 36.954, 270, 54.2, 0.25
WISHON DAM, Fresno, CA05, -118.984, 37.007, 6550, M, 0.48
GILROY, Santa Clara, CA04, -121.561, 37.003, 194, 56.6, 0.62
AUBERRY 2 NW, Fresno, CA05, -119.513, 37.092, 2090, 54.5, 0.54
LOS BANOS, Merced, CA05, -120.867, 37.056, 120, 56.4, 0.31
BEN LOMOND NO. 4, Santa Cruz, CA04, -122.080, 37.086, 420, 55.7, 0.80
MORGAN HILL, Santa Clara, CA04, -121.602, 37.136, 375, M, M
HUNTINGTON LAKE, Fresno, CA05, -119.221, 37.228, 7020, M, 0.16
NORTH FORK RS, Madera, CA05, -119.510, 37.233, 2645, 51.3, 0.96
RAYMOND, Madera, CA05, -119.909, 37.210, 919, M, 0.63
LOS GATOS, Santa Clara, CA04, -121.959, 37.232, 365, 53.9, 0.60
NEWMAN, Stanislaus, CA05, -121.018, 37.281, 90, 58.2, 0.69
MOUNT HAMILTON, Santa Clara, CA04, -121.635, 37.343, 4220, 51.0, 0.98
BISHOP AIRPORT, Inyo, CA07, -118.359, 37.371, 4110, 45.5, 0.03
MOFFETT FEDERAL AIRFIELD, Santa Clara, CA04, -122.048, 37.406, 39, 56.6, 0.59
WOODSIDE FIRE STATION 1, San Mateo, CA04, -122.256, 37.429, 380, 55.6, 0.62
PALO ALTO, Santa Clara, CA04, -122.140, 37.444, 25, 52.9, 1.17
REDWOOD CITY, San Mateo, CA04, -122.239, 37.477, 31, 54.8, 0.53
HALF MOON BAY, San Mateo, CA04, -122.443, 37.473, 27, 52.6, 1.24
SO ENTRANCE YOSEMITE N.P., Mariposa, CA05, -119.633, 37.512, 5047, 42.9, 1.31
MARIPOSA R S, Mariposa, CA05, -119.986, 37.495, 2100, M, 1.05
NEWARK, Alameda, CA04, -122.032, 37.515, 10, 57.0, 0.87
EXCHEQUER DAM, Mariposa, CA05, -120.267, 37.585, 442, M, 0.93
MODESTO AP, Stanislaus, CA05, -120.955, 37.625, 87, 54.9, 1.10
HAYWARD AIR TERMINAL, Alameda, CA04, -122.121, 37.659, 31, 56.2, 0.66
TRACY CARBONA, San Joaquin, CA05, -121.347, 37.682, 135, 54.9, 1.44
LIVERMORE MUNICIPAL AP, Alameda, CA04, -121.815, 37.693, 393, 56.8, 1.65
OAKLAND INTERNATIONAL AIRPORT, Alameda, CA04, -122.233, 37.718, 5, 55.3, 1.17
UPPER SAN LEANDRO FILTERS, Alameda, CA04, -122.167, 37.772, 394, M, 1.36
SAN FRANCISCO DOWNTOWN, San Francisco, CA04, -122.427, 37.771, 150, 57.7, 1.26
SAN FRANCISCO OCEANSIDE, San Francisco, CA04, -122.505, 37.728, 8, 56.3, 0.95
GROVELAND 2, Tuolumne, CA05, -120.226, 37.844, 2800, 48.5, 1.43
TRACY PUMPING PLANT, Alameda, CA05, -121.583, 37.796, 61, 57.1, 1.11
OAKLAND MUSEUM, Alameda, CA04, -122.264, 37.798, 30, 58.8, 0.57
TUOLUMNE MEADOWS R.S., Tuolumne, CA05, -119.344, 37.877, 8694, 34.4, 0.30
MOUNT DIABLO JUNCTION, Contra Costa, CA04, -121.930, 37.879, 2170, 56.5, 1.56
STOCKTON AP, San Joaquin, CA05, -121.226, 37.890, 27, 54.4, 1.09
RICHMOND, Contra Costa, CA04, -122.377, 37.919, 20, 58.2, 1.66
MUIR WOODS, Marin, CA01, -122.569, 37.898, 220, 56.6, 3.14
HETCH HETCHY, Tuolumne, CA05, -119.783, 37.961, 3870, M, 1.11
CHERRY VALLEY DAM, Tuolumne, CA05, -119.916, 37.975, 4765, M, 1.14
SONORA, Tuolumne, CA05, -120.387, 37.967, 1675, 50.6, 1.13
STOCKTON FIRE STA 4, San Joaquin, CA05, -121.318, 37.999, 12, 50.9, 1.15
ANTIOCH PUMPING PLANT #3, Contra Costa, CA05, -121.752, 37.983, 60, 56.4, 1.28
CONCORD BUCHANAN FIELD, Contra Costa, CA04, -122.053, 37.992, 23, 55.1, 1.34
CONCORD WASTEWATER PLANT, Contra Costa, CA04, -122.069, 37.983, 40, 57.4, 1.49
SAN RAFAEL-CIVIC CENTER, Marin, CA01, -122.537, 37.998, 120, 56.8, 1.25
KENTFIELD, Marin, CA01, -122.545, 37.957, 145, 55.1, 1.28
MARTINEZ WATER PLANT, Contra Costa, CA04, -122.114, 38.013, 40, 52.5, 1.40
SAN ANDREAS 2, Calaveras, CA05, -120.671, 38.191, 1100, 53.8, 1.74
BODIE CALIFORNIA STATE HISTORIC PARK, Mono, CA03, -119.014, 38.212, 8370, 30.2, 0.32
ACAMPO 5NE, San Joaquin, CA05, -121.201, 38.218, 87, M, 1.16
NAPA COUNTY AIRPORT, Napa, CA04, -122.280, 38.208, 16, 52.5, 0.88
BRIDGEPORT, Mono, CA03, -119.229, 38.258, 6470, 35.8, 0.12
CALAVERAS BIG TREES, Calaveras, CA05, -120.311, 38.277, 4695, M, 1.43
CAMP PARDEE, Calaveras, CA05, -120.843, 38.249, 658, M, 1.67
TRAVIS FIELD AFB, Solano, CA02, -121.933, 38.267, 62, 56.5, 0.67
FAIRFIELD, Solano, CA02, -122.068, 38.274, 40, 56.9, 1.28
SONOMA, Sonoma, CA01, -122.462, 38.299, 97, 55.3, 0.93
SUTTER HILL CDF, Amador, CA05, -120.801, 38.377, 1586, 55.9, 1.59
WEST POINT, Calaveras, CA05, -120.545, 38.378, 2775, M, 1.85
ATLAS ROAD BROWN, Napa, CA01, -122.248, 38.427, 1680, M, 1.48
GRATON, Sonoma, CA01, -122.865, 38.431, 200, 54.6, 1.84
OCCIDENTAL, Sonoma, CA01, -122.966, 38.386, 865, 56.1, 2.70
FIDDLETOWN DEXTER RCH, Amador, CA05, -120.698, 38.525, 2170, M, 1.47
SACRAMENTO AP ASOS, Sacramento, CA02, -121.496, 38.507, 19, 55.6, 0.88
WINTERS, Yolo, CA02, -121.978, 38.525, 135, 56.7, 0.74
LAKE SOLANO, Solano, CA02, -122.004, 38.492, 187, 56.9, 0.70
SAINT HELENA, Napa, CA01, -122.471, 38.507, 225, 57.0, 0.55
SAINT HELENA 4 WSW, Napa, CA01, -122.538, 38.493, 1780, M, 0.96
FORT ROSS, Sonoma, CA01, -123.245, 38.515, 112, 53.5, 1.90
SACRAMENTO 5 ESE, Sacramento, CA02, -121.418, 38.555, 38, 57.2, 0.82
ANGWIN PACIFIC UNION COLLEGE, Napa, CA01, -122.440, 38.573, 1715, 54.0, 0.94
CALISTOGA, Napa, CA01, -122.578, 38.577, 350, 53.5, 0.48
VENADO, Sonoma, CA01, -123.018, 38.609, 1260, M, 1.32
WOODLAND 1 WNW, Yolo, CA02, -121.794, 38.683, 67, 56.2, 1.10
SACRAMENTO METROPOLITAN AP, Sacramento, CA02, -121.595, 38.701, 24, 54.6, 0.47
PACIFIC HOUSE, El Dorado, CA02, -120.503, 38.758, 3450, 44.2, 1.97
MIDDLETOWN, Lake, CA02, -122.626, 38.748, 1121, M, 0.67
CLOVERDALE, Sonoma, CA01, -123.026, 38.793, 400, 56.9, 1.10
KELSEY 1 N, El Dorado, CA02, -120.821, 38.809, 2000, M, 1.81
SOUTH LAKE TAHOE AP, El Dorado, CA03, -119.996, 38.898, 6257, 39.8, 0.39
GEORGETOWN RS, El Dorado, CA02, -120.801, 38.933, 3001, 53.5, 1.02
AUBURN, Placer, CA02, -121.084, 38.907, 1292, 55.7, 1.68
NICOLAUS #2, Sutter, CA02, -121.545, 38.926, 43, M, 1.28
YORKVILLE, Mendocino, CA01, -123.231, 38.905, 1100, M, 1.52
CLEARLAKE 4 SE, Lake, CA02, -122.567, 38.924, 1349, 52.2, 0.48
FORESTHILL RANGER STATION, Placer, CA02, -120.845, 39.010, 3015, M, 2.02
HELL HOLE, Placer, CA02, -120.415, 39.058, 4850, M, 1.47
MARYSVILLE AIRPORT (ASOS), Yuba, CA02, -121.569, 39.102, 62, 55.1, 1.22
UKIAH MUNICIPAL AP, Mendocino, CA01, -123.200, 39.128, 603, 53.8, 0.85
UKIAH 4 WSW, Mendocino, CA01, -123.272, 39.127, 1328, M, 1.34
GOLD RUN 4 SW, Placer, CA02, -120.900, 39.150, 3220, M, 2.30
WILLIAMS, Colusa, CA02, -122.150, 39.150, 85, M, 2.00
GRASS VALLEY NO. 2, Nevada, CA02, -121.068, 39.204, 2400, 50.7, 1.89
HARRY L. ENGLEBRIGHT DAM, Nevada, CA02, -121.267, 39.237, 800, M, 1.47
COLUSA 2 SSW, Colusa, CA02, -122.027, 39.188, 50, 55.2, 0.55
BLUE CANYON NYACK AP, Placer, CA02, -120.709, 39.276, 5286, 48.4, 2.34
NEVADA CITY, Nevada, CA02, -121.001, 39.247, 2781, 50.1, 1.79
TRUCKEE AIRPORT, Nevada, CA03, -120.139, 39.320, 5900, 34.8, 0.52
TRUCKEE RS, Nevada, CA03, -120.173, 39.333, 5823, M, 0.00
DONNER MEMORIAL ST PARK, Nevada, CA03, -120.233, 39.324, 5937, 37.1, 0.10
COLGATE POWERHOUSE, Yuba, CA02, -121.192, 39.331, 595, M, 1.96
MOULTON WEIR, Colusa, CA02, -122.017, 39.333, 76, M, 0.60
BOCA, Nevada, CA03, -120.094, 39.389, 5575, 37.1, 0.47
POTTER VALLEY POWERHOUSE, Mendocino, CA01, -123.129, 39.362, 1018, 53.4, 2.30
FARAD, Nevada, CA03, -120.033, 39.428, 5153, M, 0.33
BOWMAN DAM, Nevada, CA02, -120.656, 39.454, 5385, M, 1.82
OROVILLE, Butte, CA02, -121.553, 39.518, 171, 55.8, 2.82
OROVILLE MUNICIPAL AP, Butte, CA02, -121.622, 39.494, 187, 55.3, 1.49
SIERRAVILLE RS, Sierra, CA02, -120.370, 39.583, 4975, 40.3, 0.38
DOWNIEVILLE, Sierra, CA02, -120.824, 39.563, 2915, M, 1.61
STRAWBERRY VALLEY, Yuba, CA02, -121.108, 39.563, 3808, 47.7, 2.56
STONY GORGE RESERVOIR, Glenn, CA02, -122.534, 39.586, 800, 53.3, 0.57
BRUSH CREEK RANGER STATION, Butte, CA02, -121.345, 39.695, 3560, M, 2.76
PARADISE, Butte, CA02, -121.624, 39.754, 1750, 56.5, 2.76
VINTON, Plumas, CA02, -120.186, 39.806, 4950, 39.0, 0.56
PORTOLA, Plumas, CA02, -120.472, 39.805, 4850, 39.5, 0.50
DE SABLA, Butte, CA02, -121.611, 39.872, 2710, 51.5, 2.96
LEGGETT, Mendocino, CA01, -123.720, 39.874, 703, M, 3.28
BUCKS CREEK, Plumas, CA02, -121.315, 39.937, 1891, M, 2.11
DOYLE, Lassen, CA03, -120.105, 40.027, 4293, M, 0.32
CANYON DAM, Plumas, CA02, -121.089, 40.171, 4560, M, 1.25
MIRANDA 4 SE, Humboldt, CA01, -123.776, 40.182, 266, M, 2.04
FORT SEWARD, Humboldt, CA01, -123.632, 40.218, 220, M, 1.40
HONEYDEW 1 SW, Humboldt, CA01, -124.132, 40.238, 373, M, 1.64
CHESTER, Plumas, CA02, -121.242, 40.303, 4530, 41.3, 1.60
MINERAL, Tehama, CA02, -121.609, 40.346, 4875, 40.9, 1.81
COLEMAN FISHERIES STATION, Shasta, CA02, -122.143, 40.400, 420, M, 2.12
VOLTA PH, Shasta, CA02, -121.866, 40.458, 2220, M, 2.94
SCOTIA, Humboldt, CA01, -124.104, 40.483, 136, 52.9, 0.88
MANZANITA LAKE, Shasta, CA02, -121.577, 40.541, 5750, 39.4, 2.01
WHISKEYTOWN RESERVOIR, Shasta, CA02, -122.528, 40.612, 1295, 54.8, 1.60
SHASTA DAM, Shasta, CA02, -122.416, 40.714, 1075, 56.9, 2.30
TRINITY RIVER HATCHERY, Trinity, CA01, -122.795, 40.726, 1861, 47.2, 1.41
BIG BAR 4 E, Trinity, CA01, -123.208, 40.741, 1253, 45.6, 1.15
BUCKHORN, Shasta, CA02, -121.932, 40.880, 3700, M, 2.72
HAT CREEK, Shasta, CA02, -121.543, 40.932, 3015, 41.7, 0.53
PIT RIVER PH 5, Shasta, CA02, -121.977, 40.987, 1458, M, 2.00
WILLOW CREEK 1 NW, Humboldt, CA01, -123.636, 40.947, 464, 50.3, 1.68
FALL RIVER MILLS, Shasta, CA02, -121.435, 41.008, 3300, M, 0.66
ADIN RANGER STATION, Modoc, CA02, -120.945, 41.193, 4202, M, 0.68
DUNSMUIR TREATMENT PL, Siskiyou, CA02, -122.282, 41.183, 2169, 46.1, 1.37
JESS VALLEY, Modoc, CA02, -120.295, 41.268, 5400, 37.7, 0.96
MCCLOUD, Siskiyou, CA02, -122.138, 41.252, 3233, 44.0, 0.69
ORICK, Humboldt, CA01, -124.067, 41.283, 5, M, 2.20
CALLAHAN, Siskiyou, CA01, -122.825, 41.338, 3085, 40.5, 0.47
SAWYERS BAR RS, Siskiyou, CA01, -123.133, 41.301, 2255, 53.5, 1.26
ORLEANS RS, Humboldt, CA01, -123.534, 41.303, 433, M, 1.56
ALTURAS, Modoc, CA02, -120.544, 41.490, 4378, 39.7, 0.18
FORT JONES RS, Siskiyou, CA01, -122.848, 41.601, 2729, 40.7, 0.53
LAVA BEDS NAT MON, Siskiyou, CA01, -121.501, 41.702, 4770, 41.4, 0.50
MOUNT HEBRON RS, Siskiyou, CA01, -122.045, 41.783, 4265, 38.8, 0.59
CRESCENT CITY MCNAMARA AP, Del Norte, CA01, -124.238, 41.784, 56, 50.2, 2.52
OAK KNOLL W. C., Siskiyou, CA01, -122.850, 41.839, 1980, M, 1.34
FORT BIDWELL, Modoc, CA03, -120.157, 41.872, 4739, 40.2, 0.39
GASQUET RS, Del Norte, CA01, -123.965, 41.845, 387, 46.0, 4.67
FORT DICK RIVER, Del Norte, CA01, -124.135, 41.881, -, M, 3.64
TULELAKE, Siskiyou, CA01, -121.474, 41.960, 4038, 38.6, 0.33
COPCO NO 1 DAM, Siskiyou, CA01, -122.338, 41.980, 2665, 45.5, 0.57
ELK VALLEY, Del Norte, CA01, -123.718, 41.988, 1708, M, 3.88
BARSTOW, San Bernardino, CA07, -117.022, 34.893, 2220, 54.2, 1.06
PEARBLOSSOM, Los Angeles, CA07, -117.897, 34.503, 3101, 53.7, 1.73
EL CAJON, San Diego, CA06, -116.928, 32.801, 495, 61.1, 0.51
MARKLEY COVE, Napa, CA02, -122.124, 38.492, 480, 54.8, 0.84
LORAINE 5 NNE, Kern, CA05, -118.412, 35.384, 4235, 50.1, 0.75
DEL MAR FIRE DEPT, San Diego, CA06, -117.262, 32.972, 12, M, 0.88
LEMON GROVE FIRE DEPARTMENT, San Diego, CA06, -117.030, 32.738, 427, M, 0.29
LEE VINING, Mono, CA07, -119.119, 37.957, 6797, 41.0, 0.18
ANAHEIM, Orange, CA06, -117.842, 33.865, 235, 65.3, 0.46
NEW MELONES DAM HQ, Tuolumne, CA05, -120.486, 38.005, 960, 57.6, 1.36
MAMMOTH LAKES RS, Mono, CA07, -118.962, 37.648, 7804, 37.7, 0.29
FRAZIER PARK 9 SW, Ventura, CA05, -119.104, 34.733, 5169, M, 0.31
MONTEREY WFO, Monterey, CA04, -121.855, 36.593, 122, 54.4, 0.39
SKYLINE RIDGE PRESERVE, San Mateo, CA04, -122.185, 37.313, 2270, 54.0, 1.60
FREMONT, Alameda, CA04, -122.016, 37.542, 38, 55.7, 1.00
MAD RIVER 12 SE, Trinity, CA01, -123.374, 40.319, 2763, M, 1.68
NEWHALL 5NW, Los Angeles, CA06, -118.594, 34.393, 1765, 61.2, 0.12
TEHACHAPI 4 SE, Kern, CA05, -118.422, 35.101, 4220, 48.1, 2.03
WRIGHTWOOD, San Bernardino, CA07, -117.639, 34.362, 6000, M, 0.37
NORTHRIDGE CAL STATE, Los Angeles, CA06, -118.525, 34.245, 904, 62.7, 0.68
OXNARD WFO, Ventura, CA06, -119.137, 34.207, 52, 61.1, 0.51
HANFORD MUNICIPAL AP, Kings, CA05, -119.623, 36.311, 249, 55.0, 0.26
RAMONA AIRPORT, San Diego, CA06, -116.916, 33.038, 1385, 55.7, 0.21
VACAVILLE/NUT TREE AP ASOS, Solano, CA02, -121.959, 38.378, 104, 54.7, 0.63
ALTURAS MUNICIPAL AP, Modoc, CA02, -120.561, 41.484, 4383, 38.4, 0.29
MADERA MUNICIPAL AP, Madera, CA05, -120.111, 36.985, 251, 54.4, 0.39
BAKERSFIELD 5 NW, Kern, CA05, -119.051, 35.419, 470, 57.6, 0.16
FRESNO 5 NE, Fresno, CA05, -119.709, 36.767, 338, 59.2, 1.19
OCEANSIDE MUNICIPAL AP, San Diego, CA06, -117.350, 33.219, 30, 58.8, 0.80
SAN DIEGO SEAWORLD, San Diego, CA06, -117.231, 32.765, 14, M, 0.35
ARCATA EUREKA AP, Humboldt, CA01, -124.105, 40.978, 211, 49.7, 1.70
NEWPORT BEACH HARBOR, Orange, CA06, -117.884, 33.603, 10, 61.5, 0.25
ESCONDIDO NO. 2, San Diego, CA06, -117.090, 33.121, 600, 62.1, 0.39
REDDING AP, Shasta, CA02, -122.298, 40.515, 501, 54.2, 1.72
AVALON CATALINA AP, Los Angeles, CA06, -118.415, 33.404, 1565, 61.1, 1.30
SANTA MARIA PUBLIC AP, Santa Barbara, CA06, -120.452, 34.894, 243, 59.1, 0.13
MOUNT SHASTA, Siskiyou, CA02, -122.333, 41.333, 3535, 44.7, 0.22
RED BLUFF MUNI AP, Tehama, CA02, -122.255, 40.152, 354, 56.2, 1.17
NEEDLES AIRPORT, San Bernardino, CA07, -114.618, 34.768, 888, 63.6, 0.91
CHINA LAKE NAF, Kern, CA07, -117.693, 35.688, 2230, 52.8, 0.54
SUSANVILLE 2SW, Lassen, CA03, -120.663, 40.417, 4212, 41.0, 0.63
TEJON RANCHO, Kern, CA05, -118.750, 35.023, 1425, 57.7, 0.85
BURBANK GLENDALE PASADENA AP, Los Angeles, CA06, -118.365, 34.200, 731, 64.5, 0.12
OAKLAND 7.8 SE, Alameda, CA04, -122.139, 37.764, 395, M, 1.29
SUTTER CREEK 0.1 WSW, Amador, CA05, -120.805, 38.390, 1266, M, 1.49
PINE GROVE 1.9 SSE, Amador, CA05, -120.641, 38.389, 2714, M, T
CHICO 2.9 W, Butte, CA02, -121.861, 39.749, 190, M, 1.12
CHICO 8.9 NW, Butte, CA02, -121.905, 39.859, 266, M, 0.86
CHICO 1.8 SW, Butte, CA02, -121.832, 39.737, 209, M, 0.33
MAGALIA 2.3 SE, Butte, CA02, -121.582, 39.804, 2327, M, 3.21
CHICO 5.5 NW, Butte, CA02, -121.891, 39.800, 191, M, 1.09
MORAGA 2.4 NNW, Contra Costa, CA04, -122.138, 37.870, 748, M, T
SMITH RIVER 1.1 SSE, Del Norte, CA01, -124.136, 41.915, 120, M, 4.50
FORT DICK 0.2 SSW, Del Norte, CA01, -124.151, 41.865, 49, M, 4.10
CAMINO 2.6 ESE, El Dorado, CA02, -120.634, 38.719, 3108, M, 1.63
TOLLHOUSE 2.8 SSE, Fresno, CA05, -119.396, 36.978, 2111, M, 0.98
CLOVIS 1.3 NE, Fresno, CA05, -119.681, 36.833, 375, M, 0.54
FRESNO 2.4 NW, Fresno, CA05, -119.822, 36.805, 319, M, 0.26
ARCATA 2.1 NNW, Humboldt, CA01, -124.095, 40.896, 32, M, 0.90
SAN FERNANDO 4.2 E, Los Angeles, CA06, -118.363, 34.279, 1239, M, 0.94
SUSANVILLE 3.5 SSW, Lassen, CA03, -120.674, 40.363, 4347, M, 0.48
SUSANVILLE 0.6 WSW, Lassen, CA03, -120.660, 40.407, 4220, M, 0.70
AHWAHNEE 2.5 NNW, Madera, CA05, -119.738, 37.400, 2840, M, 0.96
WESTPORT 1.6 NNE, Mendocino, CA01, -123.770, 39.657, 722, M, 1.59
ALBION 4.0 SE, Mendocino, CA01, -123.710, 39.188, 636, M, 2.10
LAYTONVILLE 9.8 NNW, Mendocino, CA01, -123.534, 39.814, 2078, M, 1.47
FAIRFAX 0.6 SSE, Marin, CA01, -122.591, 37.981, 146, M, 1.48
MONTEREY 1.5 WSW, Monterey, CA04, -121.905, 36.590, 235, M, 0.45
MONTEREY 1.1 SSW, Monterey, CA04, -121.886, 36.586, 164, M, 0.38
AMERICAN CANYON 3.5 NE, Napa, CA01, -122.217, 38.210, 319, M, 1.20
ALTA SIERRA 2.3 WSW, Nevada, CA02, -121.089, 39.106, 1677, M, 2.94
GRASS VALLEY 4.2 SE, Nevada, CA02, -120.993, 39.186, 2784, M, 1.46
GRASS VALLEY 1.3 NNE, Nevada, CA02, -121.046, 39.238, 2782, M, 1.52
GRASS VALLEY 2.7 SW, Nevada, CA02, -121.092, 39.194, 2334, M, 1.80
ORANGE 3.0 ENE, Orange, CA06, -117.778, 33.826, 649, M, 0.72
ROCKLIN 1.1 N, Placer, CA02, -121.244, 38.818, 550, M, 2.16
ROSEVILLE 2.4 SE, Placer, CA02, -121.257, 38.740, 156, M, 1.46
APPLEGATE 0.5 SE, Placer, CA02, -120.986, 38.996, 1983, M, 1.86
SACRAMENTO 4.7 SW, Sacramento, CA02, -121.520, 38.512, 8, M, 0.96
FAIR OAKS 1.9 N, Sacramento, CA02, -121.252, 38.676, 199, M, 1.36
MORGAN HILL 2.7 S, Santa Clara, CA04, -121.632, 37.092, 338, M, 0.76
SAN JOSE 5.8 NNE, Santa Clara, CA04, -121.824, 37.386, 293, M, 0.85
SAN JOSE 3.3 SSE, Santa Clara, CA04, -121.827, 37.259, 179, M, 0.83
CARLSBAD 8.7SE, San Diego, CA06, -117.221, 33.095, 605, M, 0.52
ESCONDIDO 7.2 SE, San Diego, CA06, -116.992, 33.056, 1585, M, 0.36
RAMONA 3ENE, San Diego, CA06, -116.828, 33.051, 2034, M, 0.00
SAN DIEGO 8NE, San Diego, CA06, -117.064, 32.800, 312, M, 0.22
RANCHO BERNARDO 1.9WSW, San Diego, CA06, -117.106, 33.014, 687, M, 0.45
SAN DIEGO 13.9N, San Diego, CA06, -117.163, 32.917, 406, M, 0.41
SAN FRANCISCO 3.0 W, San Francisco, CA04, -122.474, 37.778, 205, M, 1.80
SHINGLETOWN 10.3 ENE, Shasta, CA02, -121.701, 40.532, 4217, M, 2.25
REDDING 3.3 N, Shasta, CA02, -122.376, 40.619, 665, M, 2.06
REDDING 2.8 NW, Shasta, CA02, -122.401, 40.602, 661, M, 1.79
SHINGLETOWN 3.5 ENE, Shasta, CA02, -121.834, 40.519, 3796, M, 2.72
REDDING 1.6 W, Shasta, CA02, -122.395, 40.575, 635, M, 1.92
MOUNT SHASTA 5.1 NW, Siskiyou, CA02, -122.397, 41.364, 3911, M, 0.53
DORRIS 0.2 SW, Siskiyou, CA01, -121.923, 41.963, 4249, M, 0.25
TEMPLETON 5.5 WSW, San Luis Obispo, CA04, -120.804, 35.535, 1469, M, 0.16
HALF MOON BAY 0.7 NW, San Mateo, CA04, -122.445, 37.478, 36, M, 1.33
EL GRANADA 0.7 W, San Mateo, CA04, -122.479, 37.509, 78, M, 1.45
CAZADERO 6.9 WNW, Sonoma, CA01, -123.206, 38.565, 645, M, 2.31
CAZADERO 5.6 W, Sonoma, CA01, -123.189, 38.532, 1211, M, 3.52
GUERNEVILLE 2.0 SSW, Sonoma, CA01, -123.005, 38.485, 69, M, 1.90
GLEN ELLEN 1.9 NNW, Sonoma, CA01, -122.551, 38.382, 365, M, 1.11
RANCHO CUCAMONGA 1.6 W, San Bernardino, CA06, -117.598, 34.122, 1379, M, 0.66
BARSTOW 4.2 NE, San Bernardino, CA07, -117.018, 34.924, 2170, M, 1.31
FAWNSKIN 0.3 NE, San Bernardino, CA06, -116.938, 34.271, 7030, M, 0.83
SOQUEL 0.8 NE, Santa Cruz, CA04, -121.936, 37.002, 414, M, 0.62
SANTA CRUZ 3.1 NW, Santa Cruz, CA04, -122.075, 37.006, 969, M, 1.16
RED BLUFF 6.0 W, Tehama, CA02, -122.352, 40.159, 418, M, 1.39
COTTONWOOD 7.7 SSW, Tehama, CA02, -122.333, 40.287, 635, M, M
RED BLUFF 2.3 N, Tehama, CA02, -122.235, 40.207, 428, M, 1.31
RED BLUFF 7.2 WNW, Tehama, CA02, -122.360, 40.224, 557, M, 1.21
RED BLUFF 1.1 S, Tehama, CA02, -122.236, 40.158, 323, M, 1.16
COTTONWOOD 4.4 ESE, Tehama, CA02, -122.201, 40.369, 567, M, 1.87
RED BLUFF 5.1 NNW, Tehama, CA02, -122.281, 40.242, 497, M, 1.48
COTTONWOOD 9.1 SW, Tehama, CA02, -122.378, 40.282, 639, M, 1.13
RED BLUFF 3.2 NNW, Tehama, CA02, -122.266, 40.216, 368, M, 0.00
RED BLUFF 4.5 W, Tehama, CA02, -122.326, 40.171, 501, M, 1.49
COTTONWOOD 3.6 SSW, Tehama, CA02, -122.302, 40.341, 554, M, 1.38
MOUNT SHASTA, Siskiyou, CA02, -122.317, 41.322, 3613, 46.6, 0.37
WATSONVILLE MUNICIPAL AIRPORT, Santa Cruz, CA04, -121.790, 36.939, 162, 55.4, 0.45
SANTA ROSA SONOMA CO AP, Sonoma, CA04, -122.811, 38.504, 119, 54.2, 1.07
HEARST CASTLE, San Luis Obispo, CA04, -121.168, 35.684, 1526, 59.7, 1.23
GETTY CENTER, Los Angeles, CA06, -118.479, 34.087, 1117, 63.7, 0.79
HESPERIA 2E, San Bernardino, CA07, -117.266, 34.421, 3055, 53.3, 1.13
RANCHO BERNARDO, San Diego, CA06, -117.081, 33.022, 690, 61.8, 0.46
APPLE VALLEY #2, San Bernardino, CA07, -117.279, 34.536, 2780, M, 0.72
OCOTILLO WELLS 2W, San Diego, CA07, -116.169, 33.155, 390, 66.6, 0.19
IRVINE RANCH, Orange, CA06, -117.723, 33.720, 540, 64.8, 0.57
MT. LAGUNA #3, San Diego, CA07, -116.419, 32.867, 5920, 45.9, 1.07
AVALON INLAND, Los Angeles, CA06, -118.330, 33.338, 90, 54.8, 1.24
DESERT CENTER 2 NNE, Riverside, CA07, -115.392, 33.738, 747, 63.0, 0.00
TORRANCE AP, Los Angeles, CA06, -118.342, 33.802, 90, 62.2, 0.65
MERCED 23 WSW, Merced, CA05, -120.882, 37.238, 78, 52.2, 0.48
REDDING 12 WNW, Shasta, CA02, -122.607, 40.651, 1418, 53.7, 1.44
STOVEPIPE WELLS 1 SW, Inyo, CA07, -117.145, 36.602, 84, 61.3, 0.22
RED BLUFF 2.8 N, Tehama, CA02, -122.243, 40.215, 406, M, 1.24
COTTONWOOD 6.7 SSW, Tehama, CA02, -122.347, 40.307, 585, M, 1.19
LOS ANGELES DOWNTOWN/USC, Los Angeles, CA06, -118.291, 34.024, 179, 64.4, 0.62
FRESNO YOSEMITE INT'L, Fresno, CA05, -119.720, 36.780, 334, 58.5, 0.54
MONTEREY PENINSUL AP, Monterey, CA04, -121.849, 36.590, 160, 55.6, 0.46
PASO ROBLES MUNICIPAL AP, San Luis Obispo, CA04, -120.629, 35.669, 820, 54.7, 0.27
MONTAGUE SISKIYOU AIRPORT, Siskiyou, CA01, -122.468, 41.774, 2645, 42.0, 0.47
SAN JOSE, Santa Clara, CA04, -121.924, 37.359, 49, 56.3, 0.77
PALM SPRINGS ASOS, Riverside, CA07, -116.504, 33.822, 409, 65.3, 0.11
FILLMORE 2 W, Ventura, CA06, -118.945, 34.409, 495, M, 0.04
SAN DIEGO BROWN FIELD, San Diego, CA06, -116.994, 32.576, 521, 61.1, 0.41
Bakersfield Area, -, -, -, -, -, 58.2, 0.94
Bishop Area, -, -, -, -, -, 45.5, 0.03
Los Angeles Downtown Area, -, -, -, -, -, 64.4, 0.62
Eureka Area, -, -, -, -, -, 49.5, 1.29
Fresno Area, -, -, -, -, -, 58.5, 0.54
Los Angeles Airport Area, -, -, -, -, -, 64.1, 0.69
Long Beach Area, -, -, -, -, -, 63.6, 0.78
Redding Area, -, -, -, -, -, 54.2, 1.72
Sacramento Area, -, -, -, -, -, 55.6, 0.88
San Diego Area, -, -, -, -, -, 63.9, 1.48
Stockton Area, -, -, -, -, -, 54.4, 1.09
San Francisco Airport Area, -, -, -, -, -, 57.2, 0.91
Santa Maria Area, -, -, -, -, -, 59.1, 0.13
CAMP PENDLETON MCAS, San Diego, CA06, -117.355, 33.304, 70, 59.1, 1.12
LEMOORE REEVES NAS, Fresno, CA05, -119.950, 36.333, 232, 57.3, 0.22
RED BLUFF 6.2 NW, Tehama, CA02, -122.334, 40.228, 474, M, 1.42
CORNING 4.4 ENE, Tehama, CA02, -122.102, 39.944, 216, M, 0.93
LOS MOLINOS 0.4 SE, Tehama, CA02, -122.092, 40.023, 224, M, 1.08
COTTONWOOD 3.9 SW, Tehama, CA02, -122.342, 40.358, 447, M, 1.53
DAVIS 2.4 W, Yolo, CA02, -121.780, 38.559, 53, M, 0.68
ARVIN, Kern, CA05, -118.834, 35.211, 450, 56.5, 1.20
CHIRIACO SUMMIT, Riverside, CA07, -115.721, 33.662, 1706, 60.3, 0.37
EDWARDS AFB NORTH AUXILIARY AIRFIELD, Kern, CA07, -117.865, 34.988, 2283, 51.5, 0.53
FALLBROOK 5 NE, San Diego, CA06, -117.190, 33.439, 1140, 63.5, 1.01
SANTA BARBARA 11 W, Santa Barbara, CA06, -119.880, 34.414, 18, 56.3, 0.72
BODEGA 6 WSW, Sonoma, CA01, -123.075, 38.321, 63, 53.3, 1.54
YOSEMITE VILLAGE 12 W, Mariposa, CA05, -119.821, 37.759, 6620, 45.5, 1.35
YUCCA MESA, San Bernardino, CA07, -116.407, 34.218, 3445, 55.8, 0.28
YUCCA VALLEY, San Bernardino, CA07, -116.388, 34.129, 3249, 53.4, 0.23
JOHNSON VALLEY, San Bernardino, CA07, -116.538, 34.359, 3167, 53.4, 1.42
REDONDO BEACH, Los Angeles, CA06, -118.376, 33.834, 142, 61.4, 0.74
FRESNO 3NW, Madera, CA05, -119.801, 36.909, 380, M, 0.70
BURBANK VALLEY PUMP PLANT, Los Angeles, CA06, -118.348, 34.187, 655, 61.6, 0.49
PIEDMONT 1.0 SE, Alameda, CA04, -122.216, 37.812, 372, M, 1.62
CASTRO VALLEY 0.4 NNE, Alameda, CA04, -122.059, 37.717, 536, M, 1.05
PLEASANTON 1.8 SSE, Alameda, CA04, -121.875, 37.648, 351, M, 1.14
FREMONT 2.6 ESE, Alameda, CA04, -121.952, 37.515, 30, M, 1.37
PLEASANTON 0.4 ESE, Alameda, CA04, -121.881, 37.670, 344, M, 1.21
VOLCANO 5.4 NE, Amador, CA05, -120.560, 38.497, 3488, M, 1.79
VOLCANO 6.4 NE, Amador, CA05, -120.536, 38.499, 3659, M, 1.78
OROVILLE 2.7 ENE, Butte, CA02, -121.518, 39.514, 535, M, 3.00
MARTINEZ 0.8 SSE, Contra Costa, CA04, -122.108, 37.990, 252, M, 1.69
WALNUT CREEK 1.7 SSE, Contra Costa, CA04, -122.034, 37.878, 243, M, 1.20
LAFAYETTE 0.7 E, Contra Costa, CA04, -122.104, 37.894, 248, M, 1.53
LAFAYETTE 1.9 WSW, Contra Costa, CA04, -122.153, 37.888, 518, M, 1.43
COARSEGOLD 4SE, Madera, CA05, -119.690, 37.212, 2218, M, 1.08
TWENTYNINE PALMS 12E - WONDER VALLEY, San Bernardino, CA07, -115.850, 34.121, 1376, 58.2, 0.49
MORONGO VALLEY NORTH, San Bernardino, CA07, -116.562, 34.086, 3145, 56.9, 0.33
SHAFTER 6E, Kern, CA05, -119.146, 35.487, 404, 53.7, 1.47
TRUCKEE-TAHOE AP, Nevada, CA03, -120.145, 39.318, 5900, 34.8, 0.52
MARTINEZ 2.2 SW, Contra Costa, CA04, -122.138, 37.974, 692, M, 1.52
ANTIOCH 2.2 WSW, Contra Costa, CA05, -121.838, 37.979, 178, M, 1.32
ALAMO 1.0 WSW, Contra Costa, CA04, -122.016, 37.854, 331, M, 1.04
CONCORD 0.8 WNW, Contra Costa, CA04, -122.013, 37.978, 124, M, 1.47
WALNUT CREEK 1.4 SSE, Contra Costa, CA04, -122.028, 37.885, 277, M, 1.24
WALNUT CREEK 1.4 NE, Contra Costa, CA04, -122.023, 37.916, 156, M, 0.58
ANTIOCH 2.2 SSE, Contra Costa, CA05, -121.781, 37.959, 245, M, 1.24
WALLACE 0.3 NE, Calaveras, CA05, -120.973, 38.197, 298, M, 1.54
CRESCENT CITY 5.5 NNE, Del Norte, CA01, -124.148, 41.824, 65, M, 4.01
PLACERVILLE 3.7 SW, El Dorado, CA02, -120.849, 38.695, 1755, M, 1.32
PLACERVILLE 0.9 NE, El Dorado, CA02, -120.785, 38.739, 2036, M, 1.40
FRESNO 3.4 SSE, Fresno, CA05, -119.811, 36.780, 303, M, 0.03
CLOVIS 2.9 N, Fresno, CA05, -119.693, 36.861, 382, M, 0.48
TOLLHOUSE 2.0 SSE, Fresno, CA05, -119.397, 36.990, 1673, M, 0.87
TOLLHOUSE 6.2 SSE, Fresno, CA05, -119.359, 36.934, 1397, M, 0.35
SANGER 6.8 N, Fresno, CA05, -119.553, 36.798, 418, M, 0.79
FRESNO 4.3 NNW, Fresno, CA05, -119.829, 36.836, 333, M, 0.38
HELM 2.7 NNE, Fresno, CA05, -120.089, 36.570, 183, M, 0.20
ARCATA 1.1 NE, Humboldt, CA01, -124.069, 40.881, 420, M, 1.31
BAYSIDE 1.8 SE, Humboldt, CA01, -124.038, 40.825, 77, M, 1.84
ORICK 5.9 SSW, Humboldt, CA01, -124.103, 41.208, 567, M, 2.69
MCKINLEYVILLE 2.7 SE, Humboldt, CA01, -124.084, 40.923, 325, M, 1.63
MCKINLEYVILLE 7.3 ESE, Humboldt, CA01, -123.998, 40.896, 366, M, 1.64
TRINIDAD 1.5 NNW, Humboldt, CA01, -124.152, 41.078, 201, M, 2.13
HONEYDEW 3.1 WNW, Humboldt, CA01, -124.182, 40.252, 316, M, 1.88
MCKINLEYVILLE 2.3 NE, Humboldt, CA01, -124.086, 40.978, 270, M, 2.12
REDWAY 4.8 WNW, Humboldt, CA01, -123.906, 40.139, 1820, M, 2.09
MIRANDA 4.1 SW, Humboldt, CA01, -123.894, 40.209, 539, M, 2.90
BAYVIEW 0.8 SE, Humboldt, CA01, -124.166, 40.756, 176, M, 1.43
FORTUNA 1.3 S, Humboldt, CA01, -124.136, 40.567, 195, M, 0.41
ARCATA 1.4 NNE, Humboldt, CA01, -124.072, 40.887, 289, M, 1.66
WILLOW CREEK 4.5 NNE, Humboldt, CA01, -123.624, 40.939, 655, M, 1.55
BRIDGEVILLE 5.2 ENE, Humboldt, CA01, -123.701, 40.473, 2675, M, 2.78
FORTUNA 0.1 NW, Humboldt, CA01, -124.141, 40.587, 65, M, 1.53
GARBERVILLE 2.2 SW, Humboldt, CA01, -123.824, 40.077, 415, M, 2.34
GARBERVILLE 2.9 SW, Humboldt, CA01, -123.830, 40.068, 389, M, 2.36
KNEELAND 4.8 WNW, Humboldt, CA01, -124.080, 40.790, 106, M, 1.60
EUREKA 2.2 S, Humboldt, CA01, -124.148, 40.764, 194, M, 1.47
SHELTER COVE 1.2 ENE, Humboldt, CA01, -124.052, 40.037, 1107, M, 3.17
BISHOP 0.6 SE, Inyo, CA07, -118.388, 37.363, 4140, M, 0.07
BISHOP 8.5 WSW, Inyo, CA07, -118.540, 37.323, 6002, M, 0.88
BISHOP 1.7 NW, Inyo, CA07, -118.414, 37.388, 4181, M, 0.07
LEMOORE 0.9 ESE, Kings, CA05, -119.772, 36.293, 223, M, 0.44
LEMOORE 0.3 SW, Kings, CA05, -119.791, 36.295, 223, M, 0.37
HANFORD 3.6 N, Kings, CA05, -119.653, 36.377, 258, M, 0.31
HANFORD 1.7 WNW, Kings, CA05, -119.674, 36.335, 245, M, 0.32
INYOKERN 9.4 WSW, Kern, CA07, -117.978, 35.635, 4319, M, 1.02
FRAZIER PARK 0.6 WNW, Kern, CA05, -118.955, 34.827, 5023, M, 0.56
PINE MOUNTAIN CLUB 0.9 SSW, Kern, CA05, -119.163, 34.835, 6017, M, 0.32
ONYX 2.8 ENE, Kern, CA05, -118.174, 35.702, 3039, M, 0.21
GLENDALE 2.4 WSW, Los Angeles, CA06, -118.295, 34.169, 511, M, 0.38
TORRANCE 2.8 SW, Los Angeles, CA06, -118.337, 33.790, 200, M, 0.75
ALTADENA 0.7 ESE, Los Angeles, CA06, -118.124, 34.187, 1323, M, 0.77
MONTE NIDO 0.2 SSW, Los Angeles, CA06, -118.687, 34.079, 682, M, 0.43
SHERMAN OAKS 1.7 ENE, Los Angeles, CA06, -118.420, 34.154, 638, M, 0.70
WHITTIER 2.9 WNW, Los Angeles, CA06, -118.066, 33.986, 171, M, 0.46
REDONDO BEACH 2.6 S, Los Angeles, CA06, -118.377, 33.819, 117, M, 0.98
CANYON COUNTRY 2.6 E, Los Angeles, CA06, -118.427, 34.427, 1617, M, 0.52
ARCADIA 2.1 NNE, Los Angeles, CA06, -118.028, 34.162, 652, M, 0.75
LAKEPORT 4.5 N, Lake, CA02, -122.909, 39.107, 1437, M, 1.19
LAKEPORT 2.5 N, Lake, CA02, -122.917, 39.079, 1370, M, 1.27
MIDDLETOWN 3.3 SSE, Lake, CA02, -122.603, 38.706, 1273, M, 0.93
LOWER LAKE 4.0 SE, Lake, CA02, -122.564, 38.865, 1585, M, 1.08
SUSANVILLE 3.2 SSW, Lassen, CA03, -120.674, 40.368, 4353, M, 0.57
OAKHURST 7.5 N, Madera, CA05, -119.632, 37.442, 4274, M, 1.07
UKIAH 8.4 NW, Mendocino, CA01, -123.331, 39.221, 2492, M, 1.45
BOONVILLE 2.2 WSW, Mendocino, CA01, -123.408, 39.006, 1061, M, 1.13
ELK 1.8 NNE, Mendocino, CA01, -123.706, 39.105, 147, M, 1.27
UKIAH 1.2 NW, Mendocino, CA01, -123.225, 39.158, 746, M, 1.06
UKIAH 0.6 ESE, Mendocino, CA01, -123.199, 39.141, 601, M, 0.87
HOPLAND 2.4 WNW, Mendocino, CA01, -123.158, 38.984, 574, M, 0.79
REDWOOD VALLEY 1.3 WNW, Mendocino, CA01, -123.227, 39.272, 810, M, 1.40
REDWOOD VALLEY 1.5 ENE, Mendocino, CA01, -123.178, 39.272, 912, M, 1.48
UKIAH 4.3 S, Mendocino, CA01, -123.219, 39.083, 691, M, 0.82
LAYTONVILLE 1.1 SW, Mendocino, CA01, -123.490, 39.672, 1647, M, 2.95
POINT ARENA 4.8 ESE, Mendocino, CA01, -123.610, 38.883, 1048, M, 2.11
LEE VINING 5.9 NW, Mono, CA03, -119.170, 38.034, 7094, M, 0.17
MARIPOSA 3.7 NNW, Mariposa, CA05, -119.988, 37.540, 2942, M, 1.11
MARIPOSA 12.5 E, Mariposa, CA05, -119.742, 37.461, 2952, M, 0.81
LA GRANGE 7.8 ESE, Mariposa, CA05, -120.327, 37.635, 1114, M, 1.09
CATHEYS VALLEY 1.2 S, Mariposa, CA05, -120.100, 37.415, 1172, M, 0.70
WOODACRE 0.6 SW, Marin, CA01, -122.635, 38.005, 439, M, 1.36
SAN ANSELMO 1.2 NNW, Marin, CA01, -122.580, 37.997, 370, M, 1.42
NOVATO 4.8 WNW, Marin, CA01, -122.644, 38.106, 246, M, 1.48
SAN ANSELMO 0.4 NE, Marin, CA01, -122.564, 37.987, 107, M, 1.34
IGNACIO 0.6 SW, Marin, CA01, -122.546, 38.065, 57, M, 1.27
PETALUMA 10.1 W, Marin, CA01, -122.812, 38.248, 119, M, 0.91
TOMALES 1.3 ENE, Marin, CA01, -122.883, 38.251, 128, M, 0.99
SAN RAFAEL 3.9 NW, Marin, CA01, -122.547, 38.027, 72, M, 1.43
MILL VALLEY 1.5 S, Marin, CA01, -122.544, 37.886, 209, M, 2.24
LOCKWOOD 3.6 NW, Monterey, CA04, -121.117, 35.981, 1181, M, 0.15
KING CITY 13.2 S, Monterey, CA04, -121.174, 36.025, 1104, M, 0.13
CASTROVILLE 1.6 ENE, Monterey, CA04, -121.728, 36.776, 18, M, 0.37
KING CITY 2.0 SSW, Monterey, CA04, -121.146, 36.187, 371, M, 0.38
PACIFIC GROVE 1.5 SSW, Monterey, CA04, -121.932, 36.602, 280, M, 0.38
BIG SUR 4.0 SE, Monterey, CA04, -121.763, 36.224, 824, M, 0.59
BIG SUR 3.2 SE, Monterey, CA04, -121.769, 36.236, 739, M, 0.65
AROMAS 2.0 SSW, Monterey, CA04, -121.650, 36.850, 344, M, 0.41
CARMEL VALLEY VILLAGE 0.7 SSE, Monterey, CA04, -121.720, 36.476, 446, M, 0.46
CASTROVILLE 1.6 ENE, Monterey, CA04, -121.727, 36.777, 17, M, 0.38
MARINA 0.8 SSE, Monterey, CA04, -121.784, 36.673, 118, M, 0.40
CARMEL VALLEY VILLAGE 5.4 WNW, Monterey, CA04, -121.810, 36.522, 133, M, 0.49
BIG SUR 9.5 NNW, Monterey, CA04, -121.869, 36.398, 1100, M, 0.80
CALISTOGA 0.4 SSE, Napa, CA01, -122.578, 38.576, 348, M, 1.05
ST. HELENA 1.1 S, Napa, CA01, -122.462, 38.489, 248, M, 0.65
AMERICAN CANYON 0.3 S, Napa, CA01, -122.260, 38.169, 37, M, 1.02
NEVADA CITY 3.4 NNW, Nevada, CA02, -121.040, 39.307, 2390, M, 1.50
KINGVALE 1.3 WSW, Nevada, CA02, -120.452, 39.317, 6035, M, 2.36
GRASS VALLEY 5.0 S, Nevada, CA02, -121.042, 39.149, 2312, M, 2.90
LAKE OF THE PINES 1.0 WSW, Nevada, CA02, -121.077, 39.032, 1576, M, 1.29
ALTA SIERRA 0.4 WSW, Nevada, CA02, -121.060, 39.120, 2303, M, 2.17
NEVADA CITY 5.4 W, Nevada, CA02, -121.121, 39.268, 1982, M, 1.51
ALTA SIERRA 1.4 SSW, Nevada, CA02, -121.058, 39.103, 2057, M, 2.29
GRASS VALLEY 0.5 NNW, Nevada, CA02, -121.059, 39.229, 2669, M, 1.58
ORANGE 3.5 ENE, Orange, CA06, -117.770, 33.829, 811, M, 0.75
LAGUNA NIGUEL 0.9 W, Orange, CA06, -117.720, 33.528, 477, M, 1.55
SILVERADO 1.0 ESE, Orange, CA06, -117.620, 33.746, 1394, M, 2.45
LAGUNA BEACH 3.2 SSE, Orange, CA06, -117.739, 33.498, 194, M, 0.80
NEWPORT BEACH 3.1 ESE, Orange, CA06, -117.865, 33.589, 84, M, 0.53
MISSION VIEJO 1.6 ENE, Orange, CA06, -117.627, 33.624, 1018, M, 0.99
MISSION VIEJO 1.3 SSE, Orange, CA06, -117.644, 33.595, 704, M, 1.21
ANAHEIM 4.9 ENE, Orange, CA06, -117.792, 33.863, 298, M, 0.49
SODA SPRINGS 1.5 SSW, Placer, CA02, -120.384, 39.302, 6887, M, 2.41
ROSEVILLE 4.7 WNW, Placer, CA02, -121.377, 38.780, 96, M, 1.12
PENRYN 0.4 SE, Placer, CA02, -121.158, 38.847, 610, M, 1.73
COLFAX 3.1 SW, Placer, CA02, -120.991, 39.061, 2077, M, 1.33
NEWCASTLE 1.6 SSE, Placer, CA02, -121.123, 38.851, 800, M, 1.70
LINCOLN 4.3 SSE, Placer, CA02, -121.284, 38.842, 172, M, 2.11
IDYLLWILD 1.8 NW, Riverside, CA06, -116.735, 33.763, 6325, M, 0.90
DESERT HOT SPRINGS 3.0 NW, Riverside, CA07, -116.541, 33.985, 1339, M, 0.27
HEMET 4.1 ENE, Riverside, CA06, -116.920, 33.753, 1698, M, 0.54
CORONA 12.8 SE, Riverside, CA06, -117.428, 33.731, 1404, M, 0.72
LAKE ELSINORE 3.5 WSW, Riverside, CA06, -117.381, 33.657, 1356, M, 0.85
NORCO 1.2 S, Riverside, CA06, -117.548, 33.908, 661, M, 0.65
PERRIS 8.5 WNW, Riverside, CA06, -117.365, 33.826, 1639, M, 0.56
BEAUMONT 2.5 NW, Riverside, CA06, -117.012, 33.954, 2532, M, 0.83
RIVERSIDE 3.8 NW, Riverside, CA06, -117.454, 33.979, 841, M, 0.54
NORCO 2.3 SE, Riverside, CA06, -117.518, 33.906, 1091, M, 0.61
RIVERSIDE 2.6 E, Riverside, CA06, -117.353, 33.935, 1301, M, 1.24
CARMICHAEL 1.6 SW, Sacramento, CA02, -121.340, 38.617, 102, M, 0.95
SACRAMENTO 8.0 NE, Sacramento, CA02, -121.361, 38.635, 95, M, 0.89
FOLSOM 3.4 ESE, Sacramento, CA05, -121.091, 38.655, 594, M, 1.16
CARMICHAEL 0.9 NE, Sacramento, CA02, -121.306, 38.643, 130, M, 0.95
CARMICHAEL 1.4 W, Sacramento, CA02, -121.345, 38.638, 109, M, 0.91
FOLSOM 1.2 SSE, Sacramento, CA02, -121.140, 38.660, 362, M, 1.35
CARMICHAEL 0.9 S, Sacramento, CA02, -121.319, 38.621, 108, M, 0.83
FOLSOM 2.4 SW, Sacramento, CA02, -121.176, 38.651, 194, M, 1.44
SACRAMENTO 13.7 SE, Sacramento, CA05, -121.283, 38.456, 97, M, 0.75
SACRAMENTO 2.0 SE, Sacramento, CA02, -121.437, 38.550, 34, M, 0.96
SACRAMENTO 4.1 NE, Sacramento, CA02, -121.412, 38.609, 46, M, 0.72
SACRAMENTO 5.7 SSE, Sacramento, CA02, -121.419, 38.493, 28, M, 0.00
FOLSOM 0.6 NE, Sacramento, CA02, -121.138, 38.682, 399, M, 1.08
LA RIVIERA 1.0 NE, Sacramento, CA02, -121.340, 38.575, 64, M, 0.99
GOLETA 3.7 WNW, Santa Barbara, CA06, -119.896, 34.440, 158, M, 0.78
MOUNTAIN VIEW 1.2 S, Santa Clara, CA04, -122.075, 37.385, 109, M, 0.78
SAN JOSE 4.6 S, Santa Clara, CA04, -121.836, 37.238, 158, M, 0.64
SUNNYVALE 1.9 SE, Santa Clara, CA04, -122.004, 37.365, 85, M, 0.69
SAN JOSE 5.4 SW, Santa Clara, CA04, -121.775, 37.305, 223, M, 0.65
MONTE SERENO 0.4 SSW, Santa Clara, CA04, -121.990, 37.232, 467, M, 0.70
SAN JOSE 4.6 NE, Santa Clara, CA04, -121.795, 37.354, 318, M, 0.81
LOS ALTOS 0.6 NNW, Santa Clara, CA04, -122.100, 37.378, 156, M, 0.79
SAN JOSE 2.7 SSW, Santa Clara, CA04, -121.876, 37.271, 162, M, 0.10
CAMBRIAN PARK 2.2 SE, Santa Clara, CA04, -121.897, 37.234, 252, M, 0.64
SAN JOSE 3.5 ENE, Santa Clara, CA04, -121.789, 37.319, 200, M, 0.74
SAN JOSE 2.3 SSW, Santa Clara, CA04, -121.866, 37.273, 161, M, 0.57
SARATOGA 0.5 N, Santa Clara, CA04, -122.023, 37.275, 373, M, 0.65
PALO ALTO 1.2 NE, Santa Clara, CA04, -122.149, 37.452, 32, M, 1.18
SAN JOSE 3.0 WSW, Santa Clara, CA04, -121.927, 37.309, 159, M, 0.83
LOS GATOS 6.1 S, Santa Clara, CA04, -121.972, 37.143, 1732, M, 0.49
SAN JOSE 6.2 W, Santa Clara, CA04, -121.961, 37.319, 139, M, 0.68
LOS GATOS 5.4 SSW, Santa Clara, CA04, -121.988, 37.156, 1662, M, 0.83
SAN MARCOS 2.5 ENE, San Diego, CA06, -117.132, 33.147, 666, M, 0.65
IMPERIAL BEACH 3.3 E, San Diego, CA06, -117.062, 32.574, 138, M, 0.20
OCEANSIDE 8.4NE, San Diego, CA06, -117.266, 33.270, 252, M, 1.37
EL CAJON 2.3ENE, San Diego, CA06, -116.925, 32.811, 610, M, 1.23
ENCINITAS 3.34ENE, San Diego, CA06, -117.237, 33.050, 193, M, 0.69
ESCONDIDO 5.2NNW, San Diego, CA06, -117.128, 33.185, 1474, M, 0.81
EL CAJON 1.5WSW, San Diego, CA06, -116.987, 32.791, 727, M, 0.51
ESCONDIDO 2.5 SSE, San Diego, CA06, -117.048, 33.106, 690, M, 0.70
POWAY 3.2NE, San Diego, CA06, -117.004, 32.996, 1206, M, 0.42
JAMUL 9.9ESE, San Diego, CA06, -116.706, 32.680, 2737, M, 1.09
BORREGO SPRINGS 2.4 WSW, San Diego, CA07, -116.390, 33.223, 777, M, 0.00
LA JOLLA 2.5SE, San Diego, CA06, -117.240, 32.825, 508, M, 0.48
CHULA VISTA 6.3E, San Diego, CA06, -116.975, 32.638, 555, M, 0.67
OCEANSIDE 5.6NE, San Diego, CA06, -117.313, 33.254, 60, M, 0.72
POWAY 1.4SW, San Diego, CA06, -117.059, 32.949, 444, M, 0.21
CARDIFF BY THE SEA 0.2 E, San Diego, CA06, -117.271, 33.027, 266, M, 1.03
CHULA VISTA 2.5SE, San Diego, CA06, -117.052, 32.617, 266, M, 0.35
PAUMA VALLEY 1.7 SE, San Diego, CA06, -116.957, 33.290, 1132, M, 0.13
FALLBROOK 6.5 NE, San Diego, CA06, -117.160, 33.436, 1377, M, 1.44
SAN DIEGO 3.5NE, San Diego, CA06, -117.110, 32.747, 344, M, 0.24
SANTEE 1.8NW, San Diego, CA06, -116.996, 32.856, 470, M, 0.22
SAN DIEGO 7.9NE, San Diego, CA06, -117.073, 32.806, 242, M, 0.25
LA JOLLA 2.1 SE, San Diego, CA06, -117.250, 32.826, 491, M, 0.54
RANCHO BERNARDO 0.5SE, San Diego, CA06, -117.067, 33.018, 483, M, 0.41
LA JOLLA 2.2 NE, San Diego, CA06, -117.248, 32.870, 371, M, 0.62
VISTA 1.5NNW, San Diego, CA06, -117.254, 33.219, 417, M, 0.78
EL CAJON 2.3 S, San Diego, CA06, -116.959, 32.770, 738, M, 0.89
SAN DIEGO 9NE, San Diego, CA06, -117.059, 32.817, 292, M, 0.16
POWAY 4.7NNW, San Diego, CA06, -117.047, 33.026, 739, M, 0.37
SAN DIEGO COUNTRY ESTATES 1.5 WNW, San Diego, CA06, -116.807, 33.016, 1474, M, 0.26
SAN FRANCISCO 2.8 WNW, San Francisco, CA04, -122.470, 37.783, 173, M, 1.75
SAN FRANCISCO 1.1 SW, San Francisco, CA04, -122.435, 37.765, 194, M, 1.34
COTTONWOOD 0.5 NNE, Shasta, CA02, -122.276, 40.397, 452, M, 2.06
SHINGLETOWN 5.3 ENE, Shasta, CA02, -121.796, 40.524, 3964, M, 2.69
REDDING 2.7 NNW, Shasta, CA02, -122.380, 40.610, 708, M, 2.07
REDDING 7.9 NNE, Shasta, CA02, -122.291, 40.672, 681, M, 1.89
REDDING 3.7 N, Shasta, CA02, -122.358, 40.626, 618, M, 1.80
REDDING 3.6 N, Shasta, CA02, -122.354, 40.623, 604, M, 1.80
REDDING 0.6 NW, Shasta, CA02, -122.373, 40.580, 475, M, 2.05
REDDING 2.6 NNE, Shasta, CA02, -122.347, 40.607, 590, M, 1.62
REDDING 4.1 N, Shasta, CA02, -122.358, 40.631, 616, M, 1.82
ANDERSON 2.6 NE, Shasta, CA02, -122.261, 40.478, 409, M, 1.52
LINDEN 5.8 ENE, San Joaquin, CA05, -121.008, 38.063, 146, M, 1.52
STOCKTON 2.1 NW, San Joaquin, CA05, -121.333, 37.991, 7, M, 1.06
STOCKTON 5.8 NNE, San Joaquin, CA05, -121.255, 38.038, 35, M, 1.26
LODI 1.0 NNW, San Joaquin, CA05, -121.304, 38.136, 43, M, 1.26
STOCKTON 3.3 SE, San Joaquin, CA05, -121.259, 37.942, 23, M, 0.97
TRACY 2.1 W, San Joaquin, CA05, -121.470, 37.735, 52, M, 1.20
YREKA 4.5 S, Siskiyou, CA01, -122.621, 41.665, 2937, M, 0.44
WEED 5.4 N, Siskiyou, CA01, -122.370, 41.495, 3064, M, 0.13
ETNA 3.9 NNW, Siskiyou, CA01, -122.923, 41.511, 2966, M, 0.84
YREKA 0.9 WNW, Siskiyou, CA01, -122.649, 41.733, 2692, M, 0.76
MONTAGUE 1.6 ESE, Siskiyou, CA01, -122.501, 41.718, 2556, M, 0.36
SANTA MARGARITA 8.9 ESE, San Luis Obispo, CA04, -120.453, 35.381, 2005, M, 0.03
PACIFICA 0.3 W, San Mateo, CA04, -122.483, 37.612, 227, M, 1.16
FOSTER CITY 1.3 SW, San Mateo, CA04, -122.259, 37.549, 7, M, 1.08
HALF MOON BAY 0.5 SSW, San Mateo, CA04, -122.441, 37.463, 54, M, 1.21
REDWOOD CITY 2.5 SW, San Mateo, CA04, -122.240, 37.493, 17, M, 0.88
PORTOLA VALLEY 1.3 ENE, San Mateo, CA04, -122.198, 37.382, 531, M, 0.82
ROHNERT PARK 1.6 WNW, Sonoma, CA01, -122.727, 38.352, 93, M, 1.34
GEYSERVILLE 10.6 WNW, Sonoma, CA01, -123.098, 38.737, 1328, M, 1.42
SANTA ROSA 3.1 W, Sonoma, CA01, -122.758, 38.451, 107, M, 1.18
SEBASTOPOL 3.7 WSW, Sonoma, CA01, -122.893, 38.385, 383, M, 2.19
SANTA ROSA 2.7 WSW, Sonoma, CA01, -122.745, 38.432, 123, M, 1.08
CALISTOGA 4.6 WNW, Sonoma, CA01, -122.658, 38.612, 497, M, 1.21
SEBASTOPOL 4.5 WSW, Sonoma, CA01, -122.904, 38.375, 423, M, 2.33
PETALUMA 1.0 N, Sonoma, CA01, -122.623, 38.256, 52, M, M
WINDSOR 1.5 WNW, Sonoma, CA01, -122.823, 38.555, 123, M, 1.33
WINDSOR 1.4 SE, Sonoma, CA01, -122.780, 38.532, 140, M, 1.13
SANTA ROSA 4.7 S, Sonoma, CA01, -122.725, 38.378, 94, M, 1.41
SANTA ROSA 3.1 NW, Sonoma, CA01, -122.744, 38.479, 140, M, 1.22
CLOVERDALE 3.2 ESE, Sonoma, CA01, -122.963, 38.781, 797, M, 1.01
SEBASTOPOL 2.6 SSE, Sonoma, CA01, -122.804, 38.366, 214, M, 1.69
BODEGA BAY 4.8 NNW, Sonoma, CA01, -123.078, 38.381, 91, M, 1.58
SANTA ROSA 2.9 ENE, Sonoma, CA01, -122.655, 38.471, 292, M, 1.35
MONTE RIO 1.6 W, Sonoma, CA01, -123.042, 38.464, 20, M, 2.09
SEBASTOPOL 3.0 SW, Sonoma, CA01, -122.869, 38.372, 539, M, 2.09
SANTA ROSA 4.4 NNW, Sonoma, CA01, -122.719, 38.511, 392, M, 0.86
SEBASTOPOL 1.1 SSE, Sonoma, CA01, -122.819, 38.384, 168, M, 1.66
WINDSOR 1.2 NNW, Sonoma, CA01, -122.805, 38.562, 155, M, 1.22
HEALDSBURG 7.5 NW, Sonoma, CA01, -122.963, 38.693, 203, M, 1.05
SANTA ROSA 2.6 NE, Sonoma, CA01, -122.664, 38.473, 273, M, 1.34
SONOMA 1.9 E, Sonoma, CA01, -122.425, 38.290, 124, M, 1.23
SANTA ROSA 1.3 NW, Sonoma, CA01, -122.715, 38.464, 173, M, 1.19
PETALUMA 1.3 SW, Sonoma, CA01, -122.639, 38.226, 36, M, 0.89
WINDSOR 0.6 NNE, Sonoma, CA01, -122.793, 38.553, 157, M, 1.20
SEBASTOPOL 0.9 WNW, Sonoma, CA01, -122.841, 38.407, 213, M, 1.74
GLEN ELLEN 1.9 WNW, Sonoma, CA01, -122.572, 38.365, 956, M, 1.61
ROHNERT PARK 0.9 SW, Sonoma, CA01, -122.711, 38.339, 96, M, 1.20
HEALDSBURG 3.7 WNW, Sonoma, CA01, -122.921, 38.648, 142, M, 1.09
CLOVERDALE 0.6 W, Sonoma, CA01, -123.028, 38.799, 382, M, 1.07
ROHNERT PARK 0.9 ESE, Sonoma, CA01, -122.681, 38.345, 125, M, 1.16
GLEN ELLEN 1.5 N, Sonoma, CA01, -122.534, 38.378, 337, M, 1.20
SANTA ROSA 2.7 ENE, Sonoma, CA01, -122.659, 38.470, 281, M, 1.18
BOYES HOT SPRINGS 0.5 ENE, Sonoma, CA01, -122.473, 38.316, 295, M, 1.02
SEBASTOPOL 3.3 WSW, Sonoma, CA01, -122.885, 38.384, 362, M, 1.97
OCCIDENTAL 2.8 SW, Sonoma, CA01, -122.974, 38.365, 614, M, 2.26
HEALDSBURG 12.6 NNW, Sonoma, CA01, -122.963, 38.784, 1026, M, 1.03
BENICIA 0.2 SSW, Solano, CA01, -122.155, 38.070, 403, M, 1.40
WRIGHTWOOD 1.2 WNW, San Bernardino, CA07, -117.651, 34.365, 6148, M, 1.82
UPLAND 0.5 ESE, San Bernardino, CA06, -117.650, 34.115, 1415, M, 0.72
APPLE VALLEY 2.6 SE, San Bernardino, CA07, -117.181, 34.504, 2941, M, 1.45
JOSHUA TREE 2.0 S, San Bernardino, CA07, -116.318, 34.097, 3409, M, 0.82
CRESTLINE 0.2 WSW, San Bernardino, CA07, -117.299, 34.246, 4530, M, 3.70
LANDERS 1.6 NE, San Bernardino, CA07, -116.375, 34.283, 2954, M, 0.44
PINON HILLS 3.5 N, San Bernardino, CA07, -117.644, 34.485, 3495, M, 1.79
APPLE VALLEY 1.9 N, San Bernardino, CA07, -117.211, 34.556, 2935, M, 0.04
KNIGHTS FERRY 5.2 WSW, Stanislaus, CA05, -120.752, 37.789, 144, M, 1.19
OAKDALE 4.2 ENE, Stanislaus, CA05, -120.777, 37.782, 232, M, M
SAN JUAN BAUTISTA 0.5 S, San Benito, CA04, -121.537, 36.839, 252, M, 0.45
HOLLISTER 5.4 NNE, San Benito, CA04, -121.370, 36.931, 247, M, 0.46
HOLLISTER 2.1 ESE, San Benito, CA04, -121.365, 36.842, 389, M, 0.41
DAVENPORT 4.2 NW, Santa Cruz, CA04, -122.218, 37.065, 495, M, 1.20
BOULDER CREEK 3.6 NE, Santa Cruz, CA04, -122.091, 37.181, 1724, M, 0.92
SCOTTS VALLEY 1.7 SW, Santa Cruz, CA04, -122.029, 37.040, 573, M, 1.03
APTOS 2.6 E, Santa Cruz, CA04, -121.854, 36.996, 383, M, 0.64
FELTON 0.1 SE, Santa Cruz, CA04, -122.071, 37.042, 238, M, 0.92
SOQUEL 1.8 N, Santa Cruz, CA04, -121.950, 37.019, 152, M, 0.67
APTOS 1.7 SSE, Santa Cruz, CA04, -121.883, 36.971, 309, M, 0.52
BOULDER CREEK 3.0 NW, Santa Cruz, CA04, -122.164, 37.169, 875, M, 0.91
FELTON 4.5 NNE, Santa Cruz, CA04, -122.047, 37.105, 838, M, 1.03
RED BLUFF 4.3 W, Tehama, CA02, -122.322, 40.179, 396, M, 1.58
LINDSAY 0.5 N, Tulare, CA05, -119.088, 36.213, 378, M, 0.52
TERRA BELLA 6.3 W, Tulare, CA05, -119.149, 35.950, 374, M, 0.67
VISALIA 0.7 SSE, Tulare, CA05, -119.318, 36.315, 318, M, 0.79
DOUGLAS CITY 2.4 SW, Trinity, CA01, -122.978, 40.633, 1689, M, 1.48
HAWKINS BAR 0.6 NW, Trinity, CA01, -123.530, 40.877, 674, M, 1.01
MAD RIVER 7.4 SE, Trinity, CA01, -123.376, 40.321, 2762, M, 1.52
HAYFORK 7.1 SE, Trinity, CA01, -123.030, 40.500, 2917, M, 0.81
TRINITY CENTER 0.6 ESE, Trinity, CA01, -122.696, 40.983, 2427, M, 1.25
THOUSAND OAKS 2.1 WSW, Ventura, CA06, -118.898, 34.177, 692, M, 0.23
FRAZIER PARK 10.7 WSW, Ventura, CA06, -119.110, 34.746, 5274, M, 0.39
SIMI VALLEY 3.8 SW, Ventura, CA06, -118.805, 34.231, 1081, M, 0.32
VENTURA 0.5 WNW, Ventura, CA06, -119.276, 34.273, 56, M, 0.56
SIMI VALLEY 1.0 NW, Ventura, CA06, -118.764, 34.272, 848, M, 0.28
THOUSAND OAKS 2.5 WSW, Ventura, CA06, -118.909, 34.179, 703, M, 0.20
CHALLENGE-BROWNSVILLE 1.3 WSW, Yuba, CA02, -121.280, 39.452, 2049, M, 1.72
DAVIS 1.2 SE, Yolo, CA02, -121.721, 38.543, 36, M, 0.74
DAVIS 0.8 NE, Yolo, CA02, -121.724, 38.562, 41, M, 0.75
DAVIS 1.4 SSE, Yolo, CA02, -121.722, 38.538, 4, M, 0.48
DAVIS 6.1 WNW, Yolo, CA02, -121.845, 38.578, 83, M, 0.76
DAVIS 2.7 W, Yolo, CA02, -121.786, 38.552, 57, M, 0.71
WOODLAND 2.8 SE, Yolo, CA02, -121.732, 38.647, 38, M, 0.77
PLACERVILLE 3 ENE, El Dorado, CA02, -120.742, 38.785, 2658, 56.1, 1.49
TAHOMA, El Dorado, CA03, -120.129, 39.060, 6315, 37.1, 0.67
CORONA MUNICIPAL AIRPORT, Riverside, -, -117.602, 33.898, 533, 57.7, 0.05
OAKLAND 4.4 NNW, Alameda, CA04, -122.250, 37.832, 191, M, 1.57
SAN LORENZO 0.5 NNW, Alameda, CA04, -122.133, 37.682, 30, M, 1.32
OROVILLE 4.8 E, Butte, CA02, -121.477, 39.493, 668, M, 2.09
MCKINLEYVILLE 4.3 E, Humboldt, CA01, -124.034, 40.953, 173, M, 2.35
KNEELAND 0.4 NNW, Humboldt, CA01, -123.999, 40.766, 2008, M, 1.86
MCKINLEYVILLE 1.2 SSW, Humboldt, CA01, -124.126, 40.938, 58, M, 1.50
BISHOP 8.8 WNW, Inyo, CA07, -118.547, 37.411, 4537, M, 0.42
CLAREMONT 0.5 E, Los Angeles, CA06, -117.707, 34.121, 1465, M, 1.08
LANCASTER 6.5 ENE, Los Angeles, CA07, -118.066, 34.718, 2366, M, 1.53
FOOTHILL RANCH 0.3 NW, Orange, CA06, -117.664, 33.689, 1045, M, 1.01
CARLSBAD 2.2SE, San Diego, CA06, -117.321, 33.143, 22, M, 1.03
DESCANSO 0.3 WNW, San Diego, CA06, -116.621, 32.854, 3442, M, 0.71
SAN DIEGO 5.2WNW, San Diego, CA06, -117.245, 32.735, 251, M, 0.62
VISTA 1.2SE, San Diego, CA06, -117.231, 33.186, 505, M, 0.75
IGO 0.2 S, Shasta, CA02, -122.541, 40.503, 1074, M, 1.58
BELMONT 0.7 WSW, San Mateo, CA04, -122.306, 37.510, 482, M, 0.68
FORESTVILLE 0.7 SW, Sonoma, CA01, -122.897, 38.473, 201, M, 1.50
RIALTO 2.1 N, San Bernardino, CA06, -117.381, 34.144, 1482, M, 1.78
THREE RIVERS 1.7 NE, Tulare, CA05, -118.886, 36.458, 1010, M, 0.53
TRINITY CENTER 0.2 ENE, Trinity, CA01, -122.704, 40.986, 2481, M, 1.24
VERDI 2W, Sierra, CA03, -120.027, 39.521, 5429, 41.3, 0.44
CHICO 1.2 NNW, Butte, CA02, -121.814, 39.770, 251, M, 1.18
PASADENA 2.0 SE, Los Angeles, CA06, -118.116, 34.139, 739, M, 0.70
RAYMOND 6.8 NE, Madera, CA05, -119.802, 37.272, 1802, M, 1.19
SUNNYVALE 3.6 S (W6NW), Santa Clara, CA04, -122.018, 37.334, 170, M, 0.73
PIONEER 6.4 NE, Amador, CA05, -120.499, 38.505, 4073, M, 1.77
CRESCENT CITY 4.2 NE, Del Norte, CA01, -124.143, 41.800, 98, M, 4.20
POLLOCK PINES 0.5 NW, El Dorado, CA02, -120.578, 38.757, 3895, M, 1.78
EUREKA 3.0 SSW, Humboldt, CA01, -124.181, 40.757, 100, M, 1.39
MCKINLEYVILLE 0.7 ESE, Humboldt, CA01, -124.104, 40.950, 127, M, 2.02
TEHACHAPI 2.2 W, Kern, CA05, -118.480, 35.132, 3945, M, 0.71
DIAMOND BAR 1.9 NNE, Los Angeles, CA06, -117.796, 34.023, 935, M, 0.75
LA CRESCENTA-MONTROSE 3.9 NW, Los Angeles, CA06, -118.287, 34.270, 1974, M, 0.58
YOSEMITE LAKES 4.7 S, Madera, CA05, -119.761, 37.124, 1598, M, 0.65
MARIPOSA 12.5 E, Mariposa, CA05, -119.740, 37.462, 2940, M, 0.78
IRVINE 2.9 WSW, Orange, CA06, -117.838, 33.640, 193, M, 0.46
MISSION VIEJO 3.5 SSE(K6WTA), Orange, CA06, -117.639, 33.563, 613, M, 1.75
IRVINE 4.1 NNE, Orange, CA06, -117.772, 33.718, 152, M, 0.46
ANAHEIM 4.9 E, Orange, CA06, -117.787, 33.847, 374, M, 0.82
LOS ALTOS HILLS 1.3 N, Santa Clara, CA04, -122.135, 37.387, 194, M, 1.06
CHULA VISTA 3.1SE, San Diego, CA06, -117.051, 32.604, 200, M, 0.40
SAN DIEGO 9.5 NNW, San Diego, CA06, -117.221, 32.843, 284, M, 0.57
CARLSBAD 3.8SE, San Diego, CA06, -117.304, 33.119, 168, M, 0.63
RANCHO BERNARDO 1NNW, San Diego, CA06, -117.083, 33.034, 517, M, 0.51
LOS OSOS 0.5 N, San Luis Obispo, CA04, -120.832, 35.329, 77, M, 0.27
MENLO PARK 2.4 W, San Mateo, CA04, -122.187, 37.477, 25, M, 1.10
BURLINGAME 2.0 WSW, San Mateo, CA04, -122.398, 37.584, 447, M, 1.00
BODEGA BAY 1.0 SE, Sonoma, CA01, -123.018, 38.312, 226, M, 1.49
BODEGA BAY 0.1 NNW, Sonoma, CA01, -123.030, 38.324, 218, M, 1.34
BENICIA 1.2 SW, Solano, CA01, -122.168, 38.058, 40, M, 1.38
TWENTYNINE PALMS 1.5 SW, San Bernardino, CA07, -116.085, 34.124, 2162, M, 0.04
SUTTER 0.3 W, Sutter, CA02, -121.751, 39.160, 73, M, 0.00
CAMARILLO 2.4 W, Ventura, CA06, -119.072, 34.228, 114, M, 0.56
MARYSVILLE 5.0 N, Yuba, CA02, -121.594, 39.224, 73, M, 1.01
WHEATLAND 0.1 ENE, Yuba, CA02, -121.424, 39.013, 85, M, 1.19
CHICO 1.7 SW, Butte, CA02, -121.832, 39.739, 210, M, 1.26
BLUE LAKE 0.6 NNW, Humboldt, CA01, -123.994, 40.888, 179, M, 1.42
REDWAY 1.8 WSW, Humboldt, CA01, -123.852, 40.109, 955, M, 2.87
LAWS 0.1SW, Inyo, CA07, -118.347, 37.399, 4116, M, 0.07
UPPER LAKE 3.6 W, Lake, CA02, -122.978, 39.168, 1440, M, 1.31
MORGAN HILL 1.4 SW, Santa Clara, CA04, -121.659, 37.117, 433, M, 0.62
FALLBROOK 2.3SE, San Diego, CA06, -117.225, 33.352, 618, M, 1.37
REDDING 3.8 S, Shasta, CA02, -122.369, 40.518, 444, M, 1.93
FORKS OF SALMON 1.0 NW, Siskiyou, CA01, -123.334, 41.269, 1664, M, 1.19
SAN MATEO 3.4 SSW, San Mateo, CA04, -122.343, 37.518, 585, M, 0.76
OCCIDENTAL 1.8 WSW, Sonoma, CA01, -122.969, 38.390, 974, M, 2.62
FILLMORE 0.6 N, Ventura, CA06, -118.917, 34.408, 506, M, 0.89
ARBUCKLE BASIN CALIFORNIA, Shasta, CA02, -122.833, 40.398, 1900, 55.3, M
ACTON CALIFORNIA, Los Angeles, CA06, -118.200, 34.446, 2600, 55.6, M
ARROYO GRANDE CALIFORNIA, San Luis Obispo, CA04, -120.392, 35.179, 1048, 59.4, M
ALPINE CALIFORNIA, San Diego, CA06, -116.739, 32.834, 2041, 58.9, M
LOS ALTOS CALIFORNIA, Santa Clara, CA04, -122.147, 37.358, 645, 57.5, M
ANZA CALIFORNIA, Riverside, CA06, -116.673, 33.555, 3920, 50.9, M
ALDER POINT CALIFORNIA, Humboldt, CA01, -123.590, 40.187, 923, 51.2, M
ARROYO SECO (MT. DIABLO) CALIF, Monterey, CA04, -121.492, 36.230, 980, 57.2, M
ASH VALLEY CALIFORNIA, Lassen, CA02, -120.686, 41.052, 5100, 38.2, M
BACKBONE CALIFORNIA, Trinity, CA01, -123.142, 40.889, 4700, 48.6, M
BALD MTN LOC CALIFORNIA, El Dorado, CA02, -120.697, 38.906, 4680, 51.9, M
BARNABY CALIFORNIA, Marin, CA01, -122.702, 38.028, 1240, 56.9, M
BATTERSON CALIFORNIA, Madera, CA05, -119.508, 37.232, 3160, 55.8, M
BELL CANYON CALIFORNIA, Orange, CA06, -117.592, 33.542, 700, 63.6, M
BRADLEY CALIFORNIA, Monterey, CA04, -120.803, 35.864, 537, 55.4, M
BEAR PEAK CALIFORNIA, Tulare, CA05, -118.052, 35.884, 8228, 41.2, M
BENTON CALIFORNIA, Mono, CA07, -118.478, 37.843, 5450, 43.5, M
BEAUMONT CALIFORNIA, Riverside, CA06, -116.950, 33.931, 2604, 58.1, M
BEVERLY HILLS CALIFORNIA, Los Angeles, CA06, -118.412, 34.125, 1260, 66.7, M
BANGOR CALIFORNIA, Butte, CA02, -121.386, 39.398, 803, 56.5, M
BIG HILL CALIFORNIA, Humboldt, CA01, -123.636, 41.098, 3570, 47.0, M
BIG PINES CALIFORNIA, Los Angeles, CA07, -117.692, 34.379, 6917, 45.6, M
BIG ROCK CALIFORNIA, Marin, CA01, -122.570, 38.039, 1500, 56.7, M
BLACK DIAMOND CALIFORNIA, Contra Costa, CA04, -121.884, 37.950, 1600, 55.4, M
BLUE DOOR CALIFORNIA, Lassen, CA02, -120.337, 41.055, 5615, 39.4, M
BEN BOLT CALIFORNIA, El Dorado, CA05, -120.934, 38.591, 905, 55.9, M
BEN LOMOND CALIFORNIA, Santa Cruz, CA04, -122.170, 37.132, 2630, 55.0, M
BOGARD R.S. CALIFORNIA, Lassen, CA02, -121.083, 40.598, 5650, 37.7, M
BOONVILLE CALIFORNIA, Mendocino, CA01, -123.349, 38.988, 644, 54.8, M
BIG PINE FLAT CALIFORNIA, San Bernardino, CA07, -117.013, 34.319, 6861, 44.5, M
BRIDGEPORT 4NW CALIFORNIA, Mono, CA03, -119.289, 38.272, 6650, 41.1, M
BRANCH MOUNTAIN CALIFORNIA, San Luis Obispo, CA04, -120.083, 35.189, 3770, 54.2, M
BEAR FLAT CALIFORNIA, Modoc, CA02, -120.313, 41.295, 6200, 39.5, M
BRIONES CALIFORNIA, Contra Costa, CA04, -122.118, 37.944, 1450, 56.6, M
BLACKROCK CALIFORNIA, Tulare, CA05, -118.260, 36.093, 8200, 43.5, M
BROOKS CALIFORNIA, Yolo, CA02, -122.145, 38.738, 354, 57.0, M
BULL FLAT CALIFORNIA, Lassen, CA03, -120.114, 40.481, 4395, 40.4, M
BURNS CANYON CALIFORNIA, San Bernardino, CA07, -116.634, 34.210, 6000, 48.3, M
BUTTERCUP CALIFORNIA, Imperial, CA07, -114.884, 32.740, 217, 66.7, M
BEAVER CAMP LOC CALIFORNIA, Amador, CA05, -120.325, 38.488, 5000, 52.6, M
BRAZIE RANCH CALIFORNIA, Siskiyou, CA01, -122.594, 41.685, 3000, 47.1, M
CAHUILLA CALIFORNIA, Imperial, CA07, -115.174, 32.974, 278, 67.3, M
CALLAHAN CALIFORNIA, Siskiyou, CA01, -122.796, 41.308, 3136, 45.8, M
CANBY CALIFORNIA, Modoc, CA02, -120.868, 41.434, 4312, 40.1, M
CARRIZO CALIFORNIA, San Luis Obispo, CA05, -119.773, 35.096, 2490, 57.4, M
CATHEYS VALLEY CALIFORNIA, Mariposa, CA05, -120.111, 37.468, 1200, 57.0, M
CHEESEBORO CALIFORNIA, Ventura, CA06, -118.717, 34.185, 1650, 63.9, M
CHICO CALIFORNIA, Butte, CA02, -121.779, 39.712, 230, 55.3, M
CHILAO CALIFORNIA, Los Angeles, CA06, -118.030, 34.332, 5450, 52.1, M
CHUCHUPATE CALIFORNIA, Ventura, CA05, -119.012, 34.808, 4900, 42.8, M
CLAREMONT CALIFORNIA, Los Angeles, CA06, -117.707, 34.137, 1645, 60.1, M
CLEAR CREEK CALIFORNIA, Los Angeles, CA06, -118.152, 34.271, 3000, 56.9, M
CLARK CALIFORNIA, Riverside, CA06, -117.309, 33.877, 1720, 60.4, M
CALAVERAS ROAD CALIFORNIA, Alameda, CA04, -121.844, 37.553, 1230, 56.6, M
CASE MOUNTAIN CALIFORNIA, Tulare, CA05, -118.809, 36.411, 6450, 48.6, M
COHASSET CALIFORNIA, Butte, CA02, -121.769, 39.872, 1733, 58.3, M
COLLINS BALDY CALIFORNIA, Siskiyou, CA01, -122.950, 41.775, 5493, 42.7, M
CONVERSE CALIFORNIA, San Bernardino, CA06, -116.913, 34.194, 5618, 48.5, M
COOSKIE MOUNTAIN CALIFORNIA, Humboldt, CA01, -124.266, 40.257, 2950, 50.2, M
CORRALITOS CALIFORNIA, Santa Cruz, CA04, -121.798, 36.991, 450, 55.8, M
COUNTY LINE CALIFORNIA, Lake, CA02, -122.412, 39.019, 2085, 57.2, M
CAMP 9 CALIFORNIA, Los Angeles, CA06, -118.422, 34.362, 4000, 54.5, M
CRANE FLAT LOOKOUT CALIFORNIA, Mariposa, CA05, -119.825, 37.762, 6644, 46.4, M
CRESTVIEW CALIFORNIA, Mono, CA07, -118.983, 37.745, 7600, 36.6, M
CORNING CALIFORNIA, Tehama, CA02, -122.170, 39.939, 294, 55.7, M
CARPENTER RIDGE CALIFORNIA, Butte, CA02, -121.582, 40.069, 4812, 47.9, M
CRANSTON CALIFORNIA, Riverside, CA06, -116.841, 33.740, 1950, 60.5, M
CRAZY PEAK CALIFORNIA, Del Norte, CA01, -123.604, 41.992, 3970, 46.3, M
CASHMAN CALIFORNIA, Plumas, CA02, -120.915, 40.002, 4520, 47.4, M
DESCANSO CALIFORNIA, San Diego, CA06, -116.622, 32.857, 3480, 54.7, M
DEVILS GARDEN CALIFORNIA, Modoc, CA02, -120.671, 41.530, 5022, 40.9, M
DIABLO GRANDE CALIFORNIA, Stanislaus, CA05, -121.294, 37.329, 1850, 56.9, M
DEMOCRAT CALIFORNIA, Kern, CA05, -118.630, 35.532, 2356, 55.6, M
DINKEY CALIFORNIA, Fresno, CA05, -119.039, 37.066, 5668, 41.9, M
DOG VALLEY CALIFORNIA, Sierra, CA03, -120.048, 39.562, 5976, 38.7, M
DOYLE CALIFORNIA, Lassen, CA03, -120.106, 40.022, 4240, 42.6, M
DEL VALLE CALIFORNIA, Los Angeles, CA06, -118.683, 34.431, 1278, 61.7, M
DEVORE CALIFORNIA, San Bernardino, CA06, -117.404, 34.221, 2057, 61.0, M
EAGLE PEAK CALIFORNIA, Tehama, CA02, -122.657, 39.928, 3713, 51.7, M
EEL RIVER CAMP CALIFORNIA, Humboldt, CA01, -123.824, 40.138, 446, 52.1, M
EEL RIVER CALIFORNIA, Mendocino, CA01, -123.083, 39.833, 1500, 51.7, M
EL CARISO CALIFORNIA, Riverside, CA06, -117.411, 33.647, 3038, 60.3, M
MOUNT ELIZABETH CALIFORNIA, Tuolumne, CA05, -120.247, 38.063, 4933, 51.2, M
EL MIRAGE CALIFORNIA, San Bernardino, CA07, -117.550, 34.634, 2880, 63.0, M
ESPERANZA CALIFORNIA, Calaveras, CA05, -120.515, 38.243, 2559, 53.5, M
FANCHER CREEK CALIFORNIA, Fresno, CA05, -119.466, 36.884, 920, 60.6, M
FAWNSKIN CALIFORNIA, San Bernardino, CA06, -116.899, 34.266, 6900, 42.5, M
FENCE MEADOW CALIFORNIA, Fresno, CA05, -119.175, 36.961, 5048, 50.9, M
FORT HUNTER LIGGET CALIFORNIA, Monterey, CA04, -121.242, 36.012, 1100, 54.8, M
FIGUEROA CALIFORNIA, Santa Barbara, CA06, -120.007, 34.733, 3200, 58.6, M
FISH CREEK MTN CALIFORNIA, Imperial, CA07, -116.067, 32.990, 760, 70.0, M
FIVE MILE CALIFORNIA, Inyo, CA07, -117.918, 35.872, 4150, 55.5, M
FORESTHILL CALIFORNIA, Placer, CA02, -120.732, 39.091, 4355, 51.7, M
FOUNTAIN SPRINGS CALIFORNIA, Tulare, CA05, -118.915, 35.892, 210, 56.2, M
FREMONT CANYON CALIFORNIA, Orange, CA06, -117.711, 33.808, 1781, 63.1, M
FRIEND MOUNTAIN CALIFORNIA, Trinity, CA01, -123.342, 40.505, 4000, 47.2, M
GASQUET CALIFORNIA, Del Norte, CA01, -123.979, 41.846, 500, 48.1, M
GRASSHOPPER CALIFORNIA, Lassen, CA03, -120.784, 40.782, 6158, 38.8, M
GOOSE VALLEY CALIFORNIA, San Diego, CA06, -116.846, 33.074, 1530, 61.8, M
GORDON CALIFORNIA, Lassen, CA03, -120.896, 40.759, 6200, 39.4, M
GREEN SPRING CALIFORNIA, Tuolumne, CA05, -120.500, 37.833, 1020, 56.4, M
HASTINGS CALIFORNIA, Monterey, CA04, -121.552, 36.389, 1885, 56.0, M
HAWKEYE CALIFORNIA, Sonoma, CA01, -122.917, 38.782, 2000, 56.7, M
HAYFORK CALIFORNIA, Trinity, CA01, -123.165, 40.550, 2323, 44.9, M
HELL HOLE CALIFORNIA, Placer, CA02, -120.422, 39.072, 5240, 47.7, M
HERNANDEZ CALIFORNIA, San Benito, CA04, -120.856, 36.383, 3733, 54.6, M
HIGH GLADE LOOKOUT CALIFORNIA, Lake, CA02, -122.808, 39.208, 4840, 49.7, M
HIGH SIERRA CALIFORNIA, Fresno, CA05, -119.038, 37.315, 7403, 41.5, M
HOLLISTER CALIFORNIA, San Benito, CA04, -121.362, 36.842, 404, 56.2, M
HUNTER MOUNTAIN CALIFORNIA, Inyo, CA07, -117.474, 36.563, 6880, 40.8, M
HORSE LAKE CALIFORNIA, Lassen, CA03, -120.503, 40.631, 5100, 38.6, M
HOOPA CALIFORNIA, Humboldt, CA01, -123.671, 41.048, 375, 50.0, M
HORSE THIEF SPRINGS CALIFORNIA, San Bernardino, CA07, -115.909, 35.771, 5000, 51.0, M
HURLEY CALIFORNIA, Fresno, CA05, -119.568, 37.015, 1201, 52.3, M
INDIAN WELL CALIFORNIA, Siskiyou, CA01, -121.538, 41.742, 4770, 42.0, M
JARBO GAP CALIFORNIA, Butte, CA02, -121.489, 39.736, 2490, 54.3, M
JOHNSONDALE CALIFORNIA, Tulare, CA05, -118.545, 35.972, 4700, 45.8, M
JUANITA LAKE CALIFORNIA, Siskiyou, CA01, -122.006, 41.786, 5400, 43.1, M
JULIAN CALIFORNIA, San Diego, CA07, -116.591, 33.076, 4240, 51.0, M
JUNIPER CREEK CALIFORNIA, Modoc, CA02, -120.472, 41.332, 4372, 42.0, M
KEENWILD CALIFORNIA, Riverside, CA06, -116.767, 33.667, 4920, 52.3, M
KETTLEMAN HILLS CALIFORNIA, Kings, CA05, -120.057, 36.033, 810, 60.0, M
KNOXVILLE CREEK CALIFORNIA, Lake, CA02, -122.417, 38.862, 2200, 54.2, M
KONOCTI CALIFORNIA, Lake, CA02, -122.706, 38.912, 2163, 56.4, M
LOS BANOS CALIFORNIA, Merced, CA05, -121.053, 37.055, 350, 58.7, M
MT. LAGUNA CALIFORNIA, San Diego, CA07, -116.420, 32.880, 5760, 45.3, M
LA HONDA CALIFORNIA, San Mateo, CA04, -122.255, 37.305, 872, 55.7, M
LA PANZA CALIFORNIA, San Luis Obispo, CA04, -120.187, 35.381, 1630, 51.8, M
LAURAL MOUNTAIN CALIFORNIA, Kern, CA07, -117.699, 35.478, 4390, 52.9, M
LASSEN LODGE CALIFORNIA, Tehama, CA02, -121.714, 40.344, 4159, 51.6, M
LAUFMAN CALIFORNIA, Lassen, CA03, -120.353, 40.142, 5800, 42.1, M
LAYTONVILLE CALIFORNIA, Mendocino, CA01, -123.485, 39.702, 1820, 52.0, M
LADDER BUTTE CALIFORNIA, Lassen, CA02, -121.297, 40.807, 5750, 43.3, M
LEO CARRILLO CALIFORNIA, Los Angeles, CA06, -118.936, 34.046, 50, 63.8, M
LOS GATOS CALIFORNIA, Santa Clara, CA04, -121.943, 37.203, 2000, 56.9, M
LOST HORSE CALIFORNIA, Riverside, CA07, -116.188, 34.018, 4200, 49.6, M
LINCOLN CALIFORNIA, Placer, CA02, -121.268, 38.883, 200, 54.9, M
LOWER KLAMATH CALIFORNIA, Siskiyou, CA01, -121.700, 41.999, 4098, 37.8, M
LOS PRIETOS CALIFORNIA, Santa Barbara, CA06, -119.783, 34.536, 1020, 60.3, M
LAS TABLAS CALIFORNIA, San Luis Obispo, CA04, -120.924, 35.656, 994, 52.7, M
LITTLE TUJUNGA CALIFORNIA, Los Angeles, CA06, -118.361, 34.294, 1390, 61.9, M
LYONS VALLEY CALIFORNIA, Lake, CA01, -123.074, 39.126, 3200, 52.8, M
LYTLE CREEK CALIFORNIA, San Bernardino, CA06, -117.480, 34.234, 2792, 57.6, M
MAD RIVER CALIFORNIA, Trinity, CA01, -123.524, 40.463, 2775, 49.1, M
MALIBU HILLS CALIFORNIA, Los Angeles, CA06, -118.633, 34.058, 1575, 64.0, M
MANZANITA LAKE CALIFORNIA, Shasta, CA02, -121.580, 40.540, 5660, 39.8, M
MILL CREEK (BDF) CALIFORNIA, San Bernardino, CA06, -117.035, 34.084, 2950, 59.7, M
MCGUIRES CALIFORNIA, Mendocino, CA01, -123.601, 39.353, 593, 51.6, M
MEANS LAKE CALIFORNIA, San Bernardino, CA07, -116.517, 34.391, 2900, 54.3, M
MENDOCINO PASS CALIFORNIA, Mendocino, CA01, -122.945, 39.808, 5420, 46.3, M
METCALF GAP CALIFORNIA, Madera, CA05, -119.768, 37.409, 3077, 56.2, M
MID HILLS CALIFORNIA, San Bernardino, CA07, -115.411, 35.123, 5413, 49.6, M
MILL CREEK (ANF) CALIFORNIA, Los Angeles, CA06, -118.082, 34.390, 5021, 51.0, M
MILO CALIFORNIA, Tulare, CA05, -118.869, 36.231, 1923, 58.4, M
MALLORY RIDGE CALIFORNIA, Contra Costa, CA05, -121.779, 37.817, 2040, 55.7, M
MONTECITO CALIFORNIA, Santa Barbara, CA06, -119.648, 34.461, 1500, 63.6, M
MODOC NWR CALIFORNIA, Modoc, CA02, -120.354, 41.459, 4380, 47.4, M
MOUNTAIN REST CALIFORNIA, Fresno, CA05, -119.371, 37.054, 4100, 53.5, M
MARKLEEVILLE CALIFORNIA, Alpine, CA03, -119.767, 38.683, 5501, 41.7, M
MT. SHASTA CALIFORNIA, Siskiyou, CA02, -122.316, 41.316, -, 44.1, M
MARIPOSA CALIFORNIA, Mariposa, CA05, -119.987, 37.504, 2231, 54.1, M
MOUNT ZION CALIFORNIA, Amador, CA05, -120.651, 38.389, 2960, 56.2, M
NORTH FORK CALIFORNIA, Madera, CA05, -119.505, 37.233, 2720, 55.6, M
OAK KNOLL CALIFORNIA, Siskiyou, CA01, -122.850, 41.839, 1940, 45.0, M
OAK MOUNTAIN CALIFORNIA, Shasta, CA02, -121.983, 41.006, 1700, 51.9, M
OAK CREEK CALIFORNIA, Inyo, CA07, -118.259, 36.843, 4855, 50.4, M
OAK GROVE CALIFORNIA, San Diego, CA06, -116.795, 33.393, 2752, 55.8, M
OAKLAND NORTH CALIFORNIA, Contra Costa, CA04, -122.221, 37.865, 1403, 55.8, M
OAK OPENING CALIFORNIA, Tulare, CA05, -118.702, 36.175, 3240, 54.6, M
OAKLAND SOUTH CALIFORNIA, Alameda, CA04, -122.145, 37.786, 1095, 55.6, M
OPAL MOUNTAIN CALIFORNIA, San Bernardino, CA07, -117.176, 35.154, 3240, 57.0, M
OWENS CAMP LOC CALIFORNIA, El Dorado, CA02, -120.245, 38.733, 5240, 45.5, M
OWENS VALLEY CALIFORNIA, Inyo, CA07, -118.551, 37.390, 4640, 49.4, M
OZENA CALIFORNIA, Ventura, CA06, -119.354, 34.682, 3670, 52.8, M
PANAMINT CALIFORNIA, Inyo, CA07, -117.088, 36.120, 6880, 45.5, M
PARKFIELD CALIFORNIA, Monterey, CA04, -120.432, 35.899, 1535, 54.3, M
PATTY MOCUS CALIFORNIA, Tehama, CA02, -122.867, 40.295, 3500, 51.6, M
PINE HILLS CALIFORNIA, San Diego, CA06, -116.634, 33.016, -, 55.0, M
PIERCE CALIFORNIA, Plumas, CA02, -120.642, 40.246, 5700, 46.3, M
PINEHURST CALIFORNIA, Fresno, CA05, -119.000, 36.685, 4060, 53.5, M
PIKE COUNTY LOOKOUT CALIFORNIA, Yuba, CA02, -121.202, 39.475, 3714, 53.0, M
PILOT HILL CALIFORNIA, El Dorado, CA02, -121.009, 38.833, 1200, 54.7, M
PARK RIDGE CALIFORNIA, Tulare, CA05, -118.942, 36.724, 7540, 45.0, M
PINNACLES CALIFORNIA, San Benito, CA04, -121.147, 36.471, 1322, 57.4, M
POPPY PARK CALIFORNIA, Los Angeles, CA07, -118.383, 34.733, 2760, 54.6, M
POTRERO CALIFORNIA, San Diego, CA06, -116.609, 32.606, 2345, 55.7, M
POVERTY CALIFORNIA, Santa Clara, CA04, -121.771, 37.443, 2066, 56.1, M
PANOCHE ROAD CALIFORNIA, Fresno, CA05, -120.766, 36.727, 2032, 56.5, M
PULGAS CALIFORNIA, San Mateo, CA04, -122.298, 37.475, 644, 58.1, M
QUARTZ HILL CALIFORNIA, Siskiyou, CA01, -122.934, 41.599, 4225, 45.4, M
QUINCY RD CALIFORNIA, Plumas, CA02, -120.942, 39.973, 3500, 46.4, M
RAVENDALE CALIFORNIA, Lassen, CA03, -120.316, 40.731, 5298, 39.9, M
RANCHITA CALIFORNIA, San Diego, CA07, -116.497, 33.222, 4415, 52.2, M
READER RANCH CALIFORNIA, Nevada, CA02, -121.117, 39.304, 1968, 55.5, M
REDDING AIRPORT CALIFORNIA, Shasta, CA02, -122.291, 40.516, 500, 53.9, M
RICE VALLEY CALIFORNIA, Riverside, CA07, -114.732, 34.061, 820, 61.6, M
ROCK CREEK, Mono, CA07, -118.667, 37.551, 7040, 39.1, M
RODEO VALLEY, Mendocino, CA01, -123.321, 39.668, 2428, 52.3, M
ROSE VALLEY CALIFORNIA, Ventura, CA06, -119.184, 34.543, 3331, 49.3, M
ROUND MOUNTAIN, Siskiyou, CA02, -121.464, 41.427, 5258, 39.7, M
ROSE PEAK CALIFORNIA, Alameda, CA04, -121.735, 37.502, 3060, 53.5, M
RUSH CREEK CALIFORNIA, Modoc, CA02, -120.864, 41.294, 4800, 43.0, M
RUTH CALIFORNIA, Trinity, CA01, -123.316, 40.251, 2732, 46.8, M
SACRAMENTO NWR CALIFORNIA, Glenn, CA02, -122.182, 39.417, 120, 56.6, M
SADDLEBACK BUTTE CALIFORNIA, Los Angeles, CA07, -117.821, 34.685, 2590, 52.0, M
SAUGUS CALIFORNIA, Los Angeles, CA06, -118.525, 34.425, 1450, 62.0, M
SAWYERS BAR CALIFORNIA, Siskiyou, CA01, -123.132, 41.300, 2192, 46.7, M
SANTA BARBARA ISLAND CALIFORNI, Santa Barbara, CA06, -119.033, 33.483, 176, 61.9, M
SANTA CRUZ ISLAND CALIFORNIA, Santa Barbara, CA06, -119.722, 33.996, 250, 59.4, M
SCORPION CALIFORNIA, Trinity, CA01, -122.697, 41.112, 4400, 50.4, M
SECRET TOWN CALIFORNIA, Nevada, CA02, -120.885, 39.184, 2826, 53.1, M
SANTA FE DAM CALIFORNIA, Los Angeles, CA06, -117.946, 34.121, 500, 66.5, M
SHAVER CALIFORNIA, Fresno, CA05, -119.256, 37.135, 5746, 42.8, M
SCHOOL HOUSE CALIFORNIA, Humboldt, CA01, -123.906, 41.138, 2640, 50.2, M
SHIP MTN. CALIFORNIA, Del Norte, CA01, -123.792, 41.736, 5300, 44.1, M
SHADEQUARTER CALIFORNIA, Tulare, CA05, -118.956, 36.567, 4069, 53.1, M
SIMS CALIFORNIA, Shasta, CA02, -122.373, 41.075, 2400, 51.2, M
SLATER BUTTE CALIFORNIA, Siskiyou, CA01, -123.352, 41.859, 4670, 44.5, M
SAN MIGUEL CALIFORNIA, San Diego, CA06, -116.974, 32.685, 425, 63.8, M
SAN LUIS NWR CALIFORNIA, Merced, CA05, -120.794, 37.182, 65, 54.0, M
SANTA RITA CALIFORNIA, San Benito, CA05, -120.598, 36.348, 5000, 50.6, M
SOLDIER MOUNTAIN CALIFORNIA, Shasta, CA02, -121.586, 40.926, 3710, 45.9, M
SQUAW SPRINGS CALIFORNIA, San Bernardino, CA07, -117.568, 35.370, 3620, 56.1, M
SQUAW LAKE CALIFORNIA, Imperial, CA07, -114.494, 32.908, 300, 66.6, M
SANTA ROSA ISLAND CALIFORNIA, Santa Barbara, CA06, -120.078, 33.978, 1298, 59.4, M
SANTA ROSA PLATEAU CALIFORNIA, Riverside, CA06, -117.231, 33.529, 1980, 60.4, M
SANTA ROSA CALIFORNIA, Sonoma, CA01, -122.712, 38.479, 576, 57.4, M
STAMPEDE CALIFORNIA, Sierra, CA03, -120.075, 39.483, 6867, 40.9, M
STONYFORD CALIFORNIA, Colusa, CA02, -122.575, 39.367, 1200, 54.0, M
SPRING VALLEY CALIFORNIA, San Mateo, CA04, -122.436, 37.563, 1075, 55.5, M
TANBARK CALIFORNIA, Los Angeles, CA06, -117.761, 34.207, 2600, 59.2, M
TEMESCAL (LPF) CALIFORNIA, Ventura, CA06, -118.756, 34.481, 1140, 61.0, M
THOMES CREEK CALIFORNIA, Tehama, CA02, -122.610, 39.864, 1040, 59.0, M
TIMBER MOUNTAIN CALIFORNIA, Modoc, CA01, -121.298, 41.629, 4960, 42.5, M
MOUNT TOM CALIFORNIA, Fresno, CA05, -119.178, 37.376, 9018, 39.5, M
LAS TRAMPAS CALIFORNIA, Contra Costa, CA04, -122.067, 37.834, 1760, 55.5, M
TRINITY CAMP CALIFORNIA, Trinity, CA01, -122.804, 40.786, 3308, 48.3, M
TRIMMER CALIFORNIA, Fresno, CA05, -119.305, 36.911, 1540, 56.8, M
UHL / HOT SPRINGS, Tulare, CA05, -118.633, 35.889, 3720, 52.6, M
UNDERWOOD CALIFORNIA, Trinity, CA01, -123.495, 40.722, 2600, 48.3, M
VALLEY CENTER CALIFORNIA, San Diego, CA06, -117.009, 33.237, 1483, 60.3, M
VAN BREMMER CALIFORNIA, Siskiyou, CA01, -121.794, 41.643, 4928, 43.3, M
VALYERMO CALIFORNIA, Los Angeles, CA07, -117.851, 34.446, 3780, 50.6, M
VANDENBERG CALIFORNIA, Santa Barbara, CA06, -120.486, 34.759, 1050, 59.6, M
WALKER CALIFORNIA, Mono, CA03, -119.459, 38.565, 5440, 45.5, M
WALKER PASS CALIFORNIA, Kern, CA05, -118.057, 35.665, 5572, 51.1, M
WARM SPRINGS CALIFORNIA, Los Angeles, CA06, -118.579, 34.596, 4930, 54.5, M
WEED AIRPORT CALIFORNIA, Siskiyou, CA01, -122.454, 41.479, 2930, 44.3, M
WESTWOOD CALIFORNIA, Lassen, CA02, -120.900, 40.307, 5800, 42.7, M
WHITE CLOUD CALIFORNIA, Nevada, CA02, -120.837, 39.317, 4320, 52.5, M
WHITTIER HILLS CALIFORNIA, Los Angeles, CA06, -118.010, 33.984, 950, 65.3, M
WHITMORE CALIFORNIA, Shasta, CA02, -121.899, 40.619, 2417, 53.9, M
WILEY RIDGE CALIFORNIA, Ventura, CA06, -118.841, 34.372, 1645, 61.9, M
WOFFORD HEIGHTS CALIFORNIA, Kern, CA05, -118.499, 35.722, 3150, 53.9, M
WOLVERTON CALIFORNIA, Tulare, CA05, -118.703, 36.445, 5240, 52.2, M
WOODACRE CALIFORNIA, Marin, CA01, -122.645, 37.991, 1400, 55.7, M
WHITAKER PEAK CALIFORNIA, Los Angeles, CA06, -118.740, 34.569, 4120, 54.9, M
WHITE WOLF CALIFORNIA, Tuolumne, CA05, -119.650, 37.851, 8025, 40.4, M
YOLLA BOLLA CALIFORNIA, Trinity, CA01, -123.066, 40.338, 4524, 47.7, M
YUCCA VALLEY CALIFORNIA, San Bernardino, CA07, -116.408, 34.123, 3260, 52.6, M
YUROK CALIFORNIA, Humboldt, CA01, -123.857, 41.290, 495, 51.4, M
HAGAN'S MEADOW, El Dorado, CA03, -119.940, 38.850, 7776, 37.9, 0.70
BLUE LAKES, Alpine, CA05, -119.920, 38.610, 8057, 36.0, 1.40
POISON FLAT, Alpine, CA03, -119.630, 38.510, 7736, 36.3, 0.10
SONORA PASS, Mono, CA03, -119.600, 38.310, 8827, 36.1, 0.70
LEAVITT MEADOWS, Mono, CA03, -119.550, 38.300, 7198, 39.0, 0.70
VIRGINIA LAKES RIDGE, Mono, CA03, -119.230, 38.070, 9445, 36.2, 0.50
LOBDELL LAKE, Mono, CA03, -119.370, 38.440, 9233, 35.3, 0.50
EBBETTS PASS, Alpine, CA03, -119.800, 38.550, 8765, 37.4, 1.10
HEAVENLY VALLEY, El Dorado, CA03, -119.920, 38.920, 8582, 36.8, 0.90
LEAVITT LAKE, Mono, CA03, -119.610, 38.280, 9617, 35.7, 1.20
SPRATT CREEK, Alpine, CA03, -119.820, 38.670, 6115, 40.8, 0.70
MONITOR PASS, Alpine, CA03, -119.610, 38.670, 8310, 38.0, 0.60
BURNSIDE LAKE, Alpine, CA03, -119.890, 38.720, 8129, 34.6, 0.90
SUMMIT MEADOW, Mono, CA03, -119.540, 38.400, 9313, 36.6, 0.30
FORESTDALE CREEK, Alpine, CA03, -119.960, 38.680, 8017, 39.0, 1.50
HORSE MEADOW, Alpine, CA03, -119.890, 38.840, 8557, 37.9, 0.50
CARSON PASS, Alpine, CA02, -119.990, 38.690, 8353, 37.3, 1.30
CROWDER FLAT, Modoc, CA01, -120.750, 41.890, 5170, 40.2, 0.80
CEDAR PASS, Modoc, CA02, -120.300, 41.580, 7030, 38.2, 1.60
DISMAL SWAMP, Modoc, CA03, -120.180, 41.990, 7360, 33.7, 2.40
ADIN MTN, Modoc, CA02, -120.790, 41.240, 6190, 35.8, 0.80
INDEPENDENCE CREEK, Sierra, CA03, -120.280, 39.490, 6456, 38.4, 0.20
INDEPENDENCE CAMP, Sierra, CA03, -120.290, 39.450, 7003, 39.3, 0.60
INDEPENDENCE LAKE, Nevada, CA03, -120.310, 39.430, 8352, 37.4, 1.10
TRUCKEE #2, Placer, CA03, -120.180, 39.300, 6509, 41.3, 0.60
WARD CREEK #3, Placer, CA03, -120.220, 39.140, 6655, 39.6, 1.30
TAHOE CITY CROSS, Placer, CA03, -120.150, 39.170, 6797, 41.7, 0.60
SQUAW VALLEY G.C., Placer, CA03, -120.260, 39.190, 8029, 39.0, 1.20
CSS LAB, Nevada, CA02, -120.370, 39.330, 6855, 41.3, 1.70
RUBICON #2, El Dorado, CA03, -120.130, 39.000, 7689, 39.8, 1.00
ECHO PEAK, El Dorado, CA03, -120.080, 38.850, 7670, 40.7, 1.50
FALLEN LEAF, El Dorado, CA03, -120.050, 38.930, 6236, 39.2, 0.60
BEAR VALLEY F.D., Kern, CA01, -118.644, 35.166, 4100, 48.3, 0.82
GRIDLEY 0.4 NNE, Butte, CA02, -121.693, 39.369, 86, M, 1.23
WASCO 0.8 SSW, Kern, CA05, -119.348, 35.583, 325, M, 0.58
NEVADA CITY 1.7 SSE, Nevada, CA02, -121.006, 39.238, 3168, M, 1.51
LA MESA 2.6E, San Diego, CA06, -116.979, 32.770, 1014, M, 0.46
GERBER-LAS FLORES 3.5 SW, Tehama, CA02, -122.190, 40.022, 272, M, 0.95
OAKLAND 5.0 NNE, Alameda, CA04, -122.198, 37.841, 1312, M, 1.74
CHESTER 0.9 NNE, Plumas, CA02, -121.225, 40.311, 4532, M, 0.97
CARLSBAD 1.3ENE, San Diego, CA06, -117.331, 33.166, 194, M, 1.80
EL CAJON 2.9 ENE, San Diego, CA06, -116.917, 32.824, 843, M, 0.29
SAN MATEO 1.2 SW, San Mateo, CA04, -122.329, 37.550, 114, M, 1.09
RED BLUFF 4.9 SE, Tehama, CA02, -122.175, 40.124, 265, M, 1.04
CHICO 0.2 ESE, Butte, CA02, -121.803, 39.753, 257, M, 1.19
CRESCENT CITY 7.8 NNE, Del Norte, CA01, -124.144, 41.862, 95, M, 3.91
MISSION VIEJO 3.9 NNE, Orange, CA06, -117.626, 33.665, 1051, M, 1.40
RAMONA 3.8 ENE, San Diego, CA06, -116.809, 33.056, 2018, M, 0.30
RED BLUFF 2.4 NE, Tehama, CA02, -122.205, 40.194, 275, M, 1.24
COBB 0.8 S, Lake, CA02, -122.722, 38.826, 2515, M, 0.20
LONG BEACH 1.1 SE, Los Angeles, CA06, -118.147, 33.777, 48, M, 0.95
RANCHO PALOS VERDES 1.3 NNW, Los Angeles, CA06, -118.370, 33.775, 1014, M, 0.74
THOUSAND OAKS 2.7 NW, Ventura, CA06, -118.897, 34.222, 681, M, 0.38
RANCHO CORDOVA 1.5 SE, Sacramento, CA02, -121.281, 38.580, 104, M, 0.85
ATASCADERO 3.1 WNW, San Luis Obispo, CA04, -120.738, 35.503, 1403, M, 0.20
TWAIN HARTE 1.6 SW, Tuolumne, CA05, -120.253, 38.024, 3231, M, 1.08
EL DORADO HILLS 1.9 N, El Dorado, CA02, -121.082, 38.713, 700, M, 0.00
GARBERVILLE 1.1 WSW, Humboldt, CA01, -123.810, 40.089, 510, M, 1.55
BARSTOW 0.8 SSE, San Bernardino, CA07, -117.059, 34.867, 2609, M, 1.47
APTOS 1.4 N, Santa Cruz, CA04, -121.901, 37.012, 601, M, 0.00
MCOLF CAMP PENDLETON RED BEACH AIRPORT, San Diego, -, -117.456, 33.286, 89, M, 0.34
CAMPO ASOS, San Diego, CA07, -116.468, 32.626, 2641, 53.2, 0.80
Burbank Glendale Pasadena Area, -, -, -, -, -, 64.5, 0.12
Camarillo Area, -, -, -, -, -, 60.9, 0.56
Needles Area, -, -, -, -, -, 63.6, 0.91
Oxnard Area, -, -, -, -, -, 61.1, 0.51
Palm Springs Area, -, -, -, -, -, 65.3, 0.11
Riverside Area, -, -, -, -, -, 62.2, 0.52
Ramona Area, -, -, -, -, -, 55.7, 0.21
Northern CA 8 Station Index, -, -, -, -, -, M, 1.66
San Joaquin 5 Station Index, -, -, -, -, -, M, 1.04
Tulare 6 Station Index, -, -, -, -, -, M, 0.71
BISHOP 1.6 NW, Inyo, CA07, -118.415, 37.385, 4183, M, 0.10
SMARTSVILLE 2.4 S, Yuba, CA02, -121.291, 39.173, 859, M, 1.74
Crescent City Area, -, -, -, -, -, 50.2, 2.52
Escondido Area, -, -, -, -, -, 62.1, 0.39
Sacramento Downtown Area, -, -, -, -, -, 57.2, 0.82
Tahoe City Area, -, -, -, -, -, 39.4, 0.39
Ukiah Area, -, -, -, -, -, 53.8, 0.85
CAMBRIA 0.5 WSW, San Luis Obispo, CA04, -121.087, 35.543, 214, M, 0.30
Alturas Area, -, -, -, -, -, 38.4, 0.29
Mount Shasta Area, -, -, -, -, -, 44.7, 0.22
Palmdale Area, -, -, -, -, -, 53.0, 1.86
Lancaster Area, -, -, -, -, -, 50.7, 1.45
San Jose Area, -, -, -, -, -, 56.3, 0.77
El Cajon Area, -, -, -, -, -, 61.1, 0.51
Hanford Area, -, -, -, -, -, 55.0, 0.26
El Centro Area, -, -, -, -, -, 63.6, 0.95
Madera Area, -, -, -, -, -, 54.4, 0.39
Merced Area, -, -, -, -, -, 53.9, 0.62
ANDERSON 8.5 WNW, Shasta, CA02, -122.452, 40.475, 819, M, 1.49
STOCKTON 2.5 NE, San Joaquin, CA05, -121.366, 38.001, 1, M, 1.08
HALF MOON BAY 1.0 S, San Mateo, CA04, -122.438, 37.455, 65, M, 1.21
KING CITY 11.1 SSW, Monterey, CA04, -121.189, 36.060, 1354, M, 0.45
LAKE FOREST 1.0 S, Orange, CA06, -117.691, 33.632, 461, M, 0.60
SOLANA BEACH 1.5E, San Diego, CA06, -117.245, 32.991, 291, M, 1.66
MOUNT SHASTA 1.7 SSE, Siskiyou, CA02, -122.303, 41.299, 3593, M, 0.37
RED BLUFF 5.7 W, Tehama, CA02, -122.346, 40.161, 490, M, 1.52
OAKLAND 1.0 NE, Alameda, CA04, -122.212, 37.782, 129, M, 1.30
VOLCANO 3.2 N, Amador, CA05, -120.631, 38.488, 2426, M, 1.32
CHICO 1.1 SSE, Butte, CA02, -121.798, 39.739, 248, M, 1.23
CAMINO 2.0 WSW, El Dorado, CA02, -120.711, 38.734, 2910, M, 1.74
POLLOCK PINES 1.9 WNW, El Dorado, CA02, -120.605, 38.758, 3849, M, 3.03
TRINIDAD 1.0 ENE, Humboldt, CA01, -124.124, 41.061, 287, M, 2.27
HYDESVILLE 11.4 NE, Humboldt, CA01, -123.924, 40.658, 2446, M, 2.14
BENICIA 1.0 N, Solano, CA01, -122.157, 38.086, 246, M, 1.37
SANTA CRUZ 6.3 NNE, Santa Cruz, CA04, -121.981, 37.057, 400, M, 0.85
MANTON 0.8 ENE, Tehama, CA02, -121.856, 40.438, 2113, M, 3.22
FLOURNOY 1.3 NE, Tehama, CA02, -122.415, 39.929, 533, M, 1.50
LOS MOLINOS 4.5 N, Tehama, CA02, -122.111, 40.092, 235, M, 1.10
WILLOW CREEK 4.9 NNE, Humboldt, CA01, -123.628, 40.947, 501, M, 1.53
PASADENA 1.8 E, Los Angeles, CA06, -118.107, 34.162, 911, M, 0.33
TORRANCE 0.7 E, Los Angeles, CA06, -118.328, 33.834, 92, M, 0.53
COARSEGOLD 0.8 WSW, Madera, CA05, -119.714, 37.258, 2296, M, 0.00
GARDEN GROVE 0.8 ESE, Orange, CA06, -117.946, 33.775, 85, M, 0.54
NORCO 1.7 W, Riverside, CA06, -117.582, 33.925, 626, M, 0.39
DESCANSO 3.7 NNW, San Diego, CA06, -116.626, 32.906, 3278, M, 0.98
ESCONDIDO 0.8 NNE, San Diego, CA06, -117.066, 33.147, 734, M, 0.43
EL CAJON 2.8SE, San Diego, CA06, -116.920, 32.772, 686, M, 0.99
OCEANSIDE 8.1ENE, San Diego, CA06, -117.256, 33.250, 189, M, 1.01
OCEANSIDE 2.2ENE, San Diego, CA06, -117.344, 33.205, 241, M, 1.19
SAN DIEGO 2NNE, San Diego, CA06, -117.150, 32.744, 295, M, 0.57
ESCONDIDO 2NNE, San Diego, CA06, -117.079, 33.147, 729, M, 0.40
SAN MARCOS 2.6W, San Diego, CA06, -117.211, 33.147, 657, M, 0.00
CARLSBAD 8.3SE, San Diego, CA06, -117.242, 33.079, 222, M, 0.63
ENCINITAS 3.33ESE, San Diego, CA06, -117.237, 33.049, 207, M, 0.05
VACAVILLE 7.2 WNW, Solano, CA02, -122.081, 38.415, 1427, M, 1.12
OROVILLE 4.6 ENE, Butte, CA02, -121.489, 39.531, 394, M, 2.22
MEADOW VALLEY 5.6 WSW, Plumas, CA02, -121.100, 39.919, 4438, M, 1.40
SANTA MARIA 1.8 NE, Santa Barbara, CA06, -120.419, 34.959, 235, M, 0.17
MORGAN HILL 6.4 NE, Santa Clara, CA04, -121.546, 37.186, 2624, M, M
JOSHUA TREE 2.6 SE, San Bernardino, CA07, -116.289, 34.098, 3247, M, 1.04
LOS MOLINOS 5.8 N, Tehama, CA02, -122.084, 40.111, 259, M, 0.83
WOODSIDE 3.4 S, San Mateo, CA04, -122.264, 37.375, 1592, M, 1.10
EL CERRITO 1.3 NW, Contra Costa, CA04, -122.316, 37.936, 258, M, 1.57
SAN ANSELMO 2.0 NNW, Marin, CA01, -122.580, 38.010, 204, M, 1.37
COTTONWOOD 3.2 WSW, Shasta, CA02, -122.339, 40.378, 460, M, 1.31
ADELANTO 3.1 S, San Bernardino, CA07, -117.433, 34.525, 3085, M, 0.81
CHICO 1.3 E, Butte, CA02, -121.782, 39.755, 362, M, 1.24
RIO VISTA 8.5 S, Sacramento, CA05, -121.703, 38.050, 5, M, M
REDDING 7.3 NE, Shasta, CA02, -122.255, 40.637, 682, M, 1.77
YUCCA VALLEY 1.1 SW, San Bernardino, CA07, -116.443, 34.100, 3628, M, 0.20
SAUSALITO 0.3 WNW, Marin, CA01, -122.497, 37.859, 159, M, 1.49