Name, County, ClimateDivision, Longitude, Latitude, Elevation, MeanAvgTemperature, TotalPrecipitation
IMPERIAL, Imperial, CA07, -115.567, 32.849, -64, 91.3, 1.43
EL CAPITAN DAM, San Diego, CA06, -116.815, 32.886, 600, 78.5, 0.21
LAKESIDE 2 E, San Diego, CA06, -116.895, 32.854, 690, M, 0.30
POWAY VALLEY, San Diego, CA06, -117.031, 33.020, 648, 76.0, 0.13
JULIAN CDF, San Diego, CA06, -116.592, 33.076, 4215, 72.3, 1.83
CARLSBAD MCCLELLAN PALOMAR AP, San Diego, CA06, -117.277, 33.130, 313, 71.8, 0.32
HENSHAW DAM, San Diego, CA06, -116.761, 33.237, 2700, 72.6, 0.78
VISTA, San Diego, CA06, -117.232, 33.235, 430, 72.9, 0.18
OCEANSIDE MARINA, San Diego, CA06, -117.395, 33.210, 10, 70.3, 0.09
NILAND, Imperial, CA07, -115.524, 33.278, -60, M, 0.29
BORREGO DESERT PARK, San Diego, CA07, -116.404, 33.256, 810, 88.9, 0.32
PALOMAR MTN OBSERVATORY, San Diego, CA06, -116.840, 33.378, 5550, 70.9, 1.55
MECCA FIRE STATION, Riverside, CA07, -116.073, 33.570, -183, 91.1, 0.21
LAGUNA BEACH, Orange, CA06, -117.781, 33.545, 44, M, 0.02
BLYTHE ASOS, Riverside, CA07, -114.715, 33.619, 395, 91.6, 0.57
DESERT RESORTS REGIONAL AP, Riverside, CA07, -116.164, 33.632, -118, 89.8, 0.32
BARSTOW-DAGGETT AIRPORT, San Bernardino, CA07, -116.787, 34.854, 1919, 86.5, 0.76
MERCED, Merced, CA05, -120.516, 37.289, 154, 78.6, 0.00
SAN DIEGO MONTGOMERY FIELD, San Diego, CA06, -117.137, 32.815, 418, 75.0, 0.08
SAN DIEGO INTERNATIONAL AP, San Diego, CA06, -117.183, 32.734, 15, 73.8, 0.08
SAN DIEGO MIRAMAR NAS, San Diego, CA06, -117.133, 32.867, 477, 73.6, 0.13
NORTH ISLAND NAS, San Diego, CA06, -117.210, 32.692, 14, 73.0, 0.03
SAN FRANCISCO INTERNATIONAL AP, San Mateo, CA04, -122.366, 37.620, 10, 67.0, T
SAN LUIS OBISPO MCCHESNEY FIELD, San Luis Obispo, CA04, -120.644, 35.238, 183, 68.6, 0.00
CEDARVILLE, Modoc, CA03, -120.179, 41.530, 4688, 69.8, 0.54
CHICO UNIVERSITY FARM, Butte, CA02, -121.821, 39.691, 185, 76.9, 0.42
CHULA VISTA, San Diego, CA06, -117.086, 32.640, 56, 73.8, 0.05
COLFAX, Placer, CA02, -120.947, 39.090, 2373, 77.5, 0.15
CUYAMACA, San Diego, CA06, -116.587, 32.990, 4640, 68.5, 0.45
DAVIS 2 WSW EXP FARM, Yolo, CA02, -121.776, 38.535, 60, 74.5, 0.00
DEATH VALLEY NATIONAL PARK, Inyo, CA07, -116.867, 36.463, -194, 98.7, 0.15
FAIRMONT, Los Angeles, CA07, -118.430, 34.705, 3060, 79.7, 0.06
FORT BRAGG 5 N, Mendocino, CA01, -123.756, 39.510, 123, 58.7, 0.00
HANFORD 1 S, Kings, CA05, -119.637, 36.316, 237, 82.5, 0.00
HAPPY CAMP RANGER STATION, Siskiyou, CA01, -123.375, 41.796, 1142, 73.2, 0.07
INDIO FIRE STATION, Riverside, CA07, -116.215, 33.709, -21, 91.5, 0.07
LEMON COVE, Tulare, CA05, -119.026, 36.382, 513, 81.0, 0.00
LIVERMORE, Alameda, CA04, -121.751, 37.682, 529, 73.6, 0.00
LODI, San Joaquin, CA05, -121.288, 38.106, 40, 74.9, 0.00
MERCED MUNICIPAL AP, Merced, CA05, -120.518, 37.286, 152, 80.0, T
NAPA STATE HOSPITAL, Napa, CA01, -122.265, 38.278, 35, 69.5, 0.05
OJAI, Ventura, CA06, -119.227, 34.448, 745, 73.1, 0.00
ORLAND, Glenn, CA02, -122.200, 39.746, 254, 78.0, 0.32
ORLEANS, Humboldt, CA01, -123.532, 41.309, 403, 76.4, 0.00
PASADENA, Los Angeles, CA06, -118.145, 34.148, 864, 79.4, 0.03
PASO ROBLES, San Luis Obispo, CA04, -120.685, 35.628, 730, 71.7, 0.00
PETALUMA AIRPORT, Sonoma, CA01, -122.608, 38.258, 20, 68.3, 0.05
QUINCY, Plumas, CA02, -120.947, 39.937, 3420, 67.2, 1.52
REDLANDS, San Bernardino, CA06, -117.195, 34.037, 1410, 77.9, 1.25
SANTA BARBARA, Santa Barbara, CA06, -119.684, 34.417, 16, 70.3, 0.03
SANTA CRUZ, Santa Cruz, CA04, -122.000, 36.988, 70, 67.9, 0.00
TAHOE CITY, Placer, CA03, -120.143, 39.168, 6230, 61.5, 0.89
WASCO, Kern, CA05, -119.352, 35.589, 291, 83.4, 0.00
WEAVERVILLE, Trinity, CA01, -122.940, 40.737, 2058, 74.2, 0.00
WILLOWS 6 W, Glenn, CA02, -122.305, 39.523, 234, 77.5, 0.00
YOSEMITE PARK HEADQUARTERS, Mariposa, CA05, -119.590, 37.750, 4018, 73.3, 0.15
YREKA, Siskiyou, CA01, -122.641, 41.703, 2709, 74.6, T
BERKELEY, Alameda, CA04, -122.260, 37.874, 310, 65.1, 0.02
BLYTHE, Riverside, CA07, -114.597, 33.613, 268, 91.6, 2.24
EUREKA WFO WOODLEY ISLAND, Humboldt, CA01, -124.160, 40.810, 20, 59.1, 0.02
INDEPENDENCE, Inyo, CA07, -118.204, 36.798, 3950, 80.5, 1.00
SAN LUIS OBISPO POLY, San Luis Obispo, CA04, -120.662, 35.306, 308, 68.4, 0.00
BURNEY, Shasta, CA02, -121.655, 40.880, 3198, 69.3, 0.45
IMPERIAL BEACH REAM FIELD NAS, San Diego, CA06, -117.117, 32.568, 24, 70.6, T
CAMPO, San Diego, CA06, -116.470, 32.626, 2630, 72.7, 0.56
EL CENTRO 2 SSW, Imperial, CA07, -115.562, 32.767, -30, 90.7, 0.44
IMPERIAL COUNTY AP, Imperial, CA07, -115.577, 32.835, -55, 91.2, 1.53
EL CENTRO NAF, Imperial, CA07, -115.664, 32.832, -46, 91.4, T
ALPINE, San Diego, CA06, -116.777, 32.836, 1695, 75.9, 0.12
DEEP CANYON LAB, Riverside, CA07, -116.376, 33.651, 1200, M, 0.67
ELSINORE, Riverside, CA06, -117.346, 33.686, 1268, 79.9, 0.66
SANTA ANA JOHN WAYNE AP, Orange, CA06, -117.867, 33.680, 43, 76.7, 0.03
HAYFIELD PUMPING PLANT, Riverside, CA07, -115.629, 33.704, 1370, 87.6, 0.93
IDYLLWILD FIRE DEPT, Riverside, CA06, -116.707, 33.757, 5380, 69.1, 1.52
SAN JACINTO, Riverside, CA06, -116.975, 33.797, 1525, 79.0, 0.21
HEMET, Riverside, CA06, -116.894, 33.738, 1811, 78.8, 0.96
SANTA ANA FIRE STATION, Orange, CA06, -117.867, 33.744, 135, 76.5, 0.03
EAGLE MOUNTAIN, Riverside, CA07, -115.451, 33.809, 973, 89.0, 1.11
PALM SPRINGS, Riverside, CA07, -116.510, 33.828, 425, 92.5, 0.81
LONG BEACH DAUGHERTY AP, Los Angeles, CA06, -118.147, 33.812, 34, 75.5, 0.07
PALOS VERDES ES FC43D, Los Angeles, CA06, -118.391, 33.800, 220, M, 0.08
FULLERTON MUNICIPAL AP, Orange, CA06, -117.986, 33.872, 86, 77.4, 0.10
BEAUMONT #2, Riverside, CA07, -116.990, 33.926, 2591, M, 0.44
MARCH AFB, Riverside, CA06, -117.250, 33.900, 1536, 77.4, 0.57
YORBA LINDA, Orange, CA06, -117.819, 33.890, 350, M, 0.10
HAWTHORNE MUNICIPAL AP, Los Angeles, CA06, -118.333, 33.924, 55, 73.1, 0.04
LOS ANGELES INTL AP, Los Angeles, CA06, -118.387, 33.938, 97, 71.2, 0.03
RIVERSIDE FIRE STATION 3, Riverside, CA06, -117.388, 33.951, 840, 79.6, 0.37
RIVERSIDE MUNICIPAL AP, Riverside, CA06, -117.435, 33.953, 845, 79.4, 0.14
CHINO AP, San Bernardino, CA06, -117.625, 33.976, 636, 77.4, T
WHITTIER CITY YARD FC106C, Los Angeles, CA06, -118.022, 33.976, 446, M, 0.33
CULVER CITY, Los Angeles, CA06, -118.414, 34.005, 92, 72.0, 0.04
SANTA MONICA MUNICIPAL AP, Los Angeles, CA06, -118.447, 34.021, 175, 71.6, 0.03
SANTA MONICA PIER, Los Angeles, CA06, -118.500, 34.008, 14, M, 0.00
ONTARIO INTL AP, San Bernardino, CA06, -117.577, 34.053, 924, 79.6, 0.13
POMONA/FAIRPLEX, Los Angeles, CA06, -117.766, 34.082, 999, 77.9, 0.03
COVINA CITY YARD FC387B, Los Angeles, CA06, -117.880, 34.092, 607, M, 0.00
U C L A, Los Angeles, CA06, -118.443, 34.070, 430, 71.9, 0.02
TOPANGA PATROL FC-6, Los Angeles, CA06, -118.599, 34.084, 745, M, 0.03
IRON MOUNTAIN, San Bernardino, CA07, -115.122, 34.147, 922, 91.4, 3.75
TWENTYNINE PALMS, San Bernardino, CA07, -116.037, 34.128, 1975, 87.3, 0.18
JOSHUA TREE, San Bernardino, CA07, -116.275, 34.147, 2563, 82.2, 0.32
SAN DIMAS FIRE FC 95, Los Angeles, CA06, -117.802, 34.105, 958, M, 0.00
SAN GABRIEL FIRE DEPT, Los Angeles, CA06, -118.100, 34.084, 363, 77.0, 0.00
POINT MUGU NF, Ventura, CA06, -119.123, 34.124, 12, 70.9, T
ALTADENA, Los Angeles, CA06, -118.138, 34.182, 1127, M, 0.02
SAN GABRIEL CANYON PH, Los Angeles, CA06, -117.908, 34.155, 744, 81.1, 0.07
WOODLAND HILLS PIERCE COLLEGE, Los Angeles, CA06, -118.574, 34.182, 790, 78.1, 0.01
LYTLE CREEK R S, San Bernardino, CA06, -117.471, 34.238, 2730, M, 0.00
SAN GABRIEL DAM FC425B-E, Los Angeles, CA06, -117.861, 34.205, 1481, M, 0.53
MT WILSON CBS, Los Angeles, CA06, -118.071, 34.231, 5710, 71.7, 0.12
VAN NUYS AP, Los Angeles, CA06, -118.491, 34.212, 785, 78.5, 0.04
CAMARILLO AP, Ventura, CA06, -119.088, 34.211, 71, 71.8, 0.03
OXNARD VENTURA COUNTY AP, Ventura, CA06, -119.204, 34.200, 39, 67.5, 0.03
PARKER RESRVOIR, San Bernardino, CA07, -114.171, 34.290, 738, 88.3, 2.01
TWENTYNINE PALMS MC, San Bernardino, CA07, -116.147, 34.294, 2003, M, 0.42
BIG BEAR LAKE, San Bernardino, CA06, -116.917, 34.243, 6753, 62.3, 0.39
CHATSWORTH FC 24 F, Los Angeles, CA06, -118.600, 34.250, 950, M, 0.00
CRYSTAL LAKE FC238C, Los Angeles, CA06, -117.842, 34.318, 5345, M, 2.15
BIG TUJUNGA DAM FC46, Los Angeles, CA06, -118.188, 34.295, 2326, M, 0.02
PACOIMA DAM FC33A-E, Los Angeles, CA06, -118.400, 34.329, 1550, M, 0.19
PIRU 2 ESE, Ventura, CA06, -118.757, 34.406, 712, M, 0.00
SANTA BARBARA MUNI AP, Santa Barbara, CA06, -119.842, 34.424, 8, 67.7, T
JUNCAL DAM, Santa Barbara, CA06, -119.507, 34.491, 2260, M, 0.13
VICTORVILLE, San Bernardino, CA07, -117.293, 34.529, 2880, 79.2, 0.04
ACTON ESCONDIDO FC261, Los Angeles, CA06, -118.271, 34.494, 2833, M, 0.00
GIBRALTAR DAM NO. 2, Santa Barbara, CA06, -119.682, 34.523, 1558, 75.0, 0.00
PALMDALE, Los Angeles, CA07, -118.094, 34.588, 2612, 81.0, 0.00
SAUGUS POWER PLANT 1, Los Angeles, CA06, -118.454, 34.590, 2161, 77.7, 0.02
LOS PRIETOS RS, Santa Barbara, CA06, -119.791, 34.544, 1024, M, 0.00
CACHUMA LAKE, Santa Barbara, CA06, -119.982, 34.582, 789, 72.8, 0.00
SALSIPUEDES GAGING STATION, Santa Barbara, CA06, -120.408, 34.585, 254, M, 0.00
PALMDALE AP, Los Angeles, CA07, -118.083, 34.629, 2509, 80.5, 0.04
LOMPOC, Santa Barbara, CA06, -120.451, 34.654, 75, 67.6, 0.00
LANCASTER, Los Angeles, CA06, -118.213, 34.741, 2338, 79.7, 0.03
SANDBERG, Los Angeles, CA06, -118.724, 34.744, 4510, 76.3, 0.16
LEBEC, Kern, CA05, -118.865, 34.833, 3575, 71.8, 0.14
NEW CUYAMA FIRE STATION, Santa Barbara, CA06, -119.683, 34.946, 2160, 74.6, 0.00
TWITCHELL DAM, Santa Barbara, CA06, -120.321, 34.988, 582, 61.4, T
MOJAVE, Kern, CA07, -118.162, 35.049, 2735, 80.9, 0.02
PISMO BEACH, San Luis Obispo, CA04, -120.683, 35.160, 39, 63.2, 0.00
SALINAS DAM, San Luis Obispo, CA04, -120.504, 35.337, 1392, 75.2, 0.00
RANDSBURG, Kern, CA07, -117.652, 35.369, 3570, 80.4, 0.07
SANTA MARGARITA BOOST, San Luis Obispo, CA04, -120.637, 35.374, 1148, 71.2, 0.00
MORRO BAY FIRE DEPT, San Luis Obispo, CA04, -120.845, 35.367, 118, 68.4, 0.00
BAKERSFIELD AP, Kern, CA05, -119.055, 35.434, 490, 85.0, T
BUTTONWILLOW, Kern, CA05, -119.470, 35.403, 225, 80.6, 0.00
LOST HILLS, Kern, CA05, -119.689, 35.618, 288, M, 0.00
GLENNVILLE, Kern, CA05, -118.701, 35.727, 3140, 70.7, 0.13
TRONA, San Bernardino, CA07, -117.391, 35.764, 1695, 86.6, 0.10
DELANO, Kern, CA05, -119.260, 35.768, 302, 82.5, 0.00
BRADLEY TELEMETERING, Monterey, CA04, -120.868, 35.930, 443, M, 0.00
KETTLEMAN CITY, Kings, CA05, -119.960, 36.007, 240, 83.7, 0.00
HAIWEE, Inyo, CA07, -117.953, 36.139, 3825, 75.5, 0.50
CORCORAN IRRIGATION DIST., Kings, CA05, -119.582, 36.098, 200, 81.4, 0.00
COALINGA, Fresno, CA05, -120.361, 36.136, 670, 84.8, 0.00
KING CITY, Monterey, CA04, -121.138, 36.207, 320, 70.9, 0.00
LINDSAY, Tulare, CA05, -119.054, 36.203, 435, 80.4, 0.00
BIG SUR STATION, Monterey, CA04, -121.780, 36.247, 200, 64.2, 0.00
VISALIA, Tulare, CA05, -119.300, 36.328, 303, 80.3, 0.00
FIVE POINTS 5 SSW, Fresno, CA05, -120.156, 36.364, 285, 82.3, 0.00
SAN CLEMENTE DAM, Monterey, CA04, -121.709, 36.438, 600, M, 0.00
ASH MOUNTAIN, Tulare, CA05, -118.825, 36.491, 1708, 83.2, 0.03
THREE RIVERS EDISON PH 1, Tulare, CA05, -118.862, 36.465, 1140, 80.1, 0.00
PINNACLES NATIONAL PARK, San Benito, CA04, -121.182, 36.482, 1307, 72.6, 0.00
CARMEL VALLEY, Monterey, CA04, -121.724, 36.481, 480, 66.1, 0.00
LODGEPOLE, Tulare, CA05, -118.732, 36.604, 6735, 58.0, 0.39
PANOCHE 2 W, San Benito, CA05, -120.884, 36.607, 1400, M, T
MONTEREY, Monterey, CA04, -121.855, 36.593, 122, 62.4, T
SALINAS NO. 2, Monterey, CA04, -121.666, 36.659, 45, 65.8, T
SALINAS AP, Monterey, CA04, -121.609, 36.664, 73, 65.9, T
GRANT GROVE, Tulare, CA05, -118.962, 36.738, 6580, 63.3, 0.00
LOS BANOS ARBURUA RANCH, Merced, CA05, -120.939, 36.875, 843, M, 0.00
HOLLISTER 2, San Benito, CA04, -121.421, 36.848, 275, 67.7, 0.00
BALCH POWER HOUSE, Fresno, CA05, -119.088, 36.909, 1735, 80.1, 0.02
WATSONVILLE WATERWORKS, Santa Cruz, CA04, -121.769, 36.931, 95, 65.9, 0.01
FRIANT GOVERNMENT CAMP, Fresno, CA05, -119.707, 36.997, 410, 80.9, 0.00
MADERA, Madera, CA05, -120.038, 36.954, 270, 79.9, 0.00
WISHON DAM, Fresno, CA05, -118.984, 37.007, 6550, M, 0.00
GILROY, Santa Clara, CA04, -121.561, 37.003, 194, 72.6, 0.00
AUBERRY 2 NW, Fresno, CA05, -119.513, 37.092, 2090, 80.3, 0.00
LOS BANOS, Merced, CA05, -120.867, 37.056, 120, 78.7, 0.00
BEN LOMOND NO. 4, Santa Cruz, CA04, -122.080, 37.086, 420, 69.2, 0.00
MORGAN HILL, Santa Clara, CA04, -121.602, 37.136, 375, M, M
HUNTINGTON LAKE, Fresno, CA05, -119.221, 37.228, 7020, M, 0.04
NORTH FORK RS, Madera, CA05, -119.510, 37.233, 2645, 73.4, 0.00
RAYMOND, Madera, CA05, -119.909, 37.210, 919, M, 0.00
LOS GATOS, Santa Clara, CA04, -121.959, 37.232, 365, 71.3, 0.00
NEWMAN, Stanislaus, CA05, -121.018, 37.281, 90, 81.5, 0.00
MOUNT HAMILTON, Santa Clara, CA04, -121.635, 37.343, 4220, 71.1, 0.00
BISHOP AIRPORT, Inyo, CA07, -118.359, 37.371, 4110, 74.4, 0.20
MOFFETT FEDERAL AIRFIELD, Santa Clara, CA04, -122.048, 37.406, 39, 68.9, T
WOODSIDE FIRE STATION 1, San Mateo, CA04, -122.256, 37.429, 380, 71.8, 0.01
TURLOCK #2, Stanislaus, CA05, -120.846, 37.502, 103, 77.1, 0.00
PALO ALTO, Santa Clara, CA04, -122.140, 37.444, 25, 68.2, 0.00
REDWOOD CITY, San Mateo, CA04, -122.239, 37.477, 31, 70.2, 0.00
HALF MOON BAY, San Mateo, CA04, -122.443, 37.473, 27, 63.2, 0.11
SO ENTRANCE YOSEMITE N.P., Mariposa, CA05, -119.633, 37.512, 5047, 66.1, 0.09
MARIPOSA R S, Mariposa, CA05, -119.986, 37.495, 2100, M, 0.01
NEWARK, Alameda, CA04, -122.032, 37.515, 10, 68.1, 0.01
EXCHEQUER DAM, Mariposa, CA05, -120.267, 37.585, 442, M, 0.03
MODESTO AP, Stanislaus, CA05, -120.955, 37.625, 87, 77.7, 0.00
HAYWARD AIR TERMINAL, Alameda, CA04, -122.121, 37.659, 31, 69.3, T
TRACY CARBONA, San Joaquin, CA05, -121.347, 37.682, 135, 74.4, 0.00
LIVERMORE MUNICIPAL AP, Alameda, CA04, -121.815, 37.693, 393, 73.4, 0.00
OAKLAND INTERNATIONAL AIRPORT, Alameda, CA04, -122.233, 37.718, 5, 66.7, T
UPPER SAN LEANDRO FILTERS, Alameda, CA04, -122.167, 37.772, 394, M, 0.01
SAN FRANCISCO DOWNTOWN, San Francisco, CA04, -122.427, 37.771, 150, 62.9, 0.01
SAN FRANCISCO OCEANSIDE, San Francisco, CA04, -122.505, 37.728, 8, 61.1, 0.00
GROVELAND 2, Tuolumne, CA05, -120.226, 37.844, 2800, 73.6, 0.02
TRACY PUMPING PLANT, Alameda, CA05, -121.583, 37.796, 61, 77.4, 0.00
OAKLAND MUSEUM, Alameda, CA04, -122.264, 37.798, 30, 66.3, 0.00
TUOLUMNE MEADOWS R.S., Tuolumne, CA05, -119.344, 37.877, 8694, 52.3, 0.80
MOUNT DIABLO JUNCTION, Contra Costa, CA04, -121.930, 37.879, 2170, 71.0, 0.01
STOCKTON AP, San Joaquin, CA05, -121.226, 37.890, 27, 76.4, 0.00
RICHMOND, Contra Costa, CA04, -122.377, 37.919, 20, 64.9, 0.00
MUIR WOODS, Marin, CA01, -122.569, 37.898, 220, 64.2, 0.00
HETCH HETCHY, Tuolumne, CA05, -119.783, 37.961, 3870, 73.0, 0.01
CHERRY VALLEY DAM, Tuolumne, CA05, -119.916, 37.975, 4765, 72.5, 0.09
SONORA, Tuolumne, CA05, -120.387, 37.967, 1675, 74.2, 0.00
ANTIOCH PUMPING PLANT #3, Contra Costa, CA05, -121.752, 37.983, 60, 74.1, 0.01
CONCORD BUCHANAN FIELD, Contra Costa, CA04, -122.053, 37.992, 23, 72.4, 0.09
CONCORD WASTEWATER PLANT, Contra Costa, CA04, -122.069, 37.983, 40, 73.3, 0.07
SAN RAFAEL-CIVIC CENTER, Marin, CA01, -122.537, 37.998, 120, 69.0, 0.00
KENTFIELD, Marin, CA01, -122.545, 37.957, 145, 68.6, 0.00
MARTINEZ WATER PLANT, Contra Costa, CA04, -122.114, 38.013, 40, 67.3, 0.11
SAN ANDREAS 2, Calaveras, CA05, -120.671, 38.191, 1100, 77.5, T
BODIE CALIFORNIA STATE HISTORIC PARK, Mono, CA03, -119.014, 38.212, 8370, 53.8, 0.17
ACAMPO 5NE, San Joaquin, CA05, -121.201, 38.218, 87, M, 0.00
NAPA COUNTY AIRPORT, Napa, CA04, -122.280, 38.208, 16, 65.8, 0.07
BRIDGEPORT, Mono, CA03, -119.229, 38.258, 6470, 60.4, 1.20
CALAVERAS BIG TREES, Calaveras, CA05, -120.311, 38.277, 4695, 68.1, 0.03
CAMP PARDEE, Calaveras, CA05, -120.843, 38.249, 658, M, 0.00
TRAVIS FIELD AFB, Solano, CA02, -121.933, 38.267, 62, 73.5, 0.01
FAIRFIELD, Solano, CA02, -122.068, 38.274, 40, 73.0, 0.05
SONOMA, Sonoma, CA01, -122.462, 38.299, 97, 69.2, 0.03
SUTTER HILL CDF, Amador, CA05, -120.801, 38.377, 1586, 75.8, 0.00
WEST POINT, Calaveras, CA05, -120.545, 38.378, 2775, M, 0.01
ATLAS ROAD BROWN, Napa, CA01, -122.248, 38.427, 1680, M, 0.00
GRATON, Sonoma, CA01, -122.865, 38.431, 200, 67.2, 0.07
OCCIDENTAL, Sonoma, CA01, -122.966, 38.386, 865, 65.9, 0.15
FIDDLETOWN DEXTER RCH, Amador, CA05, -120.698, 38.525, 2170, M, 0.00
SACRAMENTO AP ASOS, Sacramento, CA02, -121.496, 38.507, 19, 75.2, T
WINTERS, Yolo, CA02, -121.978, 38.525, 135, 77.6, 0.04
LAKE SOLANO, Solano, CA02, -122.004, 38.492, 187, 76.2, 0.00
SAINT HELENA, Napa, CA01, -122.471, 38.507, 225, 72.0, 0.01
SAINT HELENA 4 WSW, Napa, CA01, -122.538, 38.493, 1780, M, 0.00
FORT ROSS, Sonoma, CA01, -123.245, 38.515, 112, 60.2, 0.11
SACRAMENTO 5 ESE, Sacramento, CA02, -121.418, 38.555, 38, 77.0, 0.00
ANGWIN PACIFIC UNION COLLEGE, Napa, CA01, -122.440, 38.573, 1715, 68.5, 0.01
CALISTOGA, Napa, CA01, -122.578, 38.577, 350, 71.3, 0.08
VENADO, Sonoma, CA01, -123.018, 38.609, 1260, M, 0.00
WOODLAND 1 WNW, Yolo, CA02, -121.794, 38.683, 67, 77.6, 0.05
SACRAMENTO METROPOLITAN AP, Sacramento, CA02, -121.595, 38.701, 24, 75.2, 0.04
PACIFIC HOUSE, El Dorado, CA02, -120.503, 38.758, 3450, 70.7, T
MIDDLETOWN, Lake, CA02, -122.626, 38.748, 1121, M, T
CLOVERDALE, Sonoma, CA01, -123.026, 38.793, 400, 73.8, 0.03
KELSEY 1 N, El Dorado, CA02, -120.821, 38.809, 2000, M, 0.10
SOUTH LAKE TAHOE AP, El Dorado, CA03, -119.996, 38.898, 6257, 62.2, 1.69
GEORGETOWN RS, El Dorado, CA02, -120.801, 38.933, 3001, 76.7, T
AUBURN, Placer, CA02, -121.084, 38.907, 1292, 76.8, 0.00
NICOLAUS #2, Sutter, CA02, -121.545, 38.926, 43, M, 0.00
YORKVILLE, Mendocino, CA01, -123.231, 38.905, 1100, M, 0.00
CLEARLAKE 4 SE, Lake, CA02, -122.567, 38.924, 1349, 75.2, 0.00
FORESTHILL RANGER STATION, Placer, CA02, -120.845, 39.010, 3015, M, 0.03
HELL HOLE, Placer, CA02, -120.415, 39.058, 4850, M, 0.01
MARYSVILLE AIRPORT (ASOS), Yuba, CA02, -121.569, 39.102, 62, 76.9, 0.01
UKIAH MUNICIPAL AP, Mendocino, CA01, -123.200, 39.128, 603, 74.6, 0.01
UKIAH 4 WSW, Mendocino, CA01, -123.272, 39.127, 1328, M, 0.04
GOLD RUN 4 SW, Placer, CA02, -120.900, 39.150, 3220, M, 0.15
WILLIAMS, Colusa, CA02, -122.150, 39.150, 85, M, 0.00
GRASS VALLEY NO. 2, Nevada, CA02, -121.068, 39.204, 2400, 72.9, 0.06
HARRY L. ENGLEBRIGHT DAM, Nevada, CA02, -121.267, 39.237, 800, M, 0.01
COLUSA 2 SSW, Colusa, CA02, -122.027, 39.188, 50, 75.3, 0.13
BLUE CANYON NYACK AP, Placer, CA02, -120.709, 39.276, 5286, 68.6, 0.61
NEVADA CITY, Nevada, CA02, -121.001, 39.247, 2781, 73.5, 0.12
TRUCKEE AIRPORT, Nevada, CA03, -120.139, 39.320, 5900, 62.5, 1.02
DONNER MEMORIAL ST PARK, Nevada, CA03, -120.233, 39.324, 5937, 61.5, 1.63
COLGATE POWERHOUSE, Yuba, CA02, -121.192, 39.331, 595, M, 0.05
MOULTON WEIR, Colusa, CA02, -122.017, 39.333, 76, M, 0.12
BOCA, Nevada, CA03, -120.094, 39.389, 5575, 60.8, 0.97
POTTER VALLEY POWERHOUSE, Mendocino, CA01, -123.129, 39.362, 1018, 74.7, 0.04
FARAD, Nevada, CA03, -120.033, 39.428, 5153, M, 1.20
BOWMAN DAM, Nevada, CA02, -120.656, 39.454, 5385, 66.9, 1.41
OROVILLE, Butte, CA02, -121.553, 39.518, 171, 77.0, 0.35
OROVILLE MUNICIPAL AP, Butte, CA02, -121.622, 39.494, 187, 78.8, 0.21
SIERRAVILLE RS, Sierra, CA02, -120.370, 39.583, 4975, 64.2, 2.43
DOWNIEVILLE, Sierra, CA02, -120.824, 39.563, 2915, 69.3, 0.95
STRAWBERRY VALLEY, Yuba, CA02, -121.108, 39.563, 3808, 68.1, 0.87
STONY GORGE RESERVOIR, Glenn, CA02, -122.534, 39.586, 800, 77.6, 0.21
BRUSH CREEK RANGER STATION, Butte, CA02, -121.345, 39.695, 3560, M, 0.63
PARADISE, Butte, CA02, -121.624, 39.754, 1750, 77.6, 0.68
VINTON, Plumas, CA02, -120.186, 39.806, 4950, 64.4, 1.50
PORTOLA, Plumas, CA02, -120.472, 39.805, 4850, 64.2, 1.05
DE SABLA, Butte, CA02, -121.611, 39.872, 2710, 74.3, 1.08
LEGGETT, Mendocino, CA01, -123.720, 39.874, 703, M, 0.00
BUCKS CREEK, Plumas, CA02, -121.315, 39.937, 1891, M, 0.98
DOYLE, Lassen, CA03, -120.105, 40.027, 4293, M, 1.38
CANYON DAM, Plumas, CA02, -121.089, 40.171, 4560, 67.2, 1.09
MIRANDA 4 SE, Humboldt, CA01, -123.776, 40.182, 266, M, 0.00
FORT SEWARD, Humboldt, CA01, -123.632, 40.218, 220, M, 0.00
HONEYDEW 1 SW, Humboldt, CA01, -124.132, 40.238, 373, M, 0.00
CHESTER, Plumas, CA02, -121.242, 40.303, 4530, 65.5, 0.73
MINERAL, Tehama, CA02, -121.609, 40.346, 4875, 49.8, 0.00
COLEMAN FISHERIES STATION, Shasta, CA02, -122.143, 40.400, 420, M, 0.00
VOLTA PH, Shasta, CA02, -121.866, 40.458, 2220, M, 0.39
SCOTIA, Humboldt, CA01, -124.104, 40.483, 136, 64.3, 0.00
MANZANITA LAKE, Shasta, CA02, -121.577, 40.541, 5750, 62.0, 0.64
WHISKEYTOWN RESERVOIR, Shasta, CA02, -122.528, 40.612, 1295, 80.6, 0.28
SHASTA DAM, Shasta, CA02, -122.416, 40.714, 1075, 81.7, 0.45
TRINITY RIVER HATCHERY, Trinity, CA01, -122.795, 40.726, 1861, 75.0, 0.01
BIG BAR 4 E, Trinity, CA01, -123.208, 40.741, 1253, 75.1, 0.00
BUCKHORN, Shasta, CA02, -121.932, 40.880, 3700, M, 0.44
HAT CREEK, Shasta, CA02, -121.543, 40.932, 3015, 68.6, 0.27
PIT RIVER PH 5, Shasta, CA02, -121.977, 40.987, 1458, M, 0.08
WILLOW CREEK 1 NW, Humboldt, CA01, -123.636, 40.947, 464, 75.9, 0.00
FALL RIVER MILLS, Shasta, CA02, -121.435, 41.008, 3300, M, 0.31
ADIN RANGER STATION, Modoc, CA02, -120.945, 41.193, 4202, M, 0.28
DUNSMUIR TREATMENT PL, Siskiyou, CA02, -122.282, 41.183, 2169, 71.5, 0.18
JESS VALLEY, Modoc, CA02, -120.295, 41.268, 5400, 63.9, 1.25
MCCLOUD, Siskiyou, CA02, -122.138, 41.252, 3233, 69.0, 0.05
ORICK, Humboldt, CA01, -124.067, 41.283, 5, M, 0.00
CALLAHAN, Siskiyou, CA01, -122.825, 41.338, 3085, 66.3, 0.61
SAWYERS BAR RS, Siskiyou, CA01, -123.133, 41.301, 2255, M, 0.00
ORLEANS RS, Humboldt, CA01, -123.534, 41.303, 433, M, 0.00
ALTURAS, Modoc, CA02, -120.544, 41.490, 4378, 67.5, 0.40
FORT JONES RS, Siskiyou, CA01, -122.848, 41.601, 2729, 70.7, 0.01
LAVA BEDS NAT MON, Siskiyou, CA01, -121.501, 41.702, 4770, 69.1, 0.82
MOUNT HEBRON RS, Siskiyou, CA01, -122.045, 41.783, 4265, 65.1, 0.43
CRESCENT CITY MCNAMARA AP, Del Norte, CA01, -124.238, 41.784, 56, 58.1, 0.04
OAK KNOLL W. C., Siskiyou, CA01, -122.850, 41.839, 1980, M, 0.39
FORT BIDWELL, Modoc, CA03, -120.157, 41.872, 4739, 69.2, 0.60
GASQUET RS, Del Norte, CA01, -123.965, 41.845, 387, M, 0.05
FORT DICK RIVER, Del Norte, CA01, -124.135, 41.881, -, M, 0.00
TULELAKE, Siskiyou, CA01, -121.474, 41.960, 4038, 67.1, 0.84
COPCO NO 1 DAM, Siskiyou, CA01, -122.338, 41.980, 2665, 75.6, 0.38
ELK VALLEY, Del Norte, CA01, -123.718, 41.988, 1708, M, 0.24
BARSTOW, San Bernardino, CA07, -117.022, 34.893, 2220, 83.8, 0.78
PEARBLOSSOM, Los Angeles, CA07, -117.897, 34.503, 3101, 79.1, 0.14
EL CAJON, San Diego, CA06, -116.928, 32.801, 495, 77.5, 0.29
MARKLEY COVE, Napa, CA02, -122.124, 38.492, 480, 75.8, 0.00
LORAINE 5 NNE, Kern, CA05, -118.412, 35.384, 4235, 71.4, 0.93
DEL MAR FIRE DEPT, San Diego, CA06, -117.262, 32.972, 12, M, 0.00
LEMON GROVE FIRE DEPARTMENT, San Diego, CA06, -117.030, 32.738, 427, M, 0.06
LEE VINING, Mono, CA07, -119.119, 37.957, 6797, 65.9, 1.01
ANAHEIM, Orange, CA06, -117.842, 33.865, 235, 77.6, 0.07
NEW MELONES DAM HQ, Tuolumne, CA05, -120.486, 38.005, 960, 80.8, 0.01
MAMMOTH LAKES RS, Mono, CA07, -118.962, 37.648, 7804, 62.5, 1.32
FRAZIER PARK 9 SW, Ventura, CA05, -119.104, 34.733, 5169, M, 0.24
MONTEREY WFO, Monterey, CA04, -121.855, 36.593, 122, 63.5, 0.06
SKYLINE RIDGE PRESERVE, San Mateo, CA04, -122.185, 37.313, 2270, 67.9, 0.03
FREMONT, Alameda, CA04, -122.016, 37.542, 38, 68.6, T
MAD RIVER 12 SE, Trinity, CA01, -123.374, 40.319, 2763, M, 0.00
NEWHALL 5NW, Los Angeles, CA06, -118.594, 34.393, 1765, 79.3, T
TEHACHAPI 4 SE, Kern, CA05, -118.422, 35.101, 4220, 70.2, 0.15
WRIGHTWOOD, San Bernardino, CA07, -117.639, 34.362, 6000, M, 0.00
NORTHRIDGE CAL STATE, Los Angeles, CA06, -118.525, 34.245, 904, 77.7, 0.04
OXNARD WFO, Ventura, CA06, -119.137, 34.207, 52, 68.6, 0.03
HANFORD MUNICIPAL AP, Kings, CA05, -119.623, 36.311, 249, 81.2, T
RAMONA AIRPORT, San Diego, CA06, -116.916, 33.038, 1385, 73.8, 0.25
VACAVILLE/NUT TREE AP ASOS, Solano, CA02, -121.959, 38.378, 104, 74.8, T
ALTURAS MUNICIPAL AP, Modoc, CA02, -120.561, 41.484, 4383, 67.2, 0.46
MADERA MUNICIPAL AP, Madera, CA05, -120.111, 36.985, 251, 79.6, T
BAKERSFIELD 5 NW, Kern, CA05, -119.051, 35.419, 470, 85.0, T
FRESNO 5 NE, Fresno, CA05, -119.709, 36.767, 338, 84.5, 0.00
OCEANSIDE MUNICIPAL AP, San Diego, CA06, -117.350, 33.219, 30, 71.9, 0.14
SAN DIEGO SEAWORLD, San Diego, CA06, -117.231, 32.765, 14, M, 0.17
ARCATA EUREKA AP, Humboldt, CA01, -124.105, 40.978, 211, 58.7, 0.00
NEWPORT BEACH HARBOR, Orange, CA06, -117.884, 33.603, 10, 70.8, 0.02
ESCONDIDO NO. 2, San Diego, CA06, -117.090, 33.121, 600, 77.6, 0.11
REDDING AP, Shasta, CA02, -122.298, 40.515, 501, 80.5, 0.12
AVALON CATALINA AP, Los Angeles, CA06, -118.415, 33.404, 1565, 68.7, T
SANTA MARIA PUBLIC AP, Santa Barbara, CA06, -120.452, 34.894, 243, 68.3, T
MOUNT SHASTA, Siskiyou, CA02, -122.333, 41.333, 3535, 69.1, 0.21
RED BLUFF MUNI AP, Tehama, CA02, -122.255, 40.152, 354, 80.5, 0.13
NEEDLES AIRPORT, San Bernardino, CA07, -114.618, 34.768, 888, 92.6, 2.70
CHINA LAKE NAF, Kern, CA07, -117.693, 35.688, 2230, 83.3, 0.08
SUSANVILLE 2SW, Lassen, CA03, -120.663, 40.417, 4212, 69.2, 1.04
TEJON RANCHO, Kern, CA05, -118.750, 35.023, 1425, 83.3, 0.10
BURBANK GLENDALE PASADENA AP, Los Angeles, CA06, -118.365, 34.200, 731, 76.6, 0.04
OAKLAND 7.8 SE, Alameda, CA04, -122.139, 37.764, 395, M, 0.00
PINE GROVE 1.9 SSE, Amador, CA05, -120.641, 38.389, 2714, M, 0.00
CHICO 2.9 W, Butte, CA02, -121.861, 39.749, 190, M, 0.56
CHICO 1.8 SW, Butte, CA02, -121.832, 39.737, 209, M, 0.44
MAGALIA 2.3 SE, Butte, CA02, -121.582, 39.804, 2327, M, 0.84
CHICO 5.5 NW, Butte, CA02, -121.891, 39.800, 191, M, 0.52
MORAGA 2.4 NNW, Contra Costa, CA04, -122.138, 37.870, 748, M, 0.01
SMITH RIVER 1.1 SSE, Del Norte, CA01, -124.136, 41.915, 120, M, 0.29
FORT DICK 0.2 SSW, Del Norte, CA01, -124.151, 41.865, 49, M, 0.16
CLOVIS 1.3 NE, Fresno, CA05, -119.681, 36.833, 375, M, 0.00
FRESNO 2.4 NW, Fresno, CA05, -119.822, 36.805, 319, M, T
SAN FERNANDO 4.2 E, Los Angeles, CA06, -118.363, 34.279, 1239, M, 0.15
SUSANVILLE 3.5 SSW, Lassen, CA03, -120.674, 40.363, 4347, M, 0.93
SUSANVILLE 0.6 WSW, Lassen, CA03, -120.660, 40.407, 4220, M, 0.59
AHWAHNEE 2.5 NNW, Madera, CA05, -119.738, 37.400, 2840, M, 0.02
ALBION 4.0 SE, Mendocino, CA01, -123.710, 39.188, 636, M, 0.16
LAYTONVILLE 9.8 NNW, Mendocino, CA01, -123.534, 39.814, 2078, M, 0.00
FAIRFAX 0.6 SSE, Marin, CA01, -122.591, 37.981, 146, M, 0.00
MONTEREY 1.1 SSW, Monterey, CA04, -121.886, 36.586, 164, M, 0.00
ALTA SIERRA 2.3 WSW, Nevada, CA02, -121.089, 39.106, 1677, M, 0.10
GRASS VALLEY 4.2 SE, Nevada, CA02, -120.993, 39.186, 2784, M, 0.11
GRASS VALLEY 1.3 NNE, Nevada, CA02, -121.046, 39.238, 2782, M, 0.09
GRASS VALLEY 2.7 SW, Nevada, CA02, -121.092, 39.194, 2334, M, 0.07
ORANGE 3.0 ENE, Orange, CA06, -117.778, 33.826, 649, M, 0.08
ROCKLIN 1.1 N, Placer, CA02, -121.244, 38.818, 550, M, 0.09
ROSEVILLE 2.4 SE, Placer, CA02, -121.257, 38.740, 156, M, 0.05
APPLEGATE 0.5 SE, Placer, CA02, -120.986, 38.996, 1983, M, 0.09
SACRAMENTO 4.7 SW, Sacramento, CA02, -121.520, 38.512, 8, M, 0.01
FAIR OAKS 1.9 N, Sacramento, CA02, -121.252, 38.676, 199, M, T
SAN JOSE 5.8 NNE, Santa Clara, CA04, -121.824, 37.386, 293, M, 0.02
ENCINITAS 2.7N, San Diego, CA06, -117.292, 33.076, 188, M, 0.39
CARLSBAD 8.7SE, San Diego, CA06, -117.221, 33.095, 605, M, 0.11
ESCONDIDO 7.2 SE, San Diego, CA06, -116.992, 33.056, 1585, M, 0.11
RAMONA 3ENE, San Diego, CA06, -116.828, 33.051, 2034, M, 0.27
SAN DIEGO 8NE, San Diego, CA06, -117.064, 32.800, 312, M, 0.10
RANCHO BERNARDO 1.9WSW, San Diego, CA06, -117.106, 33.014, 687, M, 0.18
SAN DIEGO 13.9N, San Diego, CA06, -117.163, 32.917, 406, M, 0.24
SAN FRANCISCO 3.0 W, San Francisco, CA04, -122.474, 37.778, 205, M, T
SHINGLETOWN 10.3 ENE, Shasta, CA02, -121.701, 40.532, 4217, M, 0.82
REDDING 3.3 N, Shasta, CA02, -122.376, 40.619, 665, M, 0.13
REDDING 2.8 NW, Shasta, CA02, -122.401, 40.602, 661, M, 0.01
SHINGLETOWN 3.5 ENE, Shasta, CA02, -121.834, 40.519, 3796, M, 0.55
REDDING 1.6 W, Shasta, CA02, -122.395, 40.575, 635, M, 0.39
MOUNT SHASTA 5.1 NW, Siskiyou, CA02, -122.397, 41.364, 3911, M, 0.90
DORRIS 0.2 SW, Siskiyou, CA01, -121.923, 41.963, 4249, M, 0.59
EL GRANADA 0.7 W, San Mateo, CA04, -122.479, 37.509, 78, M, 0.07
CAZADERO 6.9 WNW, Sonoma, CA01, -123.206, 38.565, 645, M, 0.03
CAZADERO 5.6 W, Sonoma, CA01, -123.189, 38.532, 1211, M, 0.03
GUERNEVILLE 2.0 SSW, Sonoma, CA01, -123.005, 38.485, 69, M, 0.06
GLEN ELLEN 1.9 NNW, Sonoma, CA01, -122.551, 38.382, 365, M, 0.03
RANCHO CUCAMONGA 1.6 W, San Bernardino, CA06, -117.598, 34.122, 1379, M, 0.17
BARSTOW 4.2 NE, San Bernardino, CA07, -117.018, 34.924, 2170, M, 1.11
FAWNSKIN 0.3 NE, San Bernardino, CA06, -116.938, 34.271, 7030, M, 1.01
SOQUEL 0.8 NE, Santa Cruz, CA04, -121.936, 37.002, 414, M, 0.01
SANTA CRUZ 3.1 NW, Santa Cruz, CA04, -122.075, 37.006, 969, M, 0.00
RED BLUFF 6.0 W, Tehama, CA02, -122.352, 40.159, 418, M, 0.05
RED BLUFF 2.3 N, Tehama, CA02, -122.235, 40.207, 428, M, 0.08
RED BLUFF 7.2 WNW, Tehama, CA02, -122.360, 40.224, 557, M, 0.02
RED BLUFF 1.1 S, Tehama, CA02, -122.236, 40.158, 323, M, 0.08
RED BLUFF 5.1 NNW, Tehama, CA02, -122.281, 40.242, 497, M, 0.08
COTTONWOOD 9.1 SW, Tehama, CA02, -122.378, 40.282, 639, M, 0.10
COTTONWOOD 3.6 SSW, Tehama, CA02, -122.302, 40.341, 554, M, 0.10
WATSONVILLE MUNICIPAL AIRPORT, Santa Cruz, CA04, -121.790, 36.939, 162, 67.2, T
SANTA ROSA SONOMA CO AP, Sonoma, CA04, -122.811, 38.504, 119, 67.8, T
COARSEGOLD 4SE, Madera, CA05, -119.690, 37.212, 2218, M, 0.00
TWENTYNINE PALMS 12E - WONDER VALLEY, San Bernardino, CA07, -115.850, 34.121, 1376, 88.9, 0.16
MORONGO VALLEY NORTH, San Bernardino, CA07, -116.562, 34.086, 3145, 79.0, 1.51
SHAFTER 6E, Kern, CA05, -119.146, 35.487, 404, 80.8, 0.00
TRUCKEE-TAHOE AP, Nevada, CA03, -120.145, 39.318, 5900, 62.5, 1.02
HEARST CASTLE, San Luis Obispo, CA04, -121.168, 35.684, 1526, 65.5, 0.00
GETTY CENTER, Los Angeles, CA06, -118.479, 34.087, 1117, 72.2, 0.00
HESPERIA 2E, San Bernardino, CA07, -117.266, 34.421, 3055, 78.9, 0.15
RANCHO BERNARDO, San Diego, CA06, -117.081, 33.022, 690, 74.4, 0.14
APPLE VALLEY #2, San Bernardino, CA07, -117.279, 34.536, 2780, M, 0.06
OCOTILLO WELLS 2W, San Diego, CA07, -116.169, 33.155, 390, 91.9, 0.56
IRVINE RANCH, Orange, CA06, -117.723, 33.720, 540, 77.1, 0.05
MT. LAGUNA #3, San Diego, CA07, -116.419, 32.867, 5920, 67.9, 1.38
AVALON INLAND, Los Angeles, CA06, -118.330, 33.338, 90, 66.8, 0.00
TORRANCE AP, Los Angeles, CA06, -118.342, 33.802, 90, 71.6, 0.05
MERCED 23 WSW, Merced, CA05, -120.882, 37.238, 78, 74.4, 0.00
REDDING 12 WNW, Shasta, CA02, -122.607, 40.651, 1418, 78.3, 0.51
STOVEPIPE WELLS 1 SW, Inyo, CA07, -117.145, 36.602, 84, 97.1, 0.13
RED BLUFF 2.8 N, Tehama, CA02, -122.243, 40.215, 406, M, 0.08
COTTONWOOD 6.7 SSW, Tehama, CA02, -122.347, 40.307, 585, M, 0.07
LOS ANGELES DOWNTOWN/USC, Los Angeles, CA06, -118.291, 34.024, 179, 75.3, 0.04
FRESNO YOSEMITE INT'L, Fresno, CA05, -119.720, 36.780, 334, 84.4, T
MONTEREY PENINSUL AP, Monterey, CA04, -121.849, 36.590, 160, 63.7, 0.04
PASO ROBLES MUNICIPAL AP, San Luis Obispo, CA04, -120.629, 35.669, 820, 73.7, 0.00
MONTAGUE SISKIYOU AIRPORT, Siskiyou, CA01, -122.468, 41.774, 2645, 73.7, T
SAN JOSE, Santa Clara, CA04, -121.924, 37.359, 49, 69.5, T
PALM SPRINGS ASOS, Riverside, CA07, -116.504, 33.822, 409, 91.4, 0.88
FILLMORE 2 W, Ventura, CA06, -118.945, 34.409, 495, M, 0.01
SAN DIEGO BROWN FIELD, San Diego, CA06, -116.994, 32.576, 521, 73.0, 0.02
Bakersfield Area, -, -, -, -, -, 85.0, T
Bishop Area, -, -, -, -, -, 74.4, 0.20
Los Angeles Downtown Area, -, -, -, -, -, 75.3, 0.04
Eureka Area, -, -, -, -, -, 59.1, 0.02
Fresno Area, -, -, -, -, -, 84.4, T
Los Angeles Airport Area, -, -, -, -, -, 71.2, 0.03
Long Beach Area, -, -, -, -, -, 75.5, 0.07
Redding Area, -, -, -, -, -, 80.5, 0.12
Sacramento Area, -, -, -, -, -, 75.2, T
San Diego Area, -, -, -, -, -, 73.8, 0.08
Stockton Area, -, -, -, -, -, 76.4, 0.00
San Francisco Airport Area, -, -, -, -, -, 67.0, T
Santa Maria Area, -, -, -, -, -, 68.3, T
CAMP PENDLETON MCAS, San Diego, CA06, -117.355, 33.304, 70, 72.0, 0.00
LEMOORE REEVES NAS, Fresno, CA05, -119.950, 36.333, 232, 81.0, T
RED BLUFF 6.2 NW, Tehama, CA02, -122.334, 40.228, 474, M, 0.00
COTTONWOOD 3.9 SW, Tehama, CA02, -122.342, 40.358, 447, M, 0.09
DAVIS 2.4 W, Yolo, CA02, -121.780, 38.559, 53, M, T
ARVIN, Kern, CA05, -118.834, 35.211, 450, 83.2, 0.00
CHIRIACO SUMMIT, Riverside, CA07, -115.721, 33.662, 1706, 85.3, 0.64
EDWARDS AFB NORTH AUXILIARY AIRFIELD, Kern, CA07, -117.865, 34.988, 2283, 80.5, T
FALLBROOK 5 NE, San Diego, CA06, -117.190, 33.439, 1140, 75.7, 1.03
SANTA BARBARA 11 W, Santa Barbara, CA06, -119.880, 34.414, 18, 65.3, 0.01
BODEGA 6 WSW, Sonoma, CA01, -123.075, 38.321, 63, 60.7, 0.28
YOSEMITE VILLAGE 12 W, Mariposa, CA05, -119.821, 37.759, 6620, 66.3, 0.00
YUCCA MESA, San Bernardino, CA07, -116.407, 34.218, 3445, 80.9, 0.82
YUCCA VALLEY, San Bernardino, CA07, -116.388, 34.129, 3249, 79.6, 0.23
JOHNSON VALLEY, San Bernardino, CA07, -116.538, 34.359, 3167, 80.0, 0.26
REDONDO BEACH, Los Angeles, CA06, -118.376, 33.834, 142, 70.2, 0.06
FRESNO 3NW, Madera, CA05, -119.801, 36.909, 380, M, 0.00
BURBANK VALLEY PUMP PLANT, Los Angeles, CA06, -118.348, 34.187, 655, 75.8, 0.20
PIEDMONT 1.0 SE, Alameda, CA04, -122.216, 37.812, 372, M, 0.00
CASTRO VALLEY 0.4 NNE, Alameda, CA04, -122.059, 37.717, 536, M, 0.03
PLEASANTON 1.8 SSE, Alameda, CA04, -121.875, 37.648, 351, M, 0.00
FREMONT 2.6 ESE, Alameda, CA04, -121.952, 37.515, 30, M, 0.02
PLEASANTON 0.4 ESE, Alameda, CA04, -121.881, 37.670, 344, M, 0.00
VOLCANO 5.4 NE, Amador, CA05, -120.560, 38.497, 3488, M, 0.10
VOLCANO 6.4 NE, Amador, CA05, -120.536, 38.499, 3659, M, 0.13
OROVILLE 2.7 ENE, Butte, CA02, -121.518, 39.514, 535, M, 0.28
MARTINEZ 0.8 SSE, Contra Costa, CA04, -122.108, 37.990, 252, M, 0.10
WALNUT CREEK 1.7 SSE, Contra Costa, CA04, -122.034, 37.878, 243, M, 0.03
LAFAYETTE 0.7 E, Contra Costa, CA04, -122.104, 37.894, 248, M, 0.01
LAFAYETTE 1.9 WSW, Contra Costa, CA04, -122.153, 37.888, 518, M, 0.02
MARTINEZ 2.2 SW, Contra Costa, CA04, -122.138, 37.974, 692, M, 0.14
ANTIOCH 2.2 WSW, Contra Costa, CA05, -121.838, 37.979, 178, M, 0.02
CONCORD 0.8 WNW, Contra Costa, CA04, -122.013, 37.978, 124, M, 0.00
WALNUT CREEK 1.4 SSE, Contra Costa, CA04, -122.028, 37.885, 277, M, 0.03
ANTIOCH 2.2 SSE, Contra Costa, CA05, -121.781, 37.959, 245, M, 0.02
WALLACE 0.3 NE, Calaveras, CA05, -120.973, 38.197, 298, M, 0.00
CRESCENT CITY 5.5 NNE, Del Norte, CA01, -124.148, 41.824, 65, M, 0.16
PLACERVILLE 3.7 SW, El Dorado, CA02, -120.849, 38.695, 1755, M, 0.05
PLACERVILLE 0.9 NE, El Dorado, CA02, -120.785, 38.739, 2036, M, 0.09
CLOVIS 2.9 N, Fresno, CA05, -119.693, 36.861, 382, M, T
TOLLHOUSE 2.0 SSE, Fresno, CA05, -119.397, 36.990, 1673, M, 0.00
TOLLHOUSE 6.2 SSE, Fresno, CA05, -119.359, 36.934, 1397, M, T
FRESNO 4.3 NNW, Fresno, CA05, -119.829, 36.836, 333, M, T
HELM 2.7 NNE, Fresno, CA05, -120.089, 36.570, 183, M, 0.01
ARCATA 1.1 NE, Humboldt, CA01, -124.069, 40.881, 420, M, 0.00
BAYSIDE 1.8 SE, Humboldt, CA01, -124.038, 40.825, 77, M, T
ORICK 5.9 SSW, Humboldt, CA01, -124.103, 41.208, 567, M, 0.02
MCKINLEYVILLE 2.7 SE, Humboldt, CA01, -124.084, 40.923, 325, M, 0.03
MCKINLEYVILLE 7.3 ESE, Humboldt, CA01, -123.998, 40.896, 366, M, T
TRINIDAD 1.5 NNW, Humboldt, CA01, -124.152, 41.078, 201, M, 0.13
MCKINLEYVILLE 2.3 NE, Humboldt, CA01, -124.086, 40.978, 270, M, 0.08
REDWAY 4.8 WNW, Humboldt, CA01, -123.906, 40.139, 1820, M, 0.00
MIRANDA 4.1 SW, Humboldt, CA01, -123.894, 40.209, 539, M, 0.00
BAYVIEW 0.8 SE, Humboldt, CA01, -124.166, 40.756, 176, M, 0.05
ARCATA 1.4 NNE, Humboldt, CA01, -124.072, 40.887, 289, M, 0.00
WILLOW CREEK 4.5 NNE, Humboldt, CA01, -123.624, 40.939, 655, M, 0.00
BRIDGEVILLE 5.2 ENE, Humboldt, CA01, -123.701, 40.473, 2675, M, 0.01
FORTUNA 0.1 NW, Humboldt, CA01, -124.141, 40.587, 65, M, 0.05
GARBERVILLE 2.2 SW, Humboldt, CA01, -123.824, 40.077, 415, M, 0.00
EUREKA 2.2 S, Humboldt, CA01, -124.148, 40.764, 194, M, 0.12
BISHOP 0.6 SE, Inyo, CA07, -118.388, 37.363, 4140, M, 0.20
BISHOP 8.5 WSW, Inyo, CA07, -118.540, 37.323, 6002, M, 0.50
BISHOP 1.7 NW, Inyo, CA07, -118.414, 37.388, 4181, M, 0.00
LEMOORE 0.9 ESE, Kings, CA05, -119.772, 36.293, 223, M, 0.00
LEMOORE 0.3 SW, Kings, CA05, -119.791, 36.295, 223, M, 0.00
HANFORD 3.6 N, Kings, CA05, -119.653, 36.377, 258, M, 0.00
HANFORD 1.7 WNW, Kings, CA05, -119.674, 36.335, 245, M, T
INYOKERN 9.4 WSW, Kern, CA07, -117.978, 35.635, 4319, M, 0.15
CALIFORNIA CITY 11.9 WSW, Kern, CA07, -118.016, 35.148, 2435, M, 0.00
FRAZIER PARK 0.6 WNW, Kern, CA05, -118.955, 34.827, 5023, M, 0.37
ONYX 2.8 ENE, Kern, CA05, -118.174, 35.702, 3039, M, 0.16
GLENDALE 2.4 WSW, Los Angeles, CA06, -118.295, 34.169, 511, M, 0.04
TORRANCE 2.8 SW, Los Angeles, CA06, -118.337, 33.790, 200, M, 0.11
ALTADENA 0.7 ESE, Los Angeles, CA06, -118.124, 34.187, 1323, M, 0.02
MONTE NIDO 0.2 SSW, Los Angeles, CA06, -118.687, 34.079, 682, M, 0.20
SHERMAN OAKS 1.7 ENE, Los Angeles, CA06, -118.420, 34.154, 638, M, 0.05
WHITTIER 2.9 WNW, Los Angeles, CA06, -118.066, 33.986, 171, M, 0.07
REDONDO BEACH 2.6 S, Los Angeles, CA06, -118.377, 33.819, 117, M, 0.05
CANYON COUNTRY 2.6 E, Los Angeles, CA06, -118.427, 34.427, 1617, M, 0.27
ARCADIA 2.1 NNE, Los Angeles, CA06, -118.028, 34.162, 652, M, 0.04
LAKEPORT 4.5 N, Lake, CA02, -122.909, 39.107, 1437, M, 0.02
LOWER LAKE 4.0 SE, Lake, CA02, -122.564, 38.865, 1585, M, 0.00
SUSANVILLE 3.2 SSW, Lassen, CA03, -120.674, 40.368, 4353, M, 0.98
OAKHURST 7.5 N, Madera, CA05, -119.632, 37.442, 4274, M, 0.05
UKIAH 8.4 NW, Mendocino, CA01, -123.331, 39.221, 2492, M, 0.01
BOONVILLE 2.2 WSW, Mendocino, CA01, -123.408, 39.006, 1061, M, 0.04
ELK 1.8 NNE, Mendocino, CA01, -123.706, 39.105, 147, M, 0.19
UKIAH 0.6 ESE, Mendocino, CA01, -123.199, 39.141, 601, M, 0.03
REDWOOD VALLEY 1.5 ENE, Mendocino, CA01, -123.178, 39.272, 912, M, 0.03
UKIAH 4.3 S, Mendocino, CA01, -123.219, 39.083, 691, M, 0.02
LAYTONVILLE 1.1 SW, Mendocino, CA01, -123.490, 39.672, 1647, M, T
LEE VINING 5.9 NW, Mono, CA03, -119.170, 38.034, 7094, M, 1.16
MARIPOSA 3.7 NNW, Mariposa, CA05, -119.988, 37.540, 2942, M, T
MARIPOSA 12.5 E, Mariposa, CA05, -119.742, 37.461, 2952, M, 0.04
LA GRANGE 7.8 ESE, Mariposa, CA05, -120.327, 37.635, 1114, M, 0.01
SAN ANSELMO 1.2 NNW, Marin, CA01, -122.580, 37.997, 370, M, 0.00
SAN ANSELMO 0.4 NE, Marin, CA01, -122.564, 37.987, 107, M, T
PETALUMA 10.1 W, Marin, CA01, -122.812, 38.248, 119, M, 0.03
TOMALES 1.3 ENE, Marin, CA01, -122.883, 38.251, 128, M, 0.07
SAN RAFAEL 3.9 NW, Marin, CA01, -122.547, 38.027, 72, M, 0.00
MILL VALLEY 1.5 S, Marin, CA01, -122.544, 37.886, 209, M, T
LOCKWOOD 3.6 NW, Monterey, CA04, -121.117, 35.981, 1181, M, 0.00
KING CITY 13.2 S, Monterey, CA04, -121.174, 36.025, 1104, M, 0.00
CASTROVILLE 1.6 ENE, Monterey, CA04, -121.728, 36.776, 18, M, 0.02
KING CITY 2.0 SSW, Monterey, CA04, -121.146, 36.187, 371, M, 0.00
CASTROVILLE 1.6 ENE, Monterey, CA04, -121.727, 36.777, 17, M, 0.03
BIG SUR 9.5 NNW, Monterey, CA04, -121.869, 36.398, 1100, M, 0.01
CALISTOGA 0.4 SSE, Napa, CA01, -122.578, 38.576, 348, M, T
NEVADA CITY 3.4 NNW, Nevada, CA02, -121.040, 39.307, 2390, M, 0.13
GRASS VALLEY 5.0 S, Nevada, CA02, -121.042, 39.149, 2312, M, 0.00
ALTA SIERRA 1.3 S, Nevada, CA02, -121.057, 39.104, 2154, M, 0.12
LAKE OF THE PINES 1.0 WSW, Nevada, CA02, -121.077, 39.032, 1576, M, 0.14
ALTA SIERRA 0.4 WSW, Nevada, CA02, -121.060, 39.120, 2303, M, 0.17
NEVADA CITY 5.4 W, Nevada, CA02, -121.121, 39.268, 1982, M, 0.06
GRASS VALLEY 0.5 NNW, Nevada, CA02, -121.059, 39.229, 2669, M, 0.08
ORANGE 3.5 ENE, Orange, CA06, -117.770, 33.829, 811, M, 0.08
LAGUNA NIGUEL 0.9 W, Orange, CA06, -117.720, 33.528, 477, M, 0.06
SILVERADO 1.0 ESE, Orange, CA06, -117.620, 33.746, 1394, M, 0.14
NEWPORT BEACH 3.1 ESE, Orange, CA06, -117.865, 33.589, 84, M, 0.05
MISSION VIEJO 1.6 ENE, Orange, CA06, -117.627, 33.624, 1018, M, 0.39
MISSION VIEJO 1.3 SSE, Orange, CA06, -117.644, 33.595, 704, M, 0.05
ANAHEIM 4.9 ENE, Orange, CA06, -117.792, 33.863, 298, M, 0.03
SODA SPRINGS 1.5 SSW, Placer, CA02, -120.384, 39.302, 6887, M, 3.04
ROSEVILLE 4.7 WNW, Placer, CA02, -121.377, 38.780, 96, M, 0.06
PENRYN 0.4 SE, Placer, CA02, -121.158, 38.847, 610, M, 0.03
COLFAX 3.1 SW, Placer, CA02, -120.991, 39.061, 2077, M, 0.14
NEWCASTLE 1.6 SSE, Placer, CA02, -121.123, 38.851, 800, M, 0.02
LINCOLN 4.3 SSE, Placer, CA02, -121.284, 38.842, 172, M, 0.13
IDYLLWILD 1.8 NW, Riverside, CA06, -116.735, 33.763, 6325, M, 2.88
HEMET 4.1 ENE, Riverside, CA06, -116.920, 33.753, 1698, M, 1.24
CORONA 12.8 SE, Riverside, CA06, -117.428, 33.731, 1404, M, 0.22
LAKE ELSINORE 3.5 WSW, Riverside, CA06, -117.381, 33.657, 1356, M, 0.65
NORCO 1.2 S, Riverside, CA06, -117.548, 33.908, 661, M, 0.72
PERRIS 8.5 WNW, Riverside, CA06, -117.365, 33.826, 1639, M, 0.37
BEAUMONT 2.5 NW, Riverside, CA06, -117.012, 33.954, 2532, M, 0.68
RIVERSIDE 3.8 NW, Riverside, CA06, -117.454, 33.979, 841, M, 0.45
NORCO 2.3 SE, Riverside, CA06, -117.518, 33.906, 1091, M, 0.56
RIVERSIDE 2.6 E, Riverside, CA06, -117.353, 33.935, 1301, M, 0.52
CARMICHAEL 1.6 SW, Sacramento, CA02, -121.340, 38.617, 102, M, T
SACRAMENTO 8.0 NE, Sacramento, CA02, -121.361, 38.635, 95, M, T
FOLSOM 3.4 ESE, Sacramento, CA05, -121.091, 38.655, 594, M, T
CARMICHAEL 0.9 NE, Sacramento, CA02, -121.306, 38.643, 130, M, T
FOLSOM 1.2 SSE, Sacramento, CA02, -121.140, 38.660, 362, M, T
SACRAMENTO 2.0 SE, Sacramento, CA02, -121.437, 38.550, 34, M, T
FOLSOM 0.6 NE, Sacramento, CA02, -121.138, 38.682, 399, M, 0.01
LA RIVIERA 1.0 NE, Sacramento, CA02, -121.340, 38.575, 64, M, T
GOLETA 3.7 WNW, Santa Barbara, CA06, -119.896, 34.440, 158, M, 0.02
MOUNTAIN VIEW 1.2 S, Santa Clara, CA04, -122.075, 37.385, 109, M, T
SUNNYVALE 1.9 SE, Santa Clara, CA04, -122.004, 37.365, 85, M, 0.01
MONTE SERENO 0.4 SSW, Santa Clara, CA04, -121.990, 37.232, 467, M, 0.01
SAN JOSE 4.6 NE, Santa Clara, CA04, -121.795, 37.354, 318, M, 0.00
LOS ALTOS 0.6 NNW, Santa Clara, CA04, -122.100, 37.378, 156, M, 0.02
CAMBRIAN PARK 2.2 SE, Santa Clara, CA04, -121.897, 37.234, 252, M, 0.02
SAN JOSE 3.5 ENE, Santa Clara, CA04, -121.789, 37.319, 200, M, T
SAN JOSE 2.3 SSW, Santa Clara, CA04, -121.866, 37.273, 161, M, 0.01
SARATOGA 0.5 N, Santa Clara, CA04, -122.023, 37.275, 373, M, 0.01
PALO ALTO 1.2 NE, Santa Clara, CA04, -122.149, 37.452, 32, M, 0.02
SAN JOSE 3.0 WSW, Santa Clara, CA04, -121.927, 37.309, 159, M, 0.01
LOS GATOS 6.1 S, Santa Clara, CA04, -121.972, 37.143, 1732, M, T
SAN JOSE 6.2 W, Santa Clara, CA04, -121.961, 37.319, 139, M, T
LOS GATOS 5.4 SSW, Santa Clara, CA04, -121.988, 37.156, 1662, M, 0.00
SAN MARCOS 2.5 ENE, San Diego, CA06, -117.132, 33.147, 666, M, 0.11
IMPERIAL BEACH 3.3 E, San Diego, CA06, -117.062, 32.574, 138, M, 0.05
OCEANSIDE 8.4NE, San Diego, CA06, -117.266, 33.270, 252, M, 0.25
EL CAJON 2.3ENE, San Diego, CA06, -116.925, 32.811, 610, M, 0.35
ENCINITAS 3.34ENE, San Diego, CA06, -117.237, 33.050, 193, M, 0.23
ESCONDIDO 5.2NNW, San Diego, CA06, -117.128, 33.185, 1474, M, 0.38
EL CAJON 1.5WSW, San Diego, CA06, -116.987, 32.791, 727, M, 0.14
ESCONDIDO 2.5 SSE, San Diego, CA06, -117.048, 33.106, 690, M, 0.10
POWAY 3.2NE, San Diego, CA06, -117.004, 32.996, 1206, M, 0.13
JAMUL 9.9ESE, San Diego, CA06, -116.706, 32.680, 2737, M, 2.09
BORREGO SPRINGS 2.4 WSW, San Diego, CA07, -116.390, 33.223, 777, M, 0.06
LA JOLLA 2.5SE, San Diego, CA06, -117.240, 32.825, 508, M, 0.15
CHULA VISTA 6.3E, San Diego, CA06, -116.975, 32.638, 555, M, 0.06
OCEANSIDE 5.6NE, San Diego, CA06, -117.313, 33.254, 60, M, 0.19
POWAY 1.4SW, San Diego, CA06, -117.059, 32.949, 444, M, 0.18
CARDIFF BY THE SEA 0.2 E, San Diego, CA06, -117.271, 33.027, 266, M, 0.18
CHULA VISTA 2.5SE, San Diego, CA06, -117.052, 32.617, 266, M, 0.07
PAUMA VALLEY 1.7 SE, San Diego, CA06, -116.957, 33.290, 1132, M, 0.23
FALLBROOK 6.5 NE, San Diego, CA06, -117.160, 33.436, 1377, M, 0.88
SAN DIEGO 3.5NE, San Diego, CA06, -117.110, 32.747, 344, M, 0.04
SANTEE 1.8NW, San Diego, CA06, -116.996, 32.856, 470, M, 0.25
SAN DIEGO 7.9NE, San Diego, CA06, -117.073, 32.806, 242, M, 0.08
LA JOLLA 2.1 SE, San Diego, CA06, -117.250, 32.826, 491, M, 0.20
RANCHO BERNARDO 0.5SE, San Diego, CA06, -117.067, 33.018, 483, M, 0.13
VISTA 1.5NNW, San Diego, CA06, -117.254, 33.219, 417, M, 0.19
EL CAJON 2.3 S, San Diego, CA06, -116.959, 32.770, 738, M, 0.10
SAN DIEGO 9NE, San Diego, CA06, -117.059, 32.817, 292, M, 0.09
POWAY 4.7NNW, San Diego, CA06, -117.047, 33.026, 739, M, 0.11
SAN DIEGO COUNTRY ESTATES 1.5 WNW, San Diego, CA06, -116.807, 33.016, 1474, M, 1.72
SAN FRANCISCO 2.8 WNW, San Francisco, CA04, -122.470, 37.783, 173, M, T
SAN FRANCISCO 1.1 SW, San Francisco, CA04, -122.435, 37.765, 194, M, 0.01
COTTONWOOD 0.5 NNE, Shasta, CA02, -122.276, 40.397, 452, M, 0.12
SHINGLETOWN 5.3 ENE, Shasta, CA02, -121.796, 40.524, 3964, M, 0.62
REDDING 2.7 NNW, Shasta, CA02, -122.380, 40.610, 708, M, 0.00
REDDING 7.9 NNE, Shasta, CA02, -122.291, 40.672, 681, M, 0.07
REDDING 3.7 N, Shasta, CA02, -122.358, 40.626, 618, M, 0.10
REDDING 3.6 N, Shasta, CA02, -122.354, 40.623, 604, M, 0.17
REDDING 0.6 NW, Shasta, CA02, -122.373, 40.580, 475, M, 0.19
REDDING 4.1 N, Shasta, CA02, -122.358, 40.631, 616, M, 0.04
ANDERSON 2.6 NE, Shasta, CA02, -122.261, 40.478, 409, M, 0.12
LINDEN 5.8 ENE, San Joaquin, CA05, -121.008, 38.063, 146, M, T
STOCKTON 2.1 NW, San Joaquin, CA05, -121.333, 37.991, 7, M, T
STOCKTON 5.8 NNE, San Joaquin, CA05, -121.255, 38.038, 35, M, 0.03
LODI 1.0 NNW, San Joaquin, CA05, -121.304, 38.136, 43, M, 0.00
STOCKTON 3.3 SE, San Joaquin, CA05, -121.259, 37.942, 23, M, 0.01
TRACY 2.1 W, San Joaquin, CA05, -121.470, 37.735, 52, M, 0.00
YREKA 4.5 S, Siskiyou, CA01, -122.621, 41.665, 2937, M, T
WEED 5.4 N, Siskiyou, CA01, -122.370, 41.495, 3064, M, 0.06
YREKA 0.9 WNW, Siskiyou, CA01, -122.649, 41.733, 2692, M, 0.01
MONTAGUE 1.6 ESE, Siskiyou, CA01, -122.501, 41.718, 2556, M, 0.00
SANTA MARGARITA 8.9 ESE, San Luis Obispo, CA04, -120.453, 35.381, 2005, M, 0.00
PACIFICA 0.3 W, San Mateo, CA04, -122.483, 37.612, 227, M, 0.10
FOSTER CITY 1.3 SW, San Mateo, CA04, -122.259, 37.549, 7, M, 0.02
HALF MOON BAY 0.5 SSW, San Mateo, CA04, -122.441, 37.463, 54, M, 0.17
REDWOOD CITY 2.5 SW, San Mateo, CA04, -122.240, 37.493, 17, M, 0.00
ROHNERT PARK 1.6 WNW, Sonoma, CA01, -122.727, 38.352, 93, M, 0.08
GEYSERVILLE 10.6 WNW, Sonoma, CA01, -123.098, 38.737, 1328, M, 0.01
SANTA ROSA 3.1 W, Sonoma, CA01, -122.758, 38.451, 107, M, 0.00
SEBASTOPOL 3.7 WSW, Sonoma, CA01, -122.893, 38.385, 383, M, 0.09
CALISTOGA 4.6 WNW, Sonoma, CA01, -122.658, 38.612, 497, M, 0.01
SEBASTOPOL 4.5 WSW, Sonoma, CA01, -122.904, 38.375, 423, M, 0.26
WINDSOR 1.4 SE, Sonoma, CA01, -122.780, 38.532, 140, M, 0.04
SANTA ROSA 4.7 S, Sonoma, CA01, -122.725, 38.378, 94, M, 0.00
SANTA ROSA 3.1 NW, Sonoma, CA01, -122.744, 38.479, 140, M, 0.06
CLOVERDALE 3.2 ESE, Sonoma, CA01, -122.963, 38.781, 797, M, 0.02
SEBASTOPOL 2.6 SSE, Sonoma, CA01, -122.804, 38.366, 214, M, 0.20
SANTA ROSA 2.9 ENE, Sonoma, CA01, -122.655, 38.471, 292, M, T
MONTE RIO 1.6 W, Sonoma, CA01, -123.042, 38.464, 20, M, 0.03
SEBASTOPOL 3.0 SW, Sonoma, CA01, -122.869, 38.372, 539, M, 0.20
SANTA ROSA 4.4 NNW, Sonoma, CA01, -122.719, 38.511, 392, M, T
SEBASTOPOL 1.1 SSE, Sonoma, CA01, -122.819, 38.384, 168, M, 0.19
SONOMA 1.9 E, Sonoma, CA01, -122.425, 38.290, 124, M, 0.08
SANTA ROSA 1.3 NW, Sonoma, CA01, -122.715, 38.464, 173, M, 0.10
PETALUMA 1.3 SW, Sonoma, CA01, -122.639, 38.226, 36, M, 0.07
WINDSOR 0.6 NNE, Sonoma, CA01, -122.793, 38.553, 157, M, T
GLEN ELLEN 1.9 WNW, Sonoma, CA01, -122.572, 38.365, 956, M, 0.04
ROHNERT PARK 0.9 SW, Sonoma, CA01, -122.711, 38.339, 96, M, 0.11
ROHNERT PARK 0.9 ESE, Sonoma, CA01, -122.681, 38.345, 125, M, 0.04
GLEN ELLEN 1.5 N, Sonoma, CA01, -122.534, 38.378, 337, M, 0.07
SANTA ROSA 2.7 ENE, Sonoma, CA01, -122.659, 38.470, 281, M, M
BOYES HOT SPRINGS 0.5 ENE, Sonoma, CA01, -122.473, 38.316, 295, M, 0.03
SEBASTOPOL 3.3 WSW, Sonoma, CA01, -122.885, 38.384, 362, M, 0.04
OCCIDENTAL 2.8 SW, Sonoma, CA01, -122.974, 38.365, 614, M, 0.24
HEALDSBURG 12.6 NNW, Sonoma, CA01, -122.963, 38.784, 1026, M, 0.02
BENICIA 0.2 SSW, Solano, CA01, -122.155, 38.070, 403, M, 0.12
WRIGHTWOOD 1.2 WNW, San Bernardino, CA07, -117.651, 34.365, 6148, M, 1.58
UPLAND 0.5 ESE, San Bernardino, CA06, -117.650, 34.115, 1415, M, 0.08
APPLE VALLEY 2.6 SE, San Bernardino, CA07, -117.181, 34.504, 2941, M, 0.13
JOSHUA TREE 2.0 S, San Bernardino, CA07, -116.318, 34.097, 3409, M, 0.13
CRESTLINE 0.2 WSW, San Bernardino, CA07, -117.299, 34.246, 4530, M, 0.73
LANDERS 1.6 NE, San Bernardino, CA07, -116.375, 34.283, 2954, M, 0.56
PINON HILLS 3.5 N, San Bernardino, CA07, -117.644, 34.485, 3495, M, 0.49
KNIGHTS FERRY 5.2 WSW, Stanislaus, CA05, -120.752, 37.789, 144, M, T
SAN JUAN BAUTISTA 0.5 S, San Benito, CA04, -121.537, 36.839, 252, M, 0.00
HOLLISTER 5.4 NNE, San Benito, CA04, -121.370, 36.931, 247, M, T
HOLLISTER 2.1 ESE, San Benito, CA04, -121.365, 36.842, 389, M, 0.00
BOULDER CREEK 3.6 NE, Santa Cruz, CA04, -122.091, 37.181, 1724, M, T
SCOTTS VALLEY 1.7 SW, Santa Cruz, CA04, -122.029, 37.040, 573, M, 0.03
APTOS 2.6 E, Santa Cruz, CA04, -121.854, 36.996, 383, M, 0.04
BOULDER CREEK 3.0 NW, Santa Cruz, CA04, -122.164, 37.169, 875, M, 0.01
FELTON 4.5 NNE, Santa Cruz, CA04, -122.047, 37.105, 838, M, 0.00
VISALIA 0.7 SSE, Tulare, CA05, -119.318, 36.315, 318, M, T
DOUGLAS CITY 2.4 SW, Trinity, CA01, -122.978, 40.633, 1689, M, 0.00
TRINITY CENTER 0.6 ESE, Trinity, CA01, -122.696, 40.983, 2427, M, 0.32
THOUSAND OAKS 2.1 WSW, Ventura, CA06, -118.898, 34.177, 692, M, 0.04
FRAZIER PARK 10.7 WSW, Ventura, CA06, -119.110, 34.746, 5274, M, 0.23
SIMI VALLEY 3.8 SW, Ventura, CA06, -118.805, 34.231, 1081, M, 0.05
VENTURA 0.5 WNW, Ventura, CA06, -119.276, 34.273, 56, M, 0.02
OJAI 0.3 WNW, Ventura, CA06, -119.251, 34.451, 797, M, 0.02
SIMI VALLEY 1.0 NW, Ventura, CA06, -118.764, 34.272, 848, M, 0.03
THOUSAND OAKS 2.5 WSW, Ventura, CA06, -118.909, 34.179, 703, M, 0.04
CHALLENGE-BROWNSVILLE 1.3 WSW, Yuba, CA02, -121.280, 39.452, 2049, M, 0.26
DAVIS 1.2 SE, Yolo, CA02, -121.721, 38.543, 36, M, 0.02
DAVIS 0.8 NE, Yolo, CA02, -121.724, 38.562, 41, M, 0.01
DAVIS 1.4 SSE, Yolo, CA02, -121.722, 38.538, 4, M, T
DAVIS 2.7 W, Yolo, CA02, -121.786, 38.552, 57, M, 0.00
WOODLAND 2.8 SE, Yolo, CA02, -121.732, 38.647, 38, M, 0.04
PLACERVILLE 3 ENE, El Dorado, CA02, -120.742, 38.785, 2658, 76.5, 0.00
TAHOMA, El Dorado, CA03, -120.129, 39.060, 6315, 59.4, 1.26
CORONA MUNICIPAL AIRPORT, Riverside, -, -117.602, 33.898, 533, 75.1, 0.17
SAN LORENZO 0.5 NNW, Alameda, CA04, -122.133, 37.682, 30, M, 0.00
OROVILLE 4.8 E, Butte, CA02, -121.477, 39.493, 668, M, 0.23
MCKINLEYVILLE 4.3 E, Humboldt, CA01, -124.034, 40.953, 173, M, 0.12
KNEELAND 0.4 NNW, Humboldt, CA01, -123.999, 40.766, 2008, M, 0.00
BISHOP 8.8 WNW, Inyo, CA07, -118.547, 37.411, 4537, M, 0.18
CLAREMONT 0.5 E, Los Angeles, CA06, -117.707, 34.121, 1465, M, 1.54
LANCASTER 6.5 ENE, Los Angeles, CA07, -118.066, 34.718, 2366, M, 0.05
FOOTHILL RANCH 0.3 NW, Orange, CA06, -117.664, 33.689, 1045, M, 0.37
CARLSBAD 2.2SE, San Diego, CA06, -117.321, 33.143, 22, M, 0.00
DESCANSO 0.3 WNW, San Diego, CA06, -116.621, 32.854, 3442, M, 1.23
SAN DIEGO 5.2WNW, San Diego, CA06, -117.245, 32.735, 251, M, 0.16
VISTA 1.2SE, San Diego, CA06, -117.231, 33.186, 505, M, 0.31
FORESTVILLE 0.7 SW, Sonoma, CA01, -122.897, 38.473, 201, M, 0.05
RIALTO 2.1 N, San Bernardino, CA06, -117.381, 34.144, 1482, M, 1.77
THREE RIVERS 1.7 NE, Tulare, CA05, -118.886, 36.458, 1010, M, 0.00
TRINITY CENTER 0.2 ENE, Trinity, CA01, -122.704, 40.986, 2481, M, 0.17
VERDI 2W, Sierra, CA03, -120.027, 39.521, 5429, 66.4, 1.69
CHICO 1.2 NNW, Butte, CA02, -121.814, 39.770, 251, M, 0.58
PASADENA 2.0 SE, Los Angeles, CA06, -118.116, 34.139, 739, M, 0.04
RAYMOND 6.8 NE, Madera, CA05, -119.802, 37.272, 1802, M, T
SUNNYVALE 3.6 S (W6NW), Santa Clara, CA04, -122.018, 37.334, 170, M, 0.01
PIONEER 6.4 NE, Amador, CA05, -120.499, 38.505, 4073, M, 0.13
CRESCENT CITY 4.2 NE, Del Norte, CA01, -124.143, 41.800, 98, M, 0.03
POLLOCK PINES 0.5 NW, El Dorado, CA02, -120.578, 38.757, 3895, M, 0.03
EUREKA 3.0 SSW, Humboldt, CA01, -124.181, 40.757, 100, M, 0.04
TEHACHAPI 2.2 W, Kern, CA05, -118.480, 35.132, 3945, M, 0.08
DIAMOND BAR 1.9 NNE, Los Angeles, CA06, -117.796, 34.023, 935, M, 0.07
LA CRESCENTA-MONTROSE 3.9 NW, Los Angeles, CA06, -118.287, 34.270, 1974, M, 0.04
YOSEMITE LAKES 4.7 S, Madera, CA05, -119.761, 37.124, 1598, M, 0.00
MARIPOSA 12.5 E, Mariposa, CA05, -119.740, 37.462, 2940, M, 0.05
MISSION VIEJO 3.5 SSE(K6WTA), Orange, CA06, -117.639, 33.563, 613, M, 0.33
IRVINE 4.1 NNE, Orange, CA06, -117.772, 33.718, 152, M, 0.05
ANAHEIM 4.9 E, Orange, CA06, -117.787, 33.847, 374, M, 0.04
LOS ALTOS HILLS 1.3 N, Santa Clara, CA04, -122.135, 37.387, 194, M, 0.01
CHULA VISTA 3.1SE, San Diego, CA06, -117.051, 32.604, 200, M, 0.06
SAN DIEGO 9.5 NNW, San Diego, CA06, -117.221, 32.843, 284, M, 0.21
CARLSBAD 3.8SE, San Diego, CA06, -117.304, 33.119, 168, M, 0.42
RANCHO BERNARDO 1NNW, San Diego, CA06, -117.083, 33.034, 517, M, 0.16
LOS OSOS 0.5 N, San Luis Obispo, CA04, -120.832, 35.329, 77, M, 0.00
MENLO PARK 2.4 W, San Mateo, CA04, -122.187, 37.477, 25, M, M
BURLINGAME 2.0 WSW, San Mateo, CA04, -122.398, 37.584, 447, M, 0.14
BODEGA BAY 1.0 SE, Sonoma, CA01, -123.018, 38.312, 226, M, T
BENICIA 1.2 SW, Solano, CA01, -122.168, 38.058, 40, M, 0.14
TWENTYNINE PALMS 1.5 SW, San Bernardino, CA07, -116.085, 34.124, 2162, M, T
CAMARILLO 2.4 W, Ventura, CA06, -119.072, 34.228, 114, M, 0.05
MARYSVILLE 5.0 N, Yuba, CA02, -121.594, 39.224, 73, M, 0.02
WHEATLAND 0.1 ENE, Yuba, CA02, -121.424, 39.013, 85, M, 0.03
CHICO 1.7 SW, Butte, CA02, -121.832, 39.739, 210, M, 0.59
REDWAY 1.8 WSW, Humboldt, CA01, -123.852, 40.109, 955, M, 0.00
LAWS 0.1SW, Inyo, CA07, -118.347, 37.399, 4116, M, 0.22
UPPER LAKE 3.6 W, Lake, CA02, -122.978, 39.168, 1440, M, 0.03
MORGAN HILL 1.4 SW, Santa Clara, CA04, -121.659, 37.117, 433, M, 0.00
FALLBROOK 2.3SE, San Diego, CA06, -117.225, 33.352, 618, M, 0.38
REDDING 3.8 S, Shasta, CA02, -122.369, 40.518, 444, M, 0.13
FORKS OF SALMON 1.0 NW, Siskiyou, CA01, -123.334, 41.269, 1664, M, 0.20
SAN MATEO 3.4 SSW, San Mateo, CA04, -122.343, 37.518, 585, M, 0.00
FILLMORE 0.6 N, Ventura, CA06, -118.917, 34.408, 506, M, 0.00
ARBUCKLE BASIN CALIFORNIA, Shasta, CA02, -122.833, 40.398, 1900, 78.4, M
ACTON CALIFORNIA, Los Angeles, CA06, -118.200, 34.446, 2600, 75.8, M
ARROYO GRANDE CALIFORNIA, San Luis Obispo, CA04, -120.392, 35.179, 1048, 69.5, M
ALDER SPRINGS CALIFORNIA, Glenn, CA02, -122.724, 39.651, 4300, 72.9, M
ALPINE CALIFORNIA, San Diego, CA06, -116.739, 32.834, 2041, 75.9, M
LOS ALTOS CALIFORNIA, Santa Clara, CA04, -122.147, 37.358, 645, 70.4, M
ANZA CALIFORNIA, Riverside, CA06, -116.673, 33.555, 3920, 71.4, M
ALDER POINT CALIFORNIA, Humboldt, CA01, -123.590, 40.187, 923, 73.3, M
ARROYO SECO (MT. DIABLO) CALIF, Monterey, CA04, -121.492, 36.230, 980, 72.9, M
ASH CREEK CALIFORNIA, Siskiyou, CA02, -121.979, 41.277, 3200, 64.9, M
BACKBONE CALIFORNIA, Trinity, CA01, -123.142, 40.889, 4700, 75.4, M
BALD MTN LOC CALIFORNIA, El Dorado, CA02, -120.697, 38.906, 4680, 74.3, M
BARNABY CALIFORNIA, Marin, CA01, -122.702, 38.028, 1240, 65.9, M
BATTERSON CALIFORNIA, Madera, CA05, -119.508, 37.232, 3160, 79.1, M
BIG BAR CALIFORNIA, Trinity, CA01, -123.233, 40.733, 1500, 79.2, M
BELL CANYON CALIFORNIA, Orange, CA06, -117.592, 33.542, 700, 73.8, M
BRADLEY CALIFORNIA, Monterey, CA04, -120.803, 35.864, 537, 75.3, M
BEAR PEAK CALIFORNIA, Tulare, CA05, -118.052, 35.884, 8228, 63.1, M
BENTON CALIFORNIA, Mono, CA07, -118.478, 37.843, 5450, 69.9, M
BEAUMONT CALIFORNIA, Riverside, CA06, -116.950, 33.931, 2604, 77.9, M
BEVERLY HILLS CALIFORNIA, Los Angeles, CA06, -118.412, 34.125, 1260, 77.9, M
BANGOR CALIFORNIA, Butte, CA02, -121.386, 39.398, 803, 77.8, M
BIG HILL CALIFORNIA, Humboldt, CA01, -123.636, 41.098, 3570, 71.2, M
BIG PINES CALIFORNIA, Los Angeles, CA07, -117.692, 34.379, 6917, 66.7, M
BIG ROCK CALIFORNIA, Marin, CA01, -122.570, 38.039, 1500, 67.1, M
BLACK DIAMOND CALIFORNIA, Contra Costa, CA04, -121.884, 37.950, 1600, 70.2, M
BLUE DOOR CALIFORNIA, Lassen, CA02, -120.337, 41.055, 5615, 64.6, M
BLUE RIDGE (KNF) CALIFORNIA, Siskiyou, CA01, -123.187, 41.269, 5956, 67.7, M
BEN BOLT CALIFORNIA, El Dorado, CA05, -120.934, 38.591, 905, 76.8, M
BEN LOMOND CALIFORNIA, Santa Cruz, CA04, -122.170, 37.132, 2630, 69.9, M
BOGARD R.S. CALIFORNIA, Lassen, CA02, -121.083, 40.598, 5650, 60.7, M
BOONVILLE CALIFORNIA, Mendocino, CA01, -123.349, 38.988, 644, 69.4, M
BIG PINE FLAT CALIFORNIA, San Bernardino, CA07, -117.013, 34.319, 6861, 65.8, M
BRIDGEPORT 4NW CALIFORNIA, Mono, CA03, -119.289, 38.272, 6650, 63.9, M
BRANCH MOUNTAIN CALIFORNIA, San Luis Obispo, CA04, -120.083, 35.189, 3770, 75.2, M
BEAR FLAT CALIFORNIA, Modoc, CA02, -120.313, 41.295, 6200, 64.0, M
BRIONES CALIFORNIA, Contra Costa, CA04, -122.118, 37.944, 1450, 67.9, M
BROOKS CALIFORNIA, Yolo, CA02, -122.145, 38.738, 354, 79.0, M
BIG SUR CALIFORNIA, Monterey, CA04, -121.785, 36.236, 450, 64.0, M
BULL FLAT CALIFORNIA, Lassen, CA03, -120.114, 40.481, 4395, 67.9, M
BURNS CANYON CALIFORNIA, San Bernardino, CA07, -116.634, 34.210, 6000, 71.9, M
BUTTERCUP CALIFORNIA, Imperial, CA07, -114.884, 32.740, 217, 94.5, M
BEAVER CAMP LOC CALIFORNIA, Amador, CA05, -120.325, 38.488, 5000, 74.4, M
BRAZIE RANCH CALIFORNIA, Siskiyou, CA01, -122.594, 41.685, 3000, 76.6, M
CALLAHAN CALIFORNIA, Siskiyou, CA01, -122.796, 41.308, 3136, 73.3, M
CAMERON FIRE STATION CALIFORNI, San Diego, CA06, -116.463, 32.721, 3443, 71.3, M
CANBY CALIFORNIA, Modoc, CA02, -120.868, 41.434, 4312, 68.1, M
CARRIZO CALIFORNIA, San Luis Obispo, CA05, -119.773, 35.096, 2490, 79.0, M
CATHEYS VALLEY CALIFORNIA, Mariposa, CA05, -120.111, 37.468, 1200, 81.2, M
CEDAR GROVE CALIFORNIA, Fresno, CA05, -118.656, 36.788, 4720, 68.7, M
CHEESEBORO CALIFORNIA, Ventura, CA06, -118.717, 34.185, 1650, 77.1, M
CHILAO CALIFORNIA, Los Angeles, CA06, -118.030, 34.332, 5450, 72.5, M
CHUCHUPATE CALIFORNIA, Ventura, CA05, -119.012, 34.808, 4900, 64.2, M
CLAREMONT CALIFORNIA, Los Angeles, CA06, -117.707, 34.137, 1645, 76.0, M
CLEAR CREEK CALIFORNIA, Los Angeles, CA06, -118.152, 34.271, 3000, 75.6, M
CLARK CALIFORNIA, Riverside, CA06, -117.309, 33.877, 1720, 76.8, M
CALAVERAS ROAD CALIFORNIA, Alameda, CA04, -121.844, 37.553, 1230, 68.1, M
CASE MOUNTAIN CALIFORNIA, Tulare, CA05, -118.809, 36.411, 6450, 69.1, M
COHASSET CALIFORNIA, Butte, CA02, -121.769, 39.872, 1733, 78.9, M
COLLINS BALDY CALIFORNIA, Siskiyou, CA01, -122.950, 41.775, 5493, 68.0, M
CONVERSE CALIFORNIA, San Bernardino, CA06, -116.913, 34.194, 5618, 67.1, M
COOSKIE MOUNTAIN CALIFORNIA, Humboldt, CA01, -124.266, 40.257, 2950, 68.2, M
CORRALITOS CALIFORNIA, Santa Cruz, CA04, -121.798, 36.991, 450, 66.6, M
COUNTY LINE CALIFORNIA, Lake, CA02, -122.412, 39.019, 2085, 78.7, M
CAMP 9 CALIFORNIA, Los Angeles, CA06, -118.422, 34.362, 4000, 73.8, M
CRANE FLAT LOOKOUT CALIFORNIA, Mariposa, CA05, -119.825, 37.762, 6644, 66.8, M
CRESTVIEW CALIFORNIA, Mono, CA07, -118.983, 37.745, 7600, 59.3, M
CORNING CALIFORNIA, Tehama, CA02, -122.170, 39.939, 294, 78.9, M
CARPENTER RIDGE CALIFORNIA, Butte, CA02, -121.582, 40.069, 4812, 71.3, M
CRANSTON CALIFORNIA, Riverside, CA06, -116.841, 33.740, 1950, 80.1, M
CRAZY PEAK CALIFORNIA, Del Norte, CA01, -123.604, 41.992, 3970, 69.2, M
CASHMAN CALIFORNIA, Plumas, CA02, -120.915, 40.002, 4520, 72.5, M
DESCANSO CALIFORNIA, San Diego, CA06, -116.622, 32.857, 3480, 72.4, M
DEVILS GARDEN CALIFORNIA, Modoc, CA02, -120.671, 41.530, 5022, 68.5, M
DIABLO GRANDE CALIFORNIA, Stanislaus, CA05, -121.294, 37.329, 1850, 76.8, M
DEMOCRAT CALIFORNIA, Kern, CA05, -118.630, 35.532, 2356, 79.9, M
DINKEY CALIFORNIA, Fresno, CA05, -119.039, 37.066, 5668, 61.9, M
DOG VALLEY CALIFORNIA, Sierra, CA03, -120.048, 39.562, 5976, 64.0, M
DOYLE CALIFORNIA, Lassen, CA03, -120.106, 40.022, 4240, 71.1, M
DUNCAN CALIFORNIA, Placer, CA02, -120.509, 39.144, 7100, 64.0, M
DEL VALLE CALIFORNIA, Los Angeles, CA06, -118.683, 34.431, 1278, 77.0, M
DEVORE CALIFORNIA, San Bernardino, CA06, -117.404, 34.221, 2057, 77.2, M
EAGLE PEAK CALIFORNIA, Tehama, CA02, -122.657, 39.928, 3713, 75.0, M
EEL RIVER CAMP CALIFORNIA, Humboldt, CA01, -123.824, 40.138, 446, 71.1, M
EEL RIVER CALIFORNIA, Mendocino, CA01, -123.083, 39.833, 1500, 77.2, M
EL CARISO CALIFORNIA, Riverside, CA06, -117.411, 33.647, 3038, 78.0, M
MOUNT ELIZABETH CALIFORNIA, Tuolumne, CA05, -120.247, 38.063, 4933, 73.5, M
EL MIRAGE CALIFORNIA, San Bernardino, CA07, -117.550, 34.634, 2880, 86.8, M
FANCHER CREEK CALIFORNIA, Fresno, CA05, -119.466, 36.884, 920, 84.3, M
FAWNSKIN CALIFORNIA, San Bernardino, CA06, -116.899, 34.266, 6900, 61.6, M
FENCE MEADOW CALIFORNIA, Fresno, CA05, -119.175, 36.961, 5048, 74.3, M
FORT HUNTER LIGGET CALIFORNIA, Monterey, CA04, -121.242, 36.012, 1100, 73.1, M
FIGUEROA CALIFORNIA, Santa Barbara, CA06, -120.007, 34.733, 3200, 75.3, M
FISH CREEK MTN CALIFORNIA, Imperial, CA07, -116.067, 32.990, 760, 92.5, M
FIVE MILE CALIFORNIA, Inyo, CA07, -117.918, 35.872, 4150, 82.1, M
FORESTHILL CALIFORNIA, Placer, CA02, -120.732, 39.091, 4355, 72.7, M
FOUNTAIN SPRINGS CALIFORNIA, Tulare, CA05, -118.915, 35.892, 210, 81.7, M
FREMONT CANYON CALIFORNIA, Orange, CA06, -117.711, 33.808, 1781, 74.5, M
FRIEND MOUNTAIN CALIFORNIA, Trinity, CA01, -123.342, 40.505, 4000, 72.6, M
GRASSHOPPER CALIFORNIA, Lassen, CA03, -120.784, 40.782, 6158, 64.0, M
GOOSE VALLEY CALIFORNIA, San Diego, CA06, -116.846, 33.074, 1530, 75.4, M
GORDON CALIFORNIA, Lassen, CA03, -120.896, 40.759, 6200, 63.2, M
GREEN SPRING CALIFORNIA, Tuolumne, CA05, -120.500, 37.833, 1020, 78.9, M
HASTINGS CALIFORNIA, Monterey, CA04, -121.552, 36.389, 1885, 68.7, M
HAWKEYE CALIFORNIA, Sonoma, CA01, -122.917, 38.782, 2000, 68.1, M
HAYFORK CALIFORNIA, Trinity, CA01, -123.165, 40.550, 2323, 71.7, M
HELL HOLE CALIFORNIA, Placer, CA02, -120.422, 39.072, 5240, 69.3, M
HERNANDEZ CALIFORNIA, San Benito, CA04, -120.856, 36.383, 3733, 75.3, M
HIGH GLADE LOOKOUT CALIFORNIA, Lake, CA02, -122.808, 39.208, 4840, 72.3, M
HIGH SIERRA CALIFORNIA, Fresno, CA05, -119.038, 37.315, 7403, 62.9, M
HOPLAND CALIFORNIA, Mendocino, CA01, -123.081, 39.031, 2682, 74.6, M
HOLLISTER CALIFORNIA, San Benito, CA04, -121.362, 36.842, 404, 68.6, M
HUNTER MOUNTAIN CALIFORNIA, Inyo, CA07, -117.474, 36.563, 6880, 67.3, M
HORSE LAKE CALIFORNIA, Lassen, CA03, -120.503, 40.631, 5100, 66.2, M
HOOPA CALIFORNIA, Humboldt, CA01, -123.671, 41.048, 375, 75.1, M
HORSE THIEF SPRINGS CALIFORNIA, San Bernardino, CA07, -115.909, 35.771, 5000, 77.4, M
HURLEY CALIFORNIA, Fresno, CA05, -119.568, 37.015, 1201, 77.8, M
INDIAN WELL CALIFORNIA, Siskiyou, CA01, -121.538, 41.742, 4770, 69.5, M
JARBO GAP CALIFORNIA, Butte, CA02, -121.489, 39.736, 2490, 76.8, M
JERSEYDALE CALIFORNIA, Mariposa, CA05, -119.839, 37.544, 3900, 78.6, M
JOHNSONDALE CALIFORNIA, Tulare, CA05, -118.545, 35.972, 4700, 66.9, M
LYONS VALLEY CALIFORNIA, Lake, CA01, -123.074, 39.126, 3200, 74.1, M
LYTLE CREEK CALIFORNIA, San Bernardino, CA06, -117.480, 34.234, 2792, 75.1, M
MAD RIVER CALIFORNIA, Trinity, CA01, -123.524, 40.463, 2775, 71.7, M
MALIBU HILLS CALIFORNIA, Los Angeles, CA06, -118.633, 34.058, 1575, 74.0, M
MANZANITA LAKE CALIFORNIA, Shasta, CA02, -121.580, 40.540, 5660, 61.2, M
MILL CREEK (BDF) CALIFORNIA, San Bernardino, CA06, -117.035, 34.084, 2950, 78.4, M
MCGUIRES CALIFORNIA, Mendocino, CA01, -123.601, 39.353, 593, 65.9, M
MEANS LAKE CALIFORNIA, San Bernardino, CA07, -116.517, 34.391, 2900, 82.5, M
MENDOCINO PASS CALIFORNIA, Mendocino, CA01, -122.945, 39.808, 5420, 69.3, M
METCALF GAP CALIFORNIA, Madera, CA05, -119.768, 37.409, 3077, 81.4, M
MID HILLS CALIFORNIA, San Bernardino, CA07, -115.411, 35.123, 5413, 72.1, M
MILL CREEK (ANF) CALIFORNIA, Los Angeles, CA06, -118.082, 34.390, 5021, 72.0, M
MILO CALIFORNIA, Tulare, CA05, -118.869, 36.231, 1923, 82.8, M
MALLORY RIDGE CALIFORNIA, Contra Costa, CA05, -121.779, 37.817, 2040, 73.3, M
MONTECITO CALIFORNIA, Santa Barbara, CA06, -119.648, 34.461, 1500, 72.2, M
MODOC NWR CALIFORNIA, Modoc, CA02, -120.354, 41.459, 4380, 75.1, M
MORMON ROCK CALIFORNIA, San Bernardino, CA06, -117.502, 34.318, 3300, 76.5, M
MOUNTAIN REST CALIFORNIA, Fresno, CA05, -119.371, 37.054, 4100, 76.8, M
MARKLEEVILLE CALIFORNIA, Alpine, CA03, -119.767, 38.683, 5501, 65.8, M
MT. SHASTA CALIFORNIA, Siskiyou, CA02, -122.316, 41.316, -, 69.0, M
MARIPOSA CALIFORNIA, Mariposa, CA05, -119.987, 37.504, 2231, 77.2, M
MOUNT ZION CALIFORNIA, Amador, CA05, -120.651, 38.389, 2960, 78.3, M
NORTH FORK CALIFORNIA, Madera, CA05, -119.505, 37.233, 2720, 78.6, M
OAK KNOLL CALIFORNIA, Siskiyou, CA01, -122.850, 41.839, 1940, 74.1, M
OAK MOUNTAIN CALIFORNIA, Shasta, CA02, -121.983, 41.006, 1700, 77.7, M
OAK CREEK CALIFORNIA, Inyo, CA07, -118.259, 36.843, 4855, 77.3, M
OAK GROVE CALIFORNIA, San Diego, CA06, -116.795, 33.393, 2752, 74.5, M
OAKLAND NORTH CALIFORNIA, Contra Costa, CA04, -122.221, 37.865, 1403, 62.5, M
OAK OPENING CALIFORNIA, Tulare, CA05, -118.702, 36.175, 3240, 79.4, M
OAKLAND SOUTH CALIFORNIA, Alameda, CA04, -122.145, 37.786, 1095, 63.9, M
OPAL MOUNTAIN CALIFORNIA, San Bernardino, CA07, -117.176, 35.154, 3240, 81.0, M
OWENS CAMP LOC CALIFORNIA, El Dorado, CA02, -120.245, 38.733, 5240, 67.0, M
OWENS VALLEY CALIFORNIA, Inyo, CA07, -118.551, 37.390, 4640, 76.7, M
OZENA CALIFORNIA, Ventura, CA06, -119.354, 34.682, 3670, 68.8, M
PANAMINT CALIFORNIA, Inyo, CA07, -117.088, 36.120, 6880, 70.6, M
PARKFIELD CALIFORNIA, Monterey, CA04, -120.432, 35.899, 1535, 74.1, M
PATTY MOCUS CALIFORNIA, Tehama, CA02, -122.867, 40.295, 3500, 75.8, M
PINE HILLS CALIFORNIA, San Diego, CA06, -116.634, 33.016, -, 71.8, M
PIERCE CALIFORNIA, Plumas, CA02, -120.642, 40.246, 5700, 66.1, M
PINEHURST CALIFORNIA, Fresno, CA05, -119.000, 36.685, 4060, 75.9, M
PIKE COUNTY LOOKOUT CALIFORNIA, Yuba, CA02, -121.202, 39.475, 3714, 74.0, M
PILOT HILL CALIFORNIA, El Dorado, CA02, -121.009, 38.833, 1200, 75.4, M
PARK RIDGE CALIFORNIA, Tulare, CA05, -118.942, 36.724, 7540, 63.7, M
PINNACLES CALIFORNIA, San Benito, CA04, -121.147, 36.471, 1322, 75.6, M
POPPY PARK CALIFORNIA, Los Angeles, CA07, -118.383, 34.733, 2760, 81.0, M
POTRERO CALIFORNIA, San Diego, CA06, -116.609, 32.606, 2345, 73.8, M
POVERTY CALIFORNIA, Santa Clara, CA04, -121.771, 37.443, 2066, 70.2, M
PANOCHE ROAD CALIFORNIA, Fresno, CA05, -120.766, 36.727, 2032, 80.2, M
PULGAS CALIFORNIA, San Mateo, CA04, -122.298, 37.475, 644, 69.7, M
QUARTZ HILL CALIFORNIA, Siskiyou, CA01, -122.934, 41.599, 4225, 73.5, M
QUINCY RD CALIFORNIA, Plumas, CA02, -120.942, 39.973, 3500, 70.5, M
RAVENDALE CALIFORNIA, Lassen, CA03, -120.316, 40.731, 5298, 66.9, M
RANCHITA CALIFORNIA, San Diego, CA07, -116.497, 33.222, 4415, 74.5, M
READER RANCH CALIFORNIA, Nevada, CA02, -121.117, 39.304, 1968, 77.5, M
REDDING AIRPORT CALIFORNIA, Shasta, CA02, -122.291, 40.516, 500, 80.0, M
RICE VALLEY CALIFORNIA, Riverside, CA07, -114.732, 34.061, 820, 90.5, M
ROCK CREEK, Mono, CA07, -118.667, 37.551, 7040, 64.4, M
RODEO VALLEY, Mendocino, CA01, -123.321, 39.668, 2428, 73.4, M
ROSE VALLEY CALIFORNIA, Ventura, CA06, -119.184, 34.543, 3331, 67.4, M
ROUND MOUNTAIN, Siskiyou, CA02, -121.464, 41.427, 5258, 70.1, M
ROSE PEAK CALIFORNIA, Alameda, CA04, -121.735, 37.502, 3060, 71.6, M
JUANITA LAKE CALIFORNIA, Siskiyou, CA01, -122.006, 41.786, 5400, 69.4, M
JULIAN CALIFORNIA, San Diego, CA07, -116.591, 33.076, 4240, 72.1, M
JUNIPER CREEK CALIFORNIA, Modoc, CA02, -120.472, 41.332, 4372, 68.9, M
KEENWILD CALIFORNIA, Riverside, CA06, -116.767, 33.667, 4920, 72.0, M
KETTLEMAN HILLS CALIFORNIA, Kings, CA05, -120.057, 36.033, 810, 84.6, M
KNOXVILLE CREEK CALIFORNIA, Lake, CA02, -122.417, 38.862, 2200, 73.6, M
KONOCTI CALIFORNIA, Lake, CA02, -122.706, 38.912, 2163, 77.8, M
LOS BANOS CALIFORNIA, Merced, CA05, -121.053, 37.055, 350, 78.5, M
MT. LAGUNA CALIFORNIA, San Diego, CA07, -116.420, 32.880, 5760, 65.4, M
LA HONDA CALIFORNIA, San Mateo, CA04, -122.255, 37.305, 872, 64.9, M
LA PANZA CALIFORNIA, San Luis Obispo, CA04, -120.187, 35.381, 1630, 74.6, M
LAURAL MOUNTAIN CALIFORNIA, Kern, CA07, -117.699, 35.478, 4390, 78.6, M
LASSEN LODGE CALIFORNIA, Tehama, CA02, -121.714, 40.344, 4159, 74.4, M
LAUFMAN CALIFORNIA, Lassen, CA03, -120.353, 40.142, 5800, 71.0, M
LAYTONVILLE CALIFORNIA, Mendocino, CA01, -123.485, 39.702, 1820, 73.0, M
LADDER BUTTE CALIFORNIA, Lassen, CA02, -121.297, 40.807, 5750, 68.1, M
LEO CARRILLO CALIFORNIA, Los Angeles, CA06, -118.936, 34.046, 50, 69.0, M
LOS GATOS CALIFORNIA, Santa Clara, CA04, -121.943, 37.203, 2000, 71.0, M
LOST HORSE CALIFORNIA, Riverside, CA07, -116.188, 34.018, 4200, 75.8, M
LINCOLN CALIFORNIA, Placer, CA02, -121.268, 38.883, 200, 78.5, M
LOWER KLAMATH CALIFORNIA, Siskiyou, CA01, -121.700, 41.999, 4098, 64.8, M
LOS PRIETOS CALIFORNIA, Santa Barbara, CA06, -119.783, 34.536, 1020, 74.7, M
LAS TABLAS CALIFORNIA, San Luis Obispo, CA04, -120.924, 35.656, 994, 70.6, M
LITTLE TUJUNGA CALIFORNIA, Los Angeles, CA06, -118.361, 34.294, 1390, 74.3, M
RUSH CREEK CALIFORNIA, Modoc, CA02, -120.864, 41.294, 4800, 69.5, M
RUTH CALIFORNIA, Trinity, CA01, -123.316, 40.251, 2732, 70.1, M
SACRAMENTO NWR CALIFORNIA, Glenn, CA02, -122.182, 39.417, 120, 76.3, M
SADDLEBACK BUTTE CALIFORNIA, Los Angeles, CA07, -117.821, 34.685, 2590, 79.2, M
SAUGUS CALIFORNIA, Los Angeles, CA06, -118.525, 34.425, 1450, 77.4, M
SAWYERS BAR CALIFORNIA, Siskiyou, CA01, -123.132, 41.300, 2192, 74.9, M
SANTA BARBARA ISLAND CALIFORNI, Santa Barbara, CA06, -119.033, 33.483, 176, 67.4, M
SANTA CRUZ ISLAND CALIFORNIA, Santa Barbara, CA06, -119.722, 33.996, 250, 69.8, M
SCORPION CALIFORNIA, Trinity, CA01, -122.697, 41.112, 4400, 76.1, M
SODA CREEK CALIFORNIA, Lake, CA01, -122.977, 39.425, 1773, 72.3, M
SADDLEBACK CALIFORNIA, Sierra, CA02, -120.865, 39.638, 6670, 65.5, M
SECRET TOWN CALIFORNIA, Nevada, CA02, -120.885, 39.184, 2826, 74.9, M
SANTA FE DAM CALIFORNIA, Los Angeles, CA06, -117.946, 34.121, 500, 78.6, M
SHAVER CALIFORNIA, Fresno, CA05, -119.256, 37.135, 5746, 63.0, M
SCHOOL HOUSE CALIFORNIA, Humboldt, CA01, -123.906, 41.138, 2640, 67.8, M
SHIP MTN. CALIFORNIA, Del Norte, CA01, -123.792, 41.736, 5300, 65.6, M
SHADEQUARTER CALIFORNIA, Tulare, CA05, -118.956, 36.567, 4069, 77.2, M
SIMS CALIFORNIA, Shasta, CA02, -122.373, 41.075, 2400, 78.1, M
SLATER BUTTE CALIFORNIA, Siskiyou, CA01, -123.352, 41.859, 4670, 72.3, M
SAN MIGUEL CALIFORNIA, San Diego, CA06, -116.974, 32.685, 425, 74.5, M
SAN LUIS NWR CALIFORNIA, Merced, CA05, -120.794, 37.182, 65, 76.9, M
SANTA RITA CALIFORNIA, San Benito, CA05, -120.598, 36.348, 5000, 71.8, M
SOLDIER MOUNTAIN CALIFORNIA, Shasta, CA02, -121.586, 40.926, 3710, 72.8, M
SOMES BAR CALIFORNIA, Siskiyou, CA01, -123.496, 41.390, 920, 78.0, M
SQUAW SPRINGS CALIFORNIA, San Bernardino, CA07, -117.568, 35.370, 3620, 80.2, M
SQUAW LAKE CALIFORNIA, Imperial, CA07, -114.494, 32.908, 300, 92.2, M
SANTA ROSA ISLAND CALIFORNIA, Santa Barbara, CA06, -120.078, 33.978, 1298, 63.1, M
SANTA ROSA PLATEAU CALIFORNIA, Riverside, CA06, -117.231, 33.529, 1980, 74.6, M
SANTA ROSA CALIFORNIA, Sonoma, CA01, -122.712, 38.479, 576, 66.1, M
STAMPEDE CALIFORNIA, Sierra, CA03, -120.075, 39.483, 6867, 62.4, M
STONYFORD CALIFORNIA, Colusa, CA02, -122.575, 39.367, 1200, 77.8, M
SUGARLOAF (SHF) CALIFORNIA, Shasta, CA02, -122.438, 40.917, 4200, 77.2, M
SPRING VALLEY CALIFORNIA, San Mateo, CA04, -122.436, 37.563, 1075, 62.1, M
TANBARK CALIFORNIA, Los Angeles, CA06, -117.761, 34.207, 2600, 75.6, M
TEMESCAL (LPF) CALIFORNIA, Ventura, CA06, -118.756, 34.481, 1140, 75.5, M
THOMES CREEK CALIFORNIA, Tehama, CA02, -122.610, 39.864, 1040, 82.1, M
TIMBER MOUNTAIN CALIFORNIA, Modoc, CA01, -121.298, 41.629, 4960, 70.8, M
MOUNT TOM CALIFORNIA, Fresno, CA05, -119.178, 37.376, 9018, 58.1, M
LAS TRAMPAS CALIFORNIA, Contra Costa, CA04, -122.067, 37.834, 1760, 69.0, M
TRINITY CAMP CALIFORNIA, Trinity, CA01, -122.804, 40.786, 3308, 74.6, M
TRIMMER CALIFORNIA, Fresno, CA05, -119.305, 36.911, 1540, 81.5, M
UHL / HOT SPRINGS, Tulare, CA05, -118.633, 35.889, 3720, 75.4, M
UNDERWOOD CALIFORNIA, Trinity, CA01, -123.495, 40.722, 2600, 75.9, M
VALLEY CENTER CALIFORNIA, San Diego, CA06, -117.009, 33.237, 1483, 75.0, M
VAN BREMMER CALIFORNIA, Siskiyou, CA01, -121.794, 41.643, 4928, 69.5, M
VALYERMO CALIFORNIA, Los Angeles, CA07, -117.851, 34.446, 3780, 75.9, M
VANDENBERG CALIFORNIA, Santa Barbara, CA06, -120.486, 34.759, 1050, 64.4, M
WALKER CALIFORNIA, Mono, CA03, -119.459, 38.565, 5440, 72.0, M
WALKER PASS CALIFORNIA, Kern, CA05, -118.057, 35.665, 5572, 75.5, M
WARM SPRINGS CALIFORNIA, Los Angeles, CA06, -118.579, 34.596, 4930, 75.9, M
WEED AIRPORT CALIFORNIA, Siskiyou, CA01, -122.454, 41.479, 2930, 73.5, M
WESTWOOD CALIFORNIA, Lassen, CA02, -120.900, 40.307, 5800, 67.2, M
WHITE CLOUD CALIFORNIA, Nevada, CA02, -120.837, 39.317, 4320, 73.1, M
WHITTIER HILLS CALIFORNIA, Los Angeles, CA06, -118.010, 33.984, 950, 75.7, M
WHITMORE CALIFORNIA, Shasta, CA02, -121.899, 40.619, 2417, 76.6, M
WILEY RIDGE CALIFORNIA, Ventura, CA06, -118.841, 34.372, 1645, 74.1, M
WOFFORD HEIGHTS CALIFORNIA, Kern, CA05, -118.499, 35.722, 3150, 77.0, M
WOLVERTON CALIFORNIA, Tulare, CA05, -118.703, 36.445, 5240, 74.6, M
WOODACRE CALIFORNIA, Marin, CA01, -122.645, 37.991, 1400, 67.5, M
WHITAKER PEAK CALIFORNIA, Los Angeles, CA06, -118.740, 34.569, 4120, 75.5, M
WHITE WOLF CALIFORNIA, Tuolumne, CA05, -119.650, 37.851, 8025, 58.4, M
YOLLA BOLLA CALIFORNIA, Trinity, CA01, -123.066, 40.338, 4524, 72.2, M
YUCCA VALLEY CALIFORNIA, San Bernardino, CA07, -116.408, 34.123, 3260, 79.4, M
YUROK CALIFORNIA, Humboldt, CA01, -123.857, 41.290, 495, 73.5, M
HAGAN'S MEADOW, El Dorado, CA03, -119.940, 38.850, 7776, 54.8, 2.30
BLUE LAKES, Alpine, CA05, -119.920, 38.610, 8057, 56.7, 0.40
POISON FLAT, Alpine, CA03, -119.630, 38.510, 7736, 55.6, 1.50
SONORA PASS, Mono, CA03, -119.600, 38.310, 8827, 55.7, 0.80
LEAVITT MEADOWS, Mono, CA03, -119.550, 38.300, 7198, 59.2, 1.40
VIRGINIA LAKES RIDGE, Mono, CA03, -119.230, 38.070, 9445, 56.2, 1.90
LOBDELL LAKE, Mono, CA03, -119.370, 38.440, 9233, 54.5, 1.50
EBBETTS PASS, Alpine, CA03, -119.800, 38.550, 8765, 56.7, 2.50
HEAVENLY VALLEY, El Dorado, CA03, -119.920, 38.920, 8582, 54.4, 1.60
LEAVITT LAKE, Mono, CA03, -119.610, 38.280, 9617, 54.4, 1.60
SPRATT CREEK, Alpine, CA03, -119.820, 38.670, 6115, 63.3, 0.50
MONITOR PASS, Alpine, CA03, -119.610, 38.670, 8310, 57.8, 1.10
BURNSIDE LAKE, Alpine, CA03, -119.890, 38.720, 8129, 53.0, 0.20
SUMMIT MEADOW, Mono, CA03, -119.540, 38.400, 9313, 55.0, 1.40
FORESTDALE CREEK, Alpine, CA03, -119.960, 38.680, 8017, 59.0, 0.70
HORSE MEADOW, Alpine, CA03, -119.890, 38.840, 8557, 56.4, 1.20
CARSON PASS, Alpine, CA02, -119.990, 38.690, 8353, 56.1, 1.00
CROWDER FLAT, Modoc, CA01, -120.750, 41.890, 5170, 64.2, 0.80
CEDAR PASS, Modoc, CA02, -120.300, 41.580, 7030, 61.8, 0.60
DISMAL SWAMP, Modoc, CA03, -120.180, 41.990, 7360, 56.6, 1.40
ADIN MTN, Modoc, CA02, -120.790, 41.240, 6190, 59.0, 0.20
INDEPENDENCE CREEK, Sierra, CA03, -120.280, 39.490, 6456, 57.7, 4.30
INDEPENDENCE CAMP, Sierra, CA03, -120.290, 39.450, 7003, 57.3, 2.20
INDEPENDENCE LAKE, Nevada, CA03, -120.310, 39.430, 8352, 58.2, 2.60
COLFAX 3.3 SW, Placer, CA02, -120.988, 39.056, 2113, M, 0.11
QUINCY 2.3 E, Plumas, CA02, -120.905, 39.938, 3473, M, 0.00
BENICIA 1.3 W, Solano, CA01, -122.178, 38.075, 304, M, 0.11
RED BLUFF 2.4 NE, Tehama, CA02, -122.205, 40.194, 275, M, 0.31
DAVIS 2.3 W, Yolo, CA02, -121.778, 38.559, 55, M, 0.03
COBB 0.8 S, Lake, CA02, -122.722, 38.826, 2515, M, 0.01
SAN DIEGO 10.6 NNW, San Diego, CA06, -117.209, 32.956, 282, M, 0.00
RANCHO PALOS VERDES 1.3 NNW, Los Angeles, CA06, -118.370, 33.775, 1014, M, 0.09
THOUSAND OAKS 2.7 NW, Ventura, CA06, -118.897, 34.222, 681, M, 0.05
STATE LINE, Modoc, CA01, -120.720, 41.990, 5680, 63.6, 1.50
TWAIN HARTE 1.6 SW, Tuolumne, CA05, -120.253, 38.024, 3231, M, 0.06
TUOLUMNE CITY 2.0 N, Tuolumne, CA05, -120.237, 37.992, 2915, M, 0.03
PLEASANT HILL 1.1 ENE, Contra Costa, CA04, -122.056, 37.959, 43, M, 0.07
WHITMORE 4.1 NNE, Shasta, CA02, -121.873, 40.680, 2693, M, 0.19
COLUMBIA 1.6 NW, Tuolumne, CA05, -120.425, 38.042, 2326, M, 0.04
TRUCKEE #2, Placer, CA03, -120.180, 39.300, 6509, 62.3, 2.40
WARD CREEK #3, Placer, CA03, -120.220, 39.140, 6655, 58.5, 0.50
TAHOE CITY CROSS, Placer, CA03, -120.150, 39.170, 6797, 61.0, 0.90
SQUAW VALLEY G.C., Placer, CA03, -120.260, 39.190, 8029, 57.9, 0.70
CSS LAB, Nevada, CA02, -120.370, 39.330, 6855, 59.8, 1.70
RUBICON #2, El Dorado, CA03, -120.130, 39.000, 7689, 60.2, 0.80
ECHO PEAK, El Dorado, CA03, -120.080, 38.850, 7670, 59.8, 0.40
FALLEN LEAF, El Dorado, CA03, -120.050, 38.930, 6236, 58.3, 1.70
BEAR VALLEY F.D., Kern, CA01, -118.644, 35.166, 4100, 65.0, 0.45
GRIDLEY 0.4 NNE, Butte, CA02, -121.693, 39.369, 86, M, 0.08
WASCO 0.8 SSW, Kern, CA05, -119.348, 35.583, 325, M, T
NEVADA CITY 1.7 SSE, Nevada, CA02, -121.006, 39.238, 3168, M, 0.08
LA MESA 2.6E, San Diego, CA06, -116.979, 32.770, 1014, M, 0.10
OAKLAND 5.0 NNE, Alameda, CA04, -122.198, 37.841, 1312, M, 0.00
BERKELEY 4.0 E, Alameda, CA04, -122.226, 37.857, 1148, M, 0.00
CHESTER 0.9 NNE, Plumas, CA02, -121.225, 40.311, 4532, M, 0.77
CARLSBAD 1.3ENE, San Diego, CA06, -117.331, 33.166, 194, M, 0.00
SAN MATEO 1.2 SW, San Mateo, CA04, -122.329, 37.550, 114, M, T
RED BLUFF 4.9 SE, Tehama, CA02, -122.175, 40.124, 265, M, 0.13
CRESCENT CITY 7.8 NNE, Del Norte, CA01, -124.144, 41.862, 95, M, 0.17
MISSION VIEJO 3.9 NNE, Orange, CA06, -117.626, 33.665, 1051, M, 1.48
RAMONA 3.8 ENE, San Diego, CA06, -116.809, 33.056, 2018, M, 0.07
BARSTOW 0.8 SSE, San Bernardino, CA07, -117.059, 34.867, 2609, M, 1.07
MCOLF CAMP PENDLETON RED BEACH AIRPORT, San Diego, -, -117.456, 33.286, 89, 71.3, 0.24
SOUTH LAKE F.S, Kern, CA05, -118.361, 35.647, 2654, 79.5, 0.41
CAMPO ASOS, San Diego, CA07, -116.468, 32.626, 2641, 72.2, 0.48
Burbank Glendale Pasadena Area, -, -, -, -, -, 76.6, 0.04
Camarillo Area, -, -, -, -, -, 71.8, 0.03
Needles Area, -, -, -, -, -, 92.6, 2.70
Oxnard Area, -, -, -, -, -, 68.6, 0.03
Palm Springs Area, -, -, -, -, -, 91.4, 0.88
Riverside Area, -, -, -, -, -, 79.4, 0.14
Ramona Area, -, -, -, -, -, 73.8, 0.25
Northern CA 8 Station Index, -, -, -, -, -, M, 0.64
San Joaquin 5 Station Index, -, -, -, -, -, M, 0.01
Tulare 6 Station Index, -, -, -, -, -, M, 0.17
CORNING 12.4 W, Tehama, CA02, -122.415, 39.930, 538, M, 0.10
BISHOP 1.6 NW, Inyo, CA07, -118.415, 37.385, 4183, M, 0.21
SMARTSVILLE 2.4 S, Yuba, CA02, -121.291, 39.173, 859, M, 0.02
Crescent City Area, -, -, -, -, -, 58.1, 0.04
Escondido Area, -, -, -, -, -, 77.6, 0.11
Sacramento Downtown Area, -, -, -, -, -, 77.0, 0.00
Tahoe City Area, -, -, -, -, -, 61.5, 0.89
Ukiah Area, -, -, -, -, -, 74.6, 0.01
Alturas Area, -, -, -, -, -, 67.2, 0.46
Mount Shasta Area, -, -, -, -, -, 69.1, 0.21
Palmdale Area, -, -, -, -, -, 80.5, 0.04
Lancaster Area, -, -, -, -, -, 79.7, 0.03
El Cajon Area, -, -, -, -, -, 77.5, 0.29
Hanford Area, -, -, -, -, -, 81.2, T
El Centro Area, -, -, -, -, -, 91.2, 1.53
Madera Area, -, -, -, -, -, 79.6, T
Merced Area, -, -, -, -, -, 80.0, T
San Jose Area, -, -, -, -, -, 69.5, T
STOCKTON 2.5 NE, San Joaquin, CA05, -121.366, 38.001, 1, M, 0.01
HALF MOON BAY 1.0 S, San Mateo, CA04, -122.438, 37.455, 65, M, 0.14
LAKE FOREST 1.0 S, Orange, CA06, -117.691, 33.632, 461, M, 0.05
SOLANA BEACH 1.5E, San Diego, CA06, -117.245, 32.991, 291, M, 0.17
MOUNT SHASTA 1.7 SSE, Siskiyou, CA02, -122.303, 41.299, 3593, M, 0.41
RED BLUFF 5.7 W, Tehama, CA02, -122.346, 40.161, 490, M, 0.05
VOLCANO 3.2 N, Amador, CA05, -120.631, 38.488, 2426, M, 0.10
CAMINO 2.0 WSW, El Dorado, CA02, -120.711, 38.734, 2910, M, T
POLLOCK PINES 1.9 WNW, El Dorado, CA02, -120.605, 38.758, 3849, M, 0.02
TRINIDAD 1.0 ENE, Humboldt, CA01, -124.124, 41.061, 287, M, 0.08
HYDESVILLE 11.4 NE, Humboldt, CA01, -123.924, 40.658, 2446, M, 0.00
SANTA CRUZ 6.3 NNE, Santa Cruz, CA04, -121.981, 37.057, 400, M, 0.03
MANTON 0.8 ENE, Tehama, CA02, -121.856, 40.438, 2113, M, 4.60
LOS MOLINOS 4.5 N, Tehama, CA02, -122.111, 40.092, 235, M, 0.00
RED BLUFF 19.0 SW, Tehama, CA02, -122.535, 40.016, 773, M, 0.11
WILLOW CREEK 4.9 NNE, Humboldt, CA01, -123.628, 40.947, 501, M, 0.00
PASADENA 1.8 E, Los Angeles, CA06, -118.107, 34.162, 911, M, 0.03
TORRANCE 0.7 E, Los Angeles, CA06, -118.328, 33.834, 92, M, 0.25
COARSEGOLD 0.8 WSW, Madera, CA05, -119.714, 37.258, 2296, M, 0.00
GARDEN GROVE 0.8 ESE, Orange, CA06, -117.946, 33.775, 85, M, 0.05
NORCO 1.7 W, Riverside, CA06, -117.582, 33.925, 626, M, 0.00
DESCANSO 3.7 NNW, San Diego, CA06, -116.626, 32.906, 3278, M, 0.86
ESCONDIDO 0.8 NNE, San Diego, CA06, -117.066, 33.147, 734, M, 0.11
EL CAJON 2.8SE, San Diego, CA06, -116.920, 32.772, 686, M, 0.19
OCEANSIDE 8.1ENE, San Diego, CA06, -117.256, 33.250, 189, M, 0.15
OCEANSIDE 2.2ENE, San Diego, CA06, -117.344, 33.205, 241, M, 0.00
SAN DIEGO 2NNE, San Diego, CA06, -117.150, 32.744, 295, M, 0.11
ESCONDIDO 2NNE, San Diego, CA06, -117.079, 33.147, 729, M, 0.00
SAN MARCOS 2.6W, San Diego, CA06, -117.211, 33.147, 657, M, 0.00
CARLSBAD 8.3SE, San Diego, CA06, -117.242, 33.079, 222, M, 0.24
ENCINITAS 3.33ESE, San Diego, CA06, -117.237, 33.049, 207, M, 0.21
BERKELEY 0.9 NE, Alameda, CA04, -122.287, 37.878, 89, M, 0.00
FREMONT 1.9 SE, Alameda, CA04, -121.969, 37.513, 32, M, 0.02
OROVILLE 4.6 ENE, Butte, CA02, -121.489, 39.531, 394, M, 0.25
CRESCENT CITY 10.6 NE, Del Norte, CA01, -124.064, 41.871, 1724, M, 0.06
EUREKA 1.2 E, Humboldt, CA01, -124.134, 40.796, 69, M, 0.02
SALINAS 3.2 NNW, Monterey, CA04, -121.656, 36.728, 105, M, 0.02
MEADOW VALLEY 5.6 WSW, Plumas, CA02, -121.100, 39.919, 4438, M, 1.10
SANTA MARIA 1.8 NE, Santa Barbara, CA06, -120.419, 34.959, 235, M, 0.00
MORGAN HILL 6.4 NE, Santa Clara, CA04, -121.546, 37.186, 2624, M, 0.00
SAN JOSE 1.9 SW, Santa Clara, CA04, -121.877, 37.288, 141, M, 0.01
SPRING VALLEY 0.9 W, San Diego, CA06, -117.004, 32.719, 339, M, 0.09
EL CAJON 3.2ESE, San Diego, CA06, -116.910, 32.780, 783, M, 0.29
VALLEY CENTER 6.4N, San Diego, CA06, -117.041, 33.311, 1357, M, 0.14
JOSHUA TREE 2.6 SE, San Bernardino, CA07, -116.289, 34.098, 3247, M, 0.25
HOLLISTER 0.3 WSW, San Benito, CA04, -121.403, 36.854, 326, M, 0.00
LOS MOLINOS 0.4 SE, Tehama, CA02, -122.092, 40.023, 227, M, 0.38
KNEELAND 3.5 SSE, Humboldt, CA01, -123.976, 40.711, 2050, M, T
ELK GROVE 3.5 NNW, Sacramento, CA02, -121.402, 38.444, 33, M, T
DESCANSO 0.8 N, San Diego, CA06, -116.618, 32.865, 3487, M, 1.23
BOULEVARD 4.4 WSW, San Diego, CA06, -116.348, 32.645, 3521, M, 0.37
WOODSIDE 3.4 S, San Mateo, CA04, -122.264, 37.375, 1592, M, T
YUCCA VALLEY 2.7 ENE, San Bernardino, CA07, -116.388, 34.129, 3257, M, 0.23
YUCAIPA 1.5 NNE, San Bernardino, CA06, -117.038, 34.054, 2776, M, 0.62
SANTA CRUZ 2.0 ENE, Santa Cruz, CA04, -122.001, 36.980, 73, M, 0.04
JACKSON 0.4 S, Amador, CA05, -120.772, 38.345, 1232, M, T
LA CRESCENTA-MONTROSE 1.6 WNW, Los Angeles, CA06, -118.261, 34.241, 1872, M, 0.03
SANTA MONICA 1.3 NNE, Los Angeles, CA06, -118.485, 34.032, 186, M, 0.04
CASPAR 1.4 ESE, Mendocino, CA01, -123.789, 39.361, 323, M, 0.20
CORONA 2.1 W, Riverside, CA06, -117.606, 33.865, 862, M, 0.08
LAKESIDE 4.1NNE, San Diego, CA06, -116.888, 32.909, 1679, M, 0.16
JOSHUA TREE 0.0 ESE, San Bernardino, CA07, -116.318, 34.127, 2883, M, 0.22
GERBER 3.5 SW, Tehama, CA02, -122.190, 40.021, 268, M, 0.21
CRESCENT CITY 2.1 N, Del Norte, CA01, -124.200, 41.785, 31, M, 0.07
SILVERADO 0.9 E, Orange, CA06, -117.622, 33.746, 1439, M, 0.10
CHULA VISTA 3.1ESE, San Diego, CA06, -117.031, 32.631, 330, M, 0.00
SAN DIEGO 1.5 WNW - KFMB, San Diego, CA06, -117.157, 32.827, 426, M, T
EL CERRITO 1.3 NW, Contra Costa, CA04, -122.316, 37.936, 258, M, 0.01
CULVER CITY 1.6 SSW, Los Angeles, CA06, -118.409, 33.986, 23, M, 0.04
SAN ANSELMO 2.0 NNW, Marin, CA01, -122.580, 38.010, 204, M, 0.00
ANAHEIM 7.3 E, Orange, CA06, -117.747, 33.852, 755, M, 0.11
LOS GATOS 9.6 SSE, Santa Clara, CA04, -121.890, 37.104, 2199, M, 0.01
SAN DIEGO 3.7 SW, San Diego, CA06, -117.188, 32.785, 312, M, 1.02
COTTONWOOD 3.2 WSW, Shasta, CA02, -122.339, 40.378, 460, M, 0.08
SAN LUIS OBISPO 2.2 NNW, San Luis Obispo, CA04, -120.681, 35.302, 324, M, T
CHICO 1.3 E, Butte, CA02, -121.782, 39.755, 362, M, 0.57
MOJAVE 6.9 SSW, Kern, CA07, -118.234, 34.962, 2900, M, 0.00
PALM DESERT 5.0 ENE, Riverside, CA07, -116.301, 33.771, 109, M, 0.20
RIO VISTA 8.5 S, Sacramento, CA05, -121.703, 38.050, 5, M, T
FOLSOM 0.5 W, Sacramento, CA02, -121.156, 38.675, 335, M, 0.01
REDDING 7.3 NE, Shasta, CA02, -122.255, 40.637, 682, M, 0.10
YUCCA VALLEY 1.1 SW, San Bernardino, CA07, -116.443, 34.100, 3628, M, 0.24
SAUSALITO 0.3 WNW, Marin, CA01, -122.497, 37.859, 159, M, 0.02