Name, County, ClimateDivision, Longitude, Latitude, Elevation, MeanAvgTemperature, TotalPrecipitation
EL CAPITAN DAM, San Diego, CA06, -116.815, 32.886, 600, 67.8, 1.21
LAKESIDE 2 E, San Diego, CA06, -116.895, 32.854, 690, M, 1.02
POWAY VALLEY, San Diego, CA06, -117.031, 33.020, 648, 63.6, 0.90
JULIAN CDF, San Diego, CA06, -116.592, 33.076, 4215, 52.8, 1.47
CARLSBAD MCCLELLAN PALOMAR AP, San Diego, CA06, -117.277, 33.130, 313, 62.3, 0.59
HENSHAW DAM, San Diego, CA06, -116.761, 33.237, 2700, 55.1, 0.58
VISTA, San Diego, CA06, -117.232, 33.235, 430, 61.7, 0.47
OCEANSIDE MARINA, San Diego, CA06, -117.395, 33.210, 10, 60.0, 0.22
NILAND, Imperial, CA07, -115.524, 33.278, -60, M, 0.00
BORREGO DESERT PARK, San Diego, CA07, -116.404, 33.256, 810, 72.9, 0.03
PALOMAR MTN OBSERVATORY, San Diego, CA06, -116.840, 33.378, 5550, 52.9, 1.70
MECCA FIRE STATION, Riverside, CA07, -116.073, 33.570, -183, 73.6, 0.50
LAGUNA BEACH, Orange, CA06, -117.781, 33.545, 44, M, 0.00
BLYTHE ASOS, Riverside, CA07, -114.715, 33.619, 395, 73.4, 0.14
DESERT RESORTS REGIONAL AP, Riverside, CA07, -116.164, 33.632, -118, 73.2, 0.35
SAN GABRIEL DAM FC425B-E, Los Angeles, CA06, -117.861, 34.205, 1481, M, 0.89
MT WILSON CBS, Los Angeles, CA06, -118.071, 34.231, 5710, 53.3, 1.68
VAN NUYS AP, Los Angeles, CA06, -118.491, 34.212, 785, 66.4, 0.18
CAMARILLO AP, Ventura, CA06, -119.088, 34.211, 71, 61.6, 0.57
OXNARD VENTURA COUNTY AP, Ventura, CA06, -119.204, 34.200, 39, 61.1, 0.48
PARKER RESRVOIR, San Bernardino, CA07, -114.171, 34.290, 738, 72.6, 0.19
TWENTYNINE PALMS MC, San Bernardino, CA07, -116.147, 34.294, 2003, M, 0.15
BIG BEAR LAKE, San Bernardino, CA06, -116.917, 34.243, 6753, 45.2, 1.09
CHATSWORTH FC 24 F, Los Angeles, CA06, -118.600, 34.250, 950, M, 0.29
BIG TUJUNGA DAM FC46, Los Angeles, CA06, -118.188, 34.295, 2326, M, 0.56
PACOIMA DAM FC33A-E, Los Angeles, CA06, -118.400, 34.329, 1550, M, 0.60
PIRU 2 ESE, Ventura, CA06, -118.757, 34.406, 712, M, 0.34
SANTA BARBARA MUNI AP, Santa Barbara, CA06, -119.842, 34.424, 8, 60.7, 0.54
JUNCAL DAM, Santa Barbara, CA06, -119.507, 34.491, 2260, M, 0.32
VICTORVILLE, San Bernardino, CA07, -117.293, 34.529, 2880, 60.3, 0.62
GIBRALTAR DAM NO. 2, Santa Barbara, CA06, -119.682, 34.523, 1558, 61.6, 0.27
AMBOY, San Bernardino, CA07, -115.744, 34.559, 648, 73.5, 0.29
PALMDALE, Los Angeles, CA07, -118.094, 34.588, 2612, 63.2, 0.14
SAUGUS POWER PLANT 1, Los Angeles, CA06, -118.454, 34.590, 2161, M, 0.29
LOS PRIETOS RS, Santa Barbara, CA06, -119.791, 34.544, 1024, M, 0.62
CACHUMA LAKE, Santa Barbara, CA06, -119.982, 34.582, 789, 64.0, 0.24
SALSIPUEDES GAGING STATION, Santa Barbara, CA06, -120.408, 34.585, 254, M, 0.75
PALMDALE AP, Los Angeles, CA07, -118.083, 34.629, 2509, 61.6, 0.19
LOMPOC, Santa Barbara, CA06, -120.451, 34.654, 75, 61.6, 0.85
LOMPOC AP, Santa Barbara, CA06, -120.467, 34.667, 88, 58.6, 0.30
LANCASTER, Los Angeles, CA06, -118.213, 34.741, 2338, 61.6, 0.15
SANDBERG, Los Angeles, CA06, -118.724, 34.744, 4510, 56.7, 0.47
LEBEC, Kern, CA05, -118.865, 34.833, 3575, 54.6, 0.57
NEW CUYAMA FIRE STATION, Santa Barbara, CA06, -119.683, 34.946, 2160, 58.6, 0.96
TWITCHELL DAM, Santa Barbara, CA06, -120.321, 34.988, 582, 52.6, 1.12
BORON, Kern, CA07, -117.650, 35.004, 2450, M, 0.19
MOJAVE, Kern, CA07, -118.162, 35.049, 2735, 61.5, 0.15
PISMO BEACH, San Luis Obispo, CA04, -120.683, 35.160, 39, 58.4, 0.15
TAFT, Kern, CA05, -119.430, 35.150, 773, M, 0.99
SALINAS DAM, San Luis Obispo, CA04, -120.504, 35.337, 1392, M, 0.20
RANDSBURG, Kern, CA07, -117.652, 35.369, 3570, 61.5, 0.49
SANTA MARGARITA BOOST, San Luis Obispo, CA04, -120.637, 35.374, 1148, M, 0.43
MORRO BAY FIRE DEPT, San Luis Obispo, CA04, -120.845, 35.367, 118, M, 0.22
BAKERSFIELD AP, Kern, CA05, -119.055, 35.434, 490, 66.9, 0.97
BUTTONWILLOW, Kern, CA05, -119.470, 35.403, 225, 64.7, 1.96
LOST HILLS, Kern, CA05, -119.689, 35.618, 288, M, 0.12
GLENNVILLE, Kern, CA05, -118.701, 35.727, 3140, 52.1, 2.71
TRONA, San Bernardino, CA07, -117.391, 35.764, 1695, 67.7, 0.60
DELANO, Kern, CA05, -119.260, 35.768, 302, 64.6, 0.48
BRADLEY TELEMETERING, Monterey, CA04, -120.868, 35.930, 443, M, 0.20
KETTLEMAN CITY, Kings, CA05, -119.960, 36.007, 240, 64.9, 0.35
HAIWEE, Inyo, CA07, -117.953, 36.139, 3825, 56.6, 0.25
CORCORAN IRRIGATION DIST., Kings, CA05, -119.582, 36.098, 200, 65.7, 0.38
COALINGA, Fresno, CA05, -120.361, 36.136, 670, 66.3, 0.63
KING CITY, Monterey, CA04, -121.138, 36.207, 320, 61.2, 0.35
LINDSAY, Tulare, CA05, -119.054, 36.203, 435, 63.8, 1.12
WESTHAVEN, Fresno, CA05, -119.997, 36.227, 285, M, 2.17
BIG SUR STATION, Monterey, CA04, -121.780, 36.247, 200, 58.2, 1.33
VISALIA, Tulare, CA05, -119.300, 36.328, 303, 63.7, 0.66
FIVE POINTS 5 SSW, Fresno, CA05, -120.156, 36.364, 285, 64.4, 0.62
SAN CLEMENTE DAM, Monterey, CA04, -121.709, 36.438, 600, M, 0.57
ASH MOUNTAIN, Tulare, CA05, -118.825, 36.491, 1708, 60.9, 1.39
THREE RIVERS EDISON PH 1, Tulare, CA05, -118.862, 36.465, 1140, 61.2, 1.32
PINNACLES NATIONAL PARK, San Benito, CA04, -121.182, 36.482, 1307, 58.3, 0.80
CARMEL VALLEY, Monterey, CA04, -121.724, 36.481, 480, 58.2, 0.61
LODGEPOLE, Tulare, CA05, -118.732, 36.604, 6735, 40.7, 3.66
PANOCHE 2 W, San Benito, CA05, -120.884, 36.607, 1400, M, 0.86
MONTEREY, Monterey, CA04, -121.855, 36.593, 122, 57.8, 0.73
SALINAS NO. 2, Monterey, CA04, -121.666, 36.659, 45, 59.5, 0.67
SALINAS AP, Monterey, CA04, -121.609, 36.664, 73, 59.7, 0.50
GRANT GROVE, Tulare, CA05, -118.962, 36.738, 6580, 44.5, 3.32
LOS BANOS ARBURUA RANCH, Merced, CA05, -120.939, 36.875, 843, M, 1.23
HOLLISTER 2, San Benito, CA04, -121.421, 36.848, 275, 59.4, 0.78
BALCH POWER HOUSE, Fresno, CA05, -119.088, 36.909, 1735, 60.9, 4.85
WATSONVILLE WATERWORKS, Santa Cruz, CA04, -121.769, 36.931, 95, 61.4, 0.85
FRIANT GOVERNMENT CAMP, Fresno, CA05, -119.707, 36.997, 410, 62.5, 2.52
MADERA, Madera, CA05, -120.038, 36.954, 270, 63.6, 3.14
WISHON DAM, Fresno, CA05, -118.984, 37.007, 6550, M, 2.41
GILROY, Santa Clara, CA04, -121.561, 37.003, 194, 60.4, 0.00
AUBERRY 2 NW, Fresno, CA05, -119.513, 37.092, 2090, 59.1, 2.95
LOS BANOS, Merced, CA05, -120.867, 37.056, 120, 64.5, 1.34
BEN LOMOND NO. 4, Santa Cruz, CA04, -122.080, 37.086, 420, 61.3, 1.32
MORGAN HILL, Santa Clara, CA04, -121.602, 37.136, 375, 67.0, 0.00
ASPENDELL, Inyo, CA01, -118.599, 37.232, 8470, 38.5, 0.63
HUNTINGTON LAKE, Fresno, CA05, -119.221, 37.228, 7020, M, 2.91
NORTH FORK RS, Madera, CA05, -119.510, 37.233, 2645, 53.8, 2.56
LOS GATOS, Santa Clara, CA04, -121.959, 37.232, 365, 60.7, 1.18
NEWMAN, Stanislaus, CA05, -121.018, 37.281, 90, 66.6, 2.06
MOUNT HAMILTON, Santa Clara, CA04, -121.635, 37.343, 4220, 50.8, 2.91
BISHOP AIRPORT, Inyo, CA07, -118.359, 37.371, 4110, 57.9, 1.04
MOFFETT FEDERAL AIRFIELD, Santa Clara, CA04, -122.048, 37.406, 39, 61.5, 1.41
TURLOCK #2, Stanislaus, CA05, -120.846, 37.502, 103, 66.5, 1.73
PALO ALTO, Santa Clara, CA04, -122.140, 37.444, 25, 59.5, 1.50
REDWOOD CITY, San Mateo, CA04, -122.239, 37.477, 31, 60.4, 0.69
HALF MOON BAY, San Mateo, CA04, -122.443, 37.473, 27, 56.0, 0.95
SO ENTRANCE YOSEMITE N.P., Mariposa, CA05, -119.633, 37.512, 5047, 45.9, 3.84
MARIPOSA R S, Mariposa, CA05, -119.986, 37.495, 2100, M, 2.87
NEWARK, Alameda, CA04, -122.032, 37.515, 10, 60.7, 1.38
EXCHEQUER DAM, Mariposa, CA05, -120.267, 37.585, 442, 64.5, 2.14
MODESTO AP, Stanislaus, CA05, -120.955, 37.625, 87, 64.9, 1.57
HAYWARD AIR TERMINAL, Alameda, CA04, -122.121, 37.659, 31, 61.6, 0.92
TRACY CARBONA, San Joaquin, CA05, -121.347, 37.682, 135, 62.3, 2.38
LIVERMORE MUNICIPAL AP, Alameda, CA04, -121.815, 37.693, 393, 60.4, 1.67
OAKLAND INTERNATIONAL AIRPORT, Alameda, CA04, -122.233, 37.718, 5, 61.5, 1.00
UPPER SAN LEANDRO FILTERS, Alameda, CA04, -122.167, 37.772, 394, M, 1.44
SAN FRANCISCO DOWNTOWN, San Francisco, CA04, -122.427, 37.771, 150, 59.6, 1.46
SAN FRANCISCO OCEANSIDE, San Francisco, CA04, -122.505, 37.728, 8, 57.5, 0.96
GROVELAND 2, Tuolumne, CA05, -120.226, 37.844, 2800, 54.2, 3.02
TRACY PUMPING PLANT, Alameda, CA05, -121.583, 37.796, 61, 64.4, 1.43
OAKLAND MUSEUM, Alameda, CA04, -122.264, 37.798, 30, 61.9, 1.12
TUOLUMNE MEADOWS R.S., Tuolumne, CA05, -119.344, 37.877, 8694, 35.5, 1.38
MOUNT DIABLO JUNCTION, Contra Costa, CA04, -121.930, 37.879, 2170, 56.4, 3.12
STOCKTON AP, San Joaquin, CA05, -121.226, 37.890, 27, 63.0, 2.83
CULVER CITY, Los Angeles, CA06, -118.414, 34.005, 92, 64.3, 0.25
SANTA MONICA MUNICIPAL AP, Los Angeles, CA06, -118.447, 34.021, 175, 63.6, 0.23
SANTA MONICA PIER, Los Angeles, CA06, -118.500, 34.008, 14, M, 0.00
ONTARIO INTL AP, San Bernardino, CA06, -117.577, 34.053, 924, 66.2, 0.29
POMONA/FAIRPLEX, Los Angeles, CA06, -117.766, 34.082, 999, 65.0, 0.18
COVINA CITY YARD FC387B, Los Angeles, CA06, -117.880, 34.092, 607, M, 0.70
U C L A, Los Angeles, CA06, -118.443, 34.070, 430, 64.7, 0.31
IRON MOUNTAIN, San Bernardino, CA07, -115.122, 34.147, 922, 74.0, 1.05
TWENTYNINE PALMS, San Bernardino, CA07, -116.037, 34.128, 1975, 69.2, 0.31
JOSHUA TREE, San Bernardino, CA07, -116.275, 34.147, 2563, 63.0, 0.89
SAN GABRIEL FIRE DEPT, Los Angeles, CA06, -118.100, 34.084, 363, M, 0.30
POINT MUGU NF, Ventura, CA06, -119.123, 34.124, 12, 57.8, 0.05
ALTADENA, Los Angeles, CA06, -118.138, 34.182, 1127, M, 0.80
SAN GABRIEL CANYON PH, Los Angeles, CA06, -117.908, 34.155, 744, M, 0.91
WOODLAND HILLS PIERCE COLLEGE, Los Angeles, CA06, -118.574, 34.182, 790, 65.6, 0.39
RICHMOND, Contra Costa, CA04, -122.377, 37.919, 20, 61.0, 1.45
MUIR WOODS, Marin, CA01, -122.569, 37.898, 220, 58.6, 2.25
HETCH HETCHY, Tuolumne, CA05, -119.783, 37.961, 3870, 54.4, 3.36
CHERRY VALLEY DAM, Tuolumne, CA05, -119.916, 37.975, 4765, 52.6, 2.90
SONORA, Tuolumne, CA05, -120.387, 37.967, 1675, 55.6, 2.12
STOCKTON FIRE STA 4, San Joaquin, CA05, -121.318, 37.999, 12, M, 2.04
ANTIOCH PUMPING PLANT #3, Contra Costa, CA05, -121.752, 37.983, 60, 63.8, 1.52
CONCORD BUCHANAN FIELD, Contra Costa, CA04, -122.053, 37.992, 23, 63.1, 1.05
CONCORD WASTEWATER PLANT, Contra Costa, CA04, -122.069, 37.983, 40, 63.2, 1.39
SAN RAFAEL-CIVIC CENTER, Marin, CA01, -122.537, 37.998, 120, 60.5, 0.80
KENTFIELD, Marin, CA01, -122.545, 37.957, 145, 60.4, 1.56
MARTINEZ WATER PLANT, Contra Costa, CA04, -122.114, 38.013, 40, 59.2, 1.05
SAN ANDREAS 2, Calaveras, CA05, -120.671, 38.191, 1100, 60.4, 2.71
BODIE CALIFORNIA STATE HISTORIC PARK, Mono, CA03, -119.014, 38.212, 8370, 37.8, 2.38
ACAMPO 5NE, San Joaquin, CA05, -121.201, 38.218, 87, M, 1.40
NAPA COUNTY AIRPORT, Napa, CA04, -122.280, 38.208, 16, 57.4, 0.94
BRIDGEPORT, Mono, CA03, -119.229, 38.258, 6470, 39.9, 1.59
CALAVERAS BIG TREES, Calaveras, CA05, -120.311, 38.277, 4695, 48.4, 3.39
CAMP PARDEE, Calaveras, CA05, -120.843, 38.249, 658, M, 2.70
TRAVIS FIELD AFB, Solano, CA02, -121.933, 38.267, 62, 61.8, 0.71
FAIRFIELD, Solano, CA02, -122.068, 38.274, 40, 62.3, 0.59
SONOMA, Sonoma, CA01, -122.462, 38.299, 97, 59.5, 1.38
SUTTER HILL CDF, Amador, CA05, -120.801, 38.377, 1586, 58.6, 3.01
WEST POINT, Calaveras, CA05, -120.545, 38.378, 2775, M, 3.59
ATLAS ROAD BROWN, Napa, CA01, -122.248, 38.427, 1680, M, 1.84
GRATON, Sonoma, CA01, -122.865, 38.431, 200, 59.4, 1.44
OCCIDENTAL, Sonoma, CA01, -122.966, 38.386, 865, 57.8, 1.96
FIDDLETOWN DEXTER RCH, Amador, CA05, -120.698, 38.525, 2170, M, 3.47
SACRAMENTO AP ASOS, Sacramento, CA02, -121.496, 38.507, 19, 63.0, 1.03
WINTERS, Yolo, CA02, -121.978, 38.525, 135, 63.4, 0.77
LAKE SOLANO, Solano, CA02, -122.004, 38.492, 187, 62.4, 0.56
SAINT HELENA, Napa, CA01, -122.471, 38.507, 225, 62.1, 1.36
SAINT HELENA 4 WSW, Napa, CA01, -122.538, 38.493, 1780, M, 2.68
FORT ROSS, Sonoma, CA01, -123.245, 38.515, 112, 55.0, 1.33
SACRAMENTO 5 ESE, Sacramento, CA02, -121.418, 38.555, 38, 64.5, 1.48
ANGWIN PACIFIC UNION COLLEGE, Napa, CA01, -122.440, 38.573, 1715, 57.6, 1.72
CALISTOGA, Napa, CA01, -122.578, 38.577, 350, 60.3, 1.69
VENADO, Sonoma, CA01, -123.018, 38.609, 1260, M, 2.08
WOODLAND 1 WNW, Yolo, CA02, -121.794, 38.683, 67, 65.3, 0.60
SACRAMENTO METROPOLITAN AP, Sacramento, CA02, -121.595, 38.701, 24, 62.0, 0.51
PACIFIC HOUSE, El Dorado, CA02, -120.503, 38.758, 3450, 52.3, 4.22
MIDDLETOWN, Lake, CA02, -122.626, 38.748, 1121, M, 1.10
CLOVERDALE, Sonoma, CA01, -123.026, 38.793, 400, 62.9, 0.18
KELSEY 1 N, El Dorado, CA02, -120.821, 38.809, 2000, M, 2.65
SOUTH LAKE TAHOE AP, El Dorado, CA03, -119.996, 38.898, 6257, 42.8, 2.68
GEORGETOWN RS, El Dorado, CA02, -120.801, 38.933, 3001, 55.0, 3.23
AUBURN, Placer, CA02, -121.084, 38.907, 1292, 60.0, 1.21
NICOLAUS #2, Sutter, CA02, -121.545, 38.926, 43, M, 0.50
YORKVILLE, Mendocino, CA01, -123.231, 38.905, 1100, M, 1.64
CLEARLAKE 4 SE, Lake, CA02, -122.567, 38.924, 1349, 57.2, 1.03
FORESTHILL RANGER STATION, Placer, CA02, -120.845, 39.010, 3015, M, 2.96
HELL HOLE, Placer, CA02, -120.415, 39.058, 4850, M, 1.43
MARYSVILLE AIRPORT (ASOS), Yuba, CA02, -121.569, 39.102, 62, 62.6, 0.49
UKIAH MUNICIPAL AP, Mendocino, CA01, -123.200, 39.128, 603, 58.8, 1.27
UKIAH 4 WSW, Mendocino, CA01, -123.272, 39.127, 1328, M, 2.02
GOLD RUN 4 SW, Placer, CA02, -120.900, 39.150, 3220, M, 2.88
WILLIAMS, Colusa, CA02, -122.150, 39.150, 85, M, 2.16
GRASS VALLEY NO. 2, Nevada, CA02, -121.068, 39.204, 2400, 55.0, 2.17
HARRY L. ENGLEBRIGHT DAM, Nevada, CA02, -121.267, 39.237, 800, M, 1.43
COLUSA 2 SSW, Colusa, CA02, -122.027, 39.188, 50, 64.1, 0.57
BLUE CANYON NYACK AP, Placer, CA02, -120.709, 39.276, 5286, 48.9, 4.34
NEVADA CITY, Nevada, CA02, -121.001, 39.247, 2781, 53.6, 2.50
TRUCKEE AIRPORT, Nevada, CA03, -120.139, 39.320, 5900, 42.9, 2.77
TRUCKEE RS, Nevada, CA03, -120.173, 39.333, 5823, M, 0.38
COLGATE POWERHOUSE, Yuba, CA02, -121.192, 39.331, 595, M, 1.54
MOULTON WEIR, Colusa, CA02, -122.017, 39.333, 76, M, 0.36
BOCA, Nevada, CA03, -120.094, 39.389, 5575, 45.0, 2.61
POTTER VALLEY POWERHOUSE, Mendocino, CA01, -123.129, 39.362, 1018, 58.4, 1.09
FARAD, Nevada, CA03, -120.033, 39.428, 5153, M, 2.69
BOWMAN DAM, Nevada, CA02, -120.656, 39.454, 5385, 48.6, 4.05
OROVILLE, Butte, CA02, -121.553, 39.518, 171, 63.4, 1.13
OROVILLE MUNICIPAL AP, Butte, CA02, -121.622, 39.494, 187, 63.4, 1.11
SIERRAVILLE RS, Sierra, CA02, -120.370, 39.583, 4975, 47.9, 2.06
DOWNIEVILLE, Sierra, CA02, -120.824, 39.563, 2915, 53.5, 3.20
STRAWBERRY VALLEY, Yuba, CA02, -121.108, 39.563, 3808, 51.8, 2.84
STONY GORGE RESERVOIR, Glenn, CA02, -122.534, 39.586, 800, 58.8, 0.51
BRUSH CREEK RANGER STATION, Butte, CA02, -121.345, 39.695, 3560, M, 2.86
PARADISE, Butte, CA02, -121.624, 39.754, 1750, 60.4, 3.02
VINTON, Plumas, CA02, -120.186, 39.806, 4950, 50.4, 1.87
PORTOLA, Plumas, CA02, -120.472, 39.805, 4850, 47.2, 1.76
DE SABLA, Butte, CA02, -121.611, 39.872, 2710, 56.5, 2.84
BUCKS CREEK, Plumas, CA02, -121.315, 39.937, 1891, M, 3.09
DOYLE 4 SSE, Lassen, CA03, -120.083, 39.972, 4390, 53.8, 1.12
DOYLE, Lassen, CA03, -120.105, 40.027, 4293, M, 0.63
CANYON DAM, Plumas, CA02, -121.089, 40.171, 4560, 48.8, 1.87
MIRANDA 4 SE, Humboldt, CA01, -123.776, 40.182, 266, M, 4.00
FORT SEWARD, Humboldt, CA01, -123.632, 40.218, 220, M, 2.80
HONEYDEW 1 SW, Humboldt, CA01, -124.132, 40.238, 373, M, 3.96
CHESTER, Plumas, CA02, -121.242, 40.303, 4530, 47.7, 2.14
MINERAL, Tehama, CA02, -121.609, 40.346, 4875, 40.2, 2.66
COLEMAN FISHERIES STATION, Shasta, CA02, -122.143, 40.400, 420, M, 1.93
VOLTA PH, Shasta, CA02, -121.866, 40.458, 2220, M, 2.38
SCOTIA, Humboldt, CA01, -124.104, 40.483, 136, 58.5, 2.74
MANZANITA LAKE, Shasta, CA02, -121.577, 40.541, 5750, 44.8, 3.94
WHISKEYTOWN RESERVOIR, Shasta, CA02, -122.528, 40.612, 1295, 60.6, 1.85
SHASTA DAM, Shasta, CA02, -122.416, 40.714, 1075, 62.8, 1.77
TRINITY RIVER HATCHERY, Trinity, CA01, -122.795, 40.726, 1861, 56.8, 1.75
BIG BAR 4 E, Trinity, CA01, -123.208, 40.741, 1253, 57.6, 1.79
BUCKHORN, Shasta, CA02, -121.932, 40.880, 3700, M, 2.79
HAT CREEK, Shasta, CA02, -121.543, 40.932, 3015, 53.2, 0.41
PIT RIVER PH 5, Shasta, CA02, -121.977, 40.987, 1458, M, 2.66
WILLOW CREEK 1 NW, Humboldt, CA01, -123.636, 40.947, 464, 57.5, 2.23
FALL RIVER MILLS, Shasta, CA02, -121.435, 41.008, 3300, M, 0.75
ADIN RANGER STATION, Modoc, CA02, -120.945, 41.193, 4202, M, 1.13
DUNSMUIR TREATMENT PL, Siskiyou, CA02, -122.282, 41.183, 2169, 54.5, 2.08
JESS VALLEY, Modoc, CA02, -120.295, 41.268, 5400, 45.9, 3.07
MCCLOUD, Siskiyou, CA02, -122.138, 41.252, 3233, 52.1, 1.89
ORICK, Humboldt, CA01, -124.067, 41.283, 5, M, 3.91
CALLAHAN, Siskiyou, CA01, -122.825, 41.338, 3085, 54.4, 1.68
SAWYERS BAR RS, Siskiyou, CA01, -123.133, 41.301, 2255, 57.8, 2.60
ORLEANS RS, Humboldt, CA01, -123.534, 41.303, 433, M, 2.51
ALTURAS, Modoc, CA02, -120.544, 41.490, 4378, 49.7, 1.30
FORT JONES RS, Siskiyou, CA01, -122.848, 41.601, 2729, 52.5, 1.10
LAVA BEDS NAT MON, Siskiyou, CA01, -121.501, 41.702, 4770, 48.5, 1.36
MOUNT HEBRON RS, Siskiyou, CA01, -122.045, 41.783, 4265, M, 0.09
CRESCENT CITY MCNAMARA AP, Del Norte, CA01, -124.238, 41.784, 56, 53.1, 2.74
OAK KNOLL W. C., Siskiyou, CA01, -122.850, 41.839, 1980, M, 1.22
FORT BIDWELL, Modoc, CA03, -120.157, 41.872, 4739, 50.6, 0.53
GASQUET RS, Del Norte, CA01, -123.965, 41.845, 387, M, 4.42
FORT DICK RIVER, Del Norte, CA01, -124.135, 41.881, -, M, 3.48
TULELAKE, Siskiyou, CA01, -121.474, 41.960, 4038, 50.5, 0.61
COPCO NO 1 DAM, Siskiyou, CA01, -122.338, 41.980, 2665, 55.4, 0.82
ELK VALLEY, Del Norte, CA01, -123.718, 41.988, 1708, M, 5.96
BARSTOW, San Bernardino, CA07, -117.022, 34.893, 2220, 64.8, 1.08
PEARBLOSSOM, Los Angeles, CA07, -117.897, 34.503, 3101, 62.0, 0.23
EL CAJON, San Diego, CA06, -116.928, 32.801, 495, 64.3, 0.69
MARKLEY COVE, Napa, CA02, -122.124, 38.492, 480, 59.8, 1.37
SUSANVILLE 2SW, Lassen, CA03, -120.663, 40.417, 4212, 51.4, 1.08
TEJON RANCHO, Kern, CA05, -118.750, 35.023, 1425, 63.8, 1.66
BURBANK GLENDALE PASADENA AP, Los Angeles, CA06, -118.365, 34.200, 731, 65.3, 0.30
SUTTER CREEK 0.1 WSW, Amador, CA05, -120.805, 38.390, 1266, M, 3.04
CHICO 2.9 W, Butte, CA02, -121.861, 39.749, 190, M, 0.96
CHICO 1.8 SW, Butte, CA02, -121.832, 39.737, 209, M, 1.03
MAGALIA 2.3 SE, Butte, CA02, -121.582, 39.804, 2327, M, 2.90
CHICO 5.5 NW, Butte, CA02, -121.891, 39.800, 191, M, 0.73
MORAGA 2.4 NNW, Contra Costa, CA04, -122.138, 37.870, 748, M, 1.72
SMITH RIVER 1.1 SSE, Del Norte, CA01, -124.136, 41.915, 120, M, 4.02
FORT DICK 0.2 SSW, Del Norte, CA01, -124.151, 41.865, 49, M, 3.75
CAMINO 2.6 ESE, El Dorado, CA02, -120.634, 38.719, 3108, M, 3.52
TOLLHOUSE 2.8 SSE, Fresno, CA05, -119.396, 36.978, 2111, M, 2.56
CLOVIS 1.3 NE, Fresno, CA05, -119.681, 36.833, 375, M, 1.73
FRESNO 2.4 NW, Fresno, CA05, -119.822, 36.805, 319, M, 1.09
SUSANVILLE 3.5 SSW, Lassen, CA03, -120.674, 40.363, 4347, M, 2.20
AHWAHNEE 2.5 NNW, Madera, CA05, -119.738, 37.400, 2840, M, 4.18
WESTPORT 1.6 NNE, Mendocino, CA01, -123.770, 39.657, 722, M, 2.63
ALBION 4.0 SE, Mendocino, CA01, -123.710, 39.188, 636, M, 2.12
LAYTONVILLE 9.8 NNW, Mendocino, CA01, -123.534, 39.814, 2078, M, 1.34
LUCAS VALLEY 0.7 SSW, Marin, CA01, -122.571, 38.027, 185, M, 0.00
FAIRFAX 0.6 SSE, Marin, CA01, -122.591, 37.981, 146, M, 1.58
MONTEREY 1.5 WSW, Monterey, CA04, -121.905, 36.590, 235, M, 0.71
ALTA SIERRA 2.3 WSW, Nevada, CA02, -121.089, 39.106, 1677, M, 1.32
GRASS VALLEY 4.2 SE, Nevada, CA02, -120.993, 39.186, 2784, M, 2.83
GRASS VALLEY 1.3 NNE, Nevada, CA02, -121.046, 39.238, 2782, M, 2.15
GRASS VALLEY 2.7 SW, Nevada, CA02, -121.092, 39.194, 2334, M, 1.83
ORANGE 3.0 ENE, Orange, CA06, -117.778, 33.826, 649, M, 0.41
ROCKLIN 1.1 N, Placer, CA02, -121.244, 38.818, 550, M, 1.29
ROSEVILLE 2.4 SE, Placer, CA02, -121.257, 38.740, 156, M, 1.26
APPLEGATE 0.5 SE, Placer, CA02, -120.986, 38.996, 1983, M, 1.98
MURRIETA 4.3 ENE, Riverside, CA06, -117.140, 33.584, 1312, M, 1.24
FAIR OAKS 1.9 N, Sacramento, CA02, -121.252, 38.676, 199, M, 1.37
MORGAN HILL 2.7 S, Santa Clara, CA04, -121.632, 37.092, 338, M, 0.81
SAN JOSE 5.8 NNE, Santa Clara, CA04, -121.824, 37.386, 293, M, 1.26
ENCINITAS 2.7N, San Diego, CA06, -117.292, 33.076, 188, M, 0.83
ESCONDIDO 7.2 SE, San Diego, CA06, -116.992, 33.056, 1585, M, 0.97
RAMONA 3ENE, San Diego, CA06, -116.828, 33.051, 2034, M, 0.37
RANCHO BERNARDO 1.9WSW, San Diego, CA06, -117.106, 33.014, 687, M, 1.18
SAN DIEGO 13.9N, San Diego, CA06, -117.163, 32.917, 406, M, 1.60
SAN FRANCISCO 3.0 W, San Francisco, CA04, -122.474, 37.778, 205, M, 1.46
SHINGLETOWN 10.3 ENE, Shasta, CA02, -121.701, 40.532, 4217, M, 2.70
REDDING 2.8 NW, Shasta, CA02, -122.401, 40.602, 661, M, 1.31
SHINGLETOWN 3.5 ENE, Shasta, CA02, -121.834, 40.519, 3796, M, 3.12
REDDING 1.6 W, Shasta, CA02, -122.395, 40.575, 635, M, 1.92
MOUNT SHASTA 5.1 NW, Siskiyou, CA02, -122.397, 41.364, 3911, M, 2.36
DORRIS 0.2 SW, Siskiyou, CA01, -121.923, 41.963, 4249, M, 0.76
TEMPLETON 5.5 WSW, San Luis Obispo, CA04, -120.804, 35.535, 1469, M, 0.36
HALF MOON BAY 0.7 NW, San Mateo, CA04, -122.445, 37.478, 36, M, 1.02
EL GRANADA 0.7 W, San Mateo, CA04, -122.479, 37.509, 78, M, 1.16
CAZADERO 6.9 WNW, Sonoma, CA01, -123.206, 38.565, 645, M, 2.18
CAZADERO 5.6 W, Sonoma, CA01, -123.189, 38.532, 1211, M, 2.17
GUERNEVILLE 2.0 SSW, Sonoma, CA01, -123.005, 38.485, 69, M, 1.66
GLEN ELLEN 1.9 NNW, Sonoma, CA01, -122.551, 38.382, 365, M, 1.47
RANCHO CUCAMONGA 1.6 W, San Bernardino, CA06, -117.598, 34.122, 1379, M, 0.67
BARSTOW 4.2 NE, San Bernardino, CA07, -117.018, 34.924, 2170, M, 0.79
FAWNSKIN 0.3 NE, San Bernardino, CA06, -116.938, 34.271, 7030, M, 1.06
SOQUEL 0.8 NE, Santa Cruz, CA04, -121.936, 37.002, 414, M, 0.82
RED BLUFF 6.0 W, Tehama, CA02, -122.352, 40.159, 418, M, 1.67
COTTONWOOD 7.7 SSW, Tehama, CA02, -122.333, 40.287, 635, M, 0.00
RED BLUFF 7.2 WNW, Tehama, CA02, -122.360, 40.224, 557, M, 1.58
RED BLUFF 1.1 S, Tehama, CA02, -122.236, 40.158, 323, M, 1.09
COTTONWOOD 4.4 ESE, Tehama, CA02, -122.201, 40.369, 567, M, 1.80
RED BLUFF 5.1 NNW, Tehama, CA02, -122.281, 40.242, 497, M, 1.79
COTTONWOOD 9.1 SW, Tehama, CA02, -122.378, 40.282, 639, M, 1.08
RED BLUFF 4.5 W, Tehama, CA02, -122.326, 40.171, 501, M, 1.57
COTTONWOOD 3.6 SSW, Tehama, CA02, -122.302, 40.341, 554, M, 1.22
MOUNT SHASTA, Siskiyou, CA02, -122.317, 41.322, 3613, 49.9, 2.09
WATSONVILLE MUNICIPAL AIRPORT, Santa Cruz, CA04, -121.790, 36.939, 162, 58.6, 0.63
SANTA ROSA SONOMA CO AP, Sonoma, CA04, -122.811, 38.504, 119, 59.3, 1.35
COARSEGOLD 4SE, Madera, CA05, -119.690, 37.212, 2218, M, 3.20
TWENTYNINE PALMS 12E - WONDER VALLEY, San Bernardino, CA07, -115.850, 34.121, 1376, 69.7, 0.38
MORONGO VALLEY NORTH, San Bernardino, CA07, -116.562, 34.086, 3145, 61.1, 0.70
SHAFTER 6E, Kern, CA05, -119.146, 35.487, 404, 63.9, 2.62
TRUCKEE-TAHOE AP, Nevada, CA03, -120.145, 39.318, 5900, 42.9, 2.77
DEEP CANYON LAB, Riverside, CA07, -116.376, 33.651, 1200, M, 0.14
ELSINORE, Riverside, CA06, -117.346, 33.686, 1268, 64.2, 0.28
SANTA ANA JOHN WAYNE AP, Orange, CA06, -117.867, 33.680, 43, 64.4, 0.19
HAYFIELD PUMPING PLANT, Riverside, CA07, -115.629, 33.704, 1370, 65.9, 0.93
IDYLLWILD FIRE DEPT, Riverside, CA06, -116.707, 33.757, 5380, 49.9, 1.48
SAN JACINTO, Riverside, CA06, -116.975, 33.797, 1525, 63.7, 0.28
HEMET, Riverside, CA06, -116.894, 33.738, 1811, 63.5, 0.31
SANTA ANA FIRE STATION, Orange, CA06, -117.867, 33.744, 135, 66.4, 0.15
EAGLE MOUNTAIN, Riverside, CA07, -115.451, 33.809, 973, 71.9, 0.31
PALM SPRINGS, Riverside, CA07, -116.510, 33.828, 425, M, 0.22
LONG BEACH DAUGHERTY AP, Los Angeles, CA06, -118.147, 33.812, 34, 65.7, 0.11
PALOS VERDES ES FC43D, Los Angeles, CA06, -118.391, 33.800, 220, M, 0.21
FULLERTON MUNICIPAL AP, Orange, CA06, -117.986, 33.872, 86, 67.0, 0.11
BEAUMONT #2, Riverside, CA07, -116.990, 33.926, 2591, M, 2.00
MARCH AFB, Riverside, CA06, -117.250, 33.900, 1536, 62.0, 0.96
YORBA LINDA, Orange, CA06, -117.819, 33.890, 350, M, 0.22
HAWTHORNE MUNICIPAL AP, Los Angeles, CA06, -118.333, 33.924, 55, 65.2, 0.16
LOS ANGELES INTL AP, Los Angeles, CA06, -118.387, 33.938, 97, 63.5, 0.29
RIVERSIDE FIRE STATION 3, Riverside, CA06, -117.388, 33.951, 840, 66.0, 0.44
RIVERSIDE MUNICIPAL AP, Riverside, CA06, -117.435, 33.953, 845, 66.4, 0.49
CHINO AP, San Bernardino, CA06, -117.625, 33.976, 636, 66.3, 0.13
REDONDO BEACH, Los Angeles, CA06, -118.376, 33.834, 142, 62.1, 0.18
GRAPEVINE CHP, Kern, CA05, -118.938, 34.961, 1358, M, 1.05
THREE RIVERS MUSEUM, Tulare, CA05, -118.896, 36.451, 856, M, 1.10
PACHECO PASS WIND FARM, Merced, CA05, -121.183, 37.033, 1448, M, 0.20
AVENAL T.E.S., Kings, CA05, -120.118, 35.998, 787, M, 0.33
OAKHURST MADERA SHERIFF STATION, Madera, CA05, -119.668, 37.341, 2363, M, 2.54
FRESNO 3NW, Madera, CA05, -119.801, 36.909, 380, M, 2.03
BURBANK VALLEY PUMP PLANT, Los Angeles, CA06, -118.348, 34.187, 655, 64.1, 0.28
PIEDMONT 1.0 SE, Alameda, CA04, -122.216, 37.812, 372, M, 1.55
CASTRO VALLEY 0.4 NNE, Alameda, CA04, -122.059, 37.717, 536, M, 2.00
PLEASANTON 1.8 SSE, Alameda, CA04, -121.875, 37.648, 351, M, 1.98
FREMONT 2.6 ESE, Alameda, CA04, -121.952, 37.515, 30, M, 2.24
PLEASANTON 0.4 ESE, Alameda, CA04, -121.881, 37.670, 344, M, 1.87
VOLCANO 5.4 NE, Amador, CA05, -120.560, 38.497, 3488, M, 4.30
VOLCANO 6.4 NE, Amador, CA05, -120.536, 38.499, 3659, M, 4.02
OROVILLE 2.7 ENE, Butte, CA02, -121.518, 39.514, 535, M, 1.02
MARTINEZ 0.8 SSE, Contra Costa, CA04, -122.108, 37.990, 252, M, 1.43
WALNUT CREEK 1.7 SSE, Contra Costa, CA04, -122.034, 37.878, 243, M, 1.24
LAFAYETTE 0.7 E, Contra Costa, CA04, -122.104, 37.894, 248, M, 1.70
LAFAYETTE 1.9 WSW, Contra Costa, CA04, -122.153, 37.888, 518, M, 1.72
MARTINEZ 2.2 SW, Contra Costa, CA04, -122.138, 37.974, 692, M, 1.55
ANTIOCH 2.2 WSW, Contra Costa, CA05, -121.838, 37.979, 178, M, 1.30
CONCORD 0.8 WNW, Contra Costa, CA04, -122.013, 37.978, 124, M, 1.53
WALNUT CREEK 1.4 SSE, Contra Costa, CA04, -122.028, 37.885, 277, M, 1.43
CRESCENT CITY 5.5 NNE, Del Norte, CA01, -124.148, 41.824, 65, M, 3.28
PLACERVILLE 3.7 SW, El Dorado, CA02, -120.849, 38.695, 1755, M, 3.45
CLOVIS 2.9 N, Fresno, CA05, -119.693, 36.861, 382, M, 1.99
TOLLHOUSE 6.2 SSE, Fresno, CA05, -119.359, 36.934, 1397, M, 2.30
SANGER 6.8 N, Fresno, CA05, -119.553, 36.798, 418, M, 1.22
HELM 2.7 NNE, Fresno, CA05, -120.089, 36.570, 183, M, 1.22
ARCATA 1.1 NE, Humboldt, CA01, -124.069, 40.881, 420, M, 3.49
MCKINLEYVILLE 2.7 SE, Humboldt, CA01, -124.084, 40.923, 325, M, 3.78
MCKINLEYVILLE 7.3 ESE, Humboldt, CA01, -123.998, 40.896, 366, M, 3.53
TRINIDAD 1.5 NNW, Humboldt, CA01, -124.152, 41.078, 201, M, 3.60
HONEYDEW 3.1 WNW, Humboldt, CA01, -124.182, 40.252, 316, M, 4.08
MCKINLEYVILLE 2.3 NE, Humboldt, CA01, -124.086, 40.978, 270, M, 3.69
FORTUNA 1.5 NW, Humboldt, CA01, -124.161, 40.600, 98, M, 3.30
REDWAY 4.8 WNW, Humboldt, CA01, -123.906, 40.139, 1820, M, 1.65
MIRANDA 4.1 SW, Humboldt, CA01, -123.894, 40.209, 539, M, 2.81
BAYVIEW 0.8 SE, Humboldt, CA01, -124.166, 40.756, 176, M, 3.51
FORTUNA 1.3 S, Humboldt, CA01, -124.136, 40.567, 195, M, 1.43
ARCATA 1.4 NNE, Humboldt, CA01, -124.072, 40.887, 289, M, 3.80
WILLOW CREEK 4.5 NNE, Humboldt, CA01, -123.624, 40.939, 655, M, 2.15
BRIDGEVILLE 5.2 ENE, Humboldt, CA01, -123.701, 40.473, 2675, M, 3.91
FORTUNA 0.1 NW, Humboldt, CA01, -124.141, 40.587, 65, M, 3.45
GARBERVILLE 2.2 SW, Humboldt, CA01, -123.824, 40.077, 415, M, 2.89
GARBERVILLE 2.9 SW, Humboldt, CA01, -123.830, 40.068, 389, M, 2.95
KNEELAND 4.8 WNW, Humboldt, CA01, -124.080, 40.790, 106, M, 2.80
EUREKA 2.2 S, Humboldt, CA01, -124.148, 40.764, 194, M, 3.35
SHELTER COVE 1.2 ENE, Humboldt, CA01, -124.052, 40.037, 1107, M, 1.13
BISHOP 8.5 WSW, Inyo, CA07, -118.540, 37.323, 6002, M, 0.96
BISHOP 1.7 NW, Inyo, CA07, -118.414, 37.388, 4181, M, 0.78
LEMOORE 0.9 ESE, Kings, CA05, -119.772, 36.293, 223, M, 0.48
LEMOORE 0.3 SW, Kings, CA05, -119.791, 36.295, 223, M, 0.42
HANFORD 3.6 N, Kings, CA05, -119.653, 36.377, 258, M, 0.56
HANFORD 1.7 WNW, Kings, CA05, -119.674, 36.335, 245, M, 0.50
INYOKERN 9.4 WSW, Kern, CA07, -117.978, 35.635, 4319, M, 0.56
FRAZIER PARK 0.6 WNW, Kern, CA05, -118.955, 34.827, 5023, M, 0.55
PINE MOUNTAIN CLUB 0.9 SSW, Kern, CA05, -119.163, 34.835, 6017, M, 0.24
ONYX 2.8 ENE, Kern, CA05, -118.174, 35.702, 3039, M, 0.27
GLENDALE 2.4 WSW, Los Angeles, CA06, -118.295, 34.169, 511, M, 0.28
TORRANCE 2.8 SW, Los Angeles, CA06, -118.337, 33.790, 200, M, 0.26
ALTADENA 0.7 ESE, Los Angeles, CA06, -118.124, 34.187, 1323, M, 0.79
MONTE NIDO 0.2 SSW, Los Angeles, CA06, -118.687, 34.079, 682, M, 0.40
SHERMAN OAKS 1.7 ENE, Los Angeles, CA06, -118.420, 34.154, 638, M, 0.21
WHITTIER 2.9 WNW, Los Angeles, CA06, -118.066, 33.986, 171, M, 0.20
REDONDO BEACH 2.6 S, Los Angeles, CA06, -118.377, 33.819, 117, M, 0.18
CANYON COUNTRY 2.6 E, Los Angeles, CA06, -118.427, 34.427, 1617, M, 0.34
ARCADIA 2.1 NNE, Los Angeles, CA06, -118.028, 34.162, 652, M, 1.35
LAKEPORT 4.5 N, Lake, CA02, -122.909, 39.107, 1437, M, 1.52
MIDDLETOWN 3.3 SSE, Lake, CA02, -122.603, 38.706, 1273, M, 1.78
LOWER LAKE 4.0 SE, Lake, CA02, -122.564, 38.865, 1585, M, 0.75
SUSANVILLE 3.2 SSW, Lassen, CA03, -120.674, 40.368, 4353, M, 2.13
OAKHURST 7.5 N, Madera, CA05, -119.632, 37.442, 4274, M, 2.61
UKIAH 8.4 NW, Mendocino, CA01, -123.331, 39.221, 2492, M, 2.22
BOONVILLE 2.2 WSW, Mendocino, CA01, -123.408, 39.006, 1061, M, 1.64
ELK 1.8 NNE, Mendocino, CA01, -123.706, 39.105, 147, M, 1.83
UKIAH 1.2 NW, Mendocino, CA01, -123.225, 39.158, 746, M, 1.56
UKIAH 0.6 ESE, Mendocino, CA01, -123.199, 39.141, 601, M, 1.37
REDWOOD VALLEY 1.5 ENE, Mendocino, CA01, -123.178, 39.272, 912, M, 1.76
UKIAH 4.3 S, Mendocino, CA01, -123.219, 39.083, 691, M, 1.53
LAYTONVILLE 1.1 SW, Mendocino, CA01, -123.490, 39.672, 1647, M, 2.40
POINT ARENA 4.8 ESE, Mendocino, CA01, -123.610, 38.883, 1048, M, 1.17
LEE VINING 5.9 NW, Mono, CA03, -119.170, 38.034, 7094, M, 1.36
MARIPOSA 3.7 NNW, Mariposa, CA05, -119.988, 37.540, 2942, M, 2.41
MARIPOSA 12.5 E, Mariposa, CA05, -119.742, 37.461, 2952, M, 3.70
LA GRANGE 7.8 ESE, Mariposa, CA05, -120.327, 37.635, 1114, M, 2.47
CATHEYS VALLEY 1.2 S, Mariposa, CA05, -120.100, 37.415, 1172, M, 2.68
WOODACRE 0.6 SW, Marin, CA01, -122.635, 38.005, 439, M, 1.87
SAN ANSELMO 1.2 NNW, Marin, CA01, -122.580, 37.997, 370, M, 1.67
NOVATO 4.8 WNW, Marin, CA01, -122.644, 38.106, 246, M, 1.12
SAN ANSELMO 0.4 NE, Marin, CA01, -122.564, 37.987, 107, M, 1.33
IGNACIO 0.6 SW, Marin, CA01, -122.546, 38.065, 57, M, 0.96
PETALUMA 10.1 W, Marin, CA01, -122.812, 38.248, 119, M, 1.03
TOMALES 1.3 ENE, Marin, CA01, -122.883, 38.251, 128, M, 1.35
MILL VALLEY 1.5 S, Marin, CA01, -122.544, 37.886, 209, M, 1.53
LOCKWOOD 3.6 NW, Monterey, CA04, -121.117, 35.981, 1181, M, 0.00
KING CITY 13.2 S, Monterey, CA04, -121.174, 36.025, 1104, M, 0.08
CASTROVILLE 1.6 ENE, Monterey, CA04, -121.728, 36.776, 18, M, 0.61
PACIFIC GROVE 1.5 SSW, Monterey, CA04, -121.932, 36.602, 280, M, 0.63
BIG SUR 4.0 SE, Monterey, CA04, -121.763, 36.224, 824, M, 0.56
BIG SUR 3.2 SE, Monterey, CA04, -121.769, 36.236, 739, M, 0.28
AROMAS 2.0 SSW, Monterey, CA04, -121.650, 36.850, 344, M, 1.01
CARMEL VALLEY VILLAGE 0.7 SSE, Monterey, CA04, -121.720, 36.476, 446, M, 0.47
CASTROVILLE 1.6 ENE, Monterey, CA04, -121.727, 36.777, 17, M, 0.57
MARINA 0.8 SSE, Monterey, CA04, -121.784, 36.673, 118, M, 0.38
BIG SUR 9.5 NNW, Monterey, CA04, -121.869, 36.398, 1100, M, 0.78
SALINAS 5.9 SSW, Monterey, CA04, -121.671, 36.604, 361, M, 0.72
CALISTOGA 0.4 SSE, Napa, CA01, -122.578, 38.576, 348, M, 1.65
ST. HELENA 1.1 S, Napa, CA01, -122.462, 38.489, 248, M, 1.46
AMERICAN CANYON 0.3 S, Napa, CA01, -122.260, 38.169, 37, M, 0.34
NEVADA CITY 3.4 NNW, Nevada, CA02, -121.040, 39.307, 2390, M, 1.83
KINGVALE 1.3 WSW, Nevada, CA02, -120.452, 39.317, 6035, M, 2.82
ALTA SIERRA 1.3 S, Nevada, CA02, -121.057, 39.104, 2154, M, 1.47
LAKE OF THE PINES 1.0 WSW, Nevada, CA02, -121.077, 39.032, 1576, M, 1.74
ALTA SIERRA 0.4 WSW, Nevada, CA02, -121.060, 39.120, 2303, M, 2.15
NEVADA CITY 5.4 W, Nevada, CA02, -121.121, 39.268, 1982, M, 1.63
ALTA SIERRA 1.4 SSW, Nevada, CA02, -121.058, 39.103, 2057, M, 1.90
ORANGE 3.5 ENE, Orange, CA06, -117.770, 33.829, 811, M, 0.33
SILVERADO 1.0 ESE, Orange, CA06, -117.620, 33.746, 1394, M, 0.66
COSTA MESA 1.6 SE, Orange, CA06, -117.892, 33.652, 71, M, 0.22
NEWPORT BEACH 3.1 ESE, Orange, CA06, -117.865, 33.589, 84, M, 0.37
MISSION VIEJO 1.3 SSE, Orange, CA06, -117.644, 33.595, 704, M, 0.33
ANAHEIM 4.9 ENE, Orange, CA06, -117.792, 33.863, 298, M, 0.29
SODA SPRINGS 1.5 SSW, Placer, CA02, -120.384, 39.302, 6887, M, 5.38
ROSEVILLE 4.7 WNW, Placer, CA02, -121.377, 38.780, 96, M, 0.63
PENRYN 0.4 SE, Placer, CA02, -121.158, 38.847, 610, M, 1.67
COLFAX 3.1 SW, Placer, CA02, -120.991, 39.061, 2077, M, 1.97
NEWCASTLE 1.6 SSE, Placer, CA02, -121.123, 38.851, 800, M, 1.76
LINCOLN 4.3 SSE, Placer, CA02, -121.284, 38.842, 172, M, 1.15
IDYLLWILD 1.8 NW, Riverside, CA06, -116.735, 33.763, 6325, M, 1.97
HEMET 4.1 ENE, Riverside, CA06, -116.920, 33.753, 1698, M, 0.39
CORONA 12.8 SE, Riverside, CA06, -117.428, 33.731, 1404, M, 0.45
LAKE ELSINORE 3.5 WSW, Riverside, CA06, -117.381, 33.657, 1356, M, 0.34
NORCO 1.2 S, Riverside, CA06, -117.548, 33.908, 661, M, 0.22
PERRIS 8.5 WNW, Riverside, CA06, -117.365, 33.826, 1639, M, 0.67
BEAUMONT 2.5 NW, Riverside, CA06, -117.012, 33.954, 2532, M, 2.06
RIVERSIDE 3.8 NW, Riverside, CA06, -117.454, 33.979, 841, M, 0.45
NORCO 2.3 SE, Riverside, CA06, -117.518, 33.906, 1091, M, 0.19
RIVERSIDE 2.6 E, Riverside, CA06, -117.353, 33.935, 1301, M, 0.89
CARMICHAEL 1.6 SW, Sacramento, CA02, -121.340, 38.617, 102, M, 0.74
SACRAMENTO 8.0 NE, Sacramento, CA02, -121.361, 38.635, 95, M, 1.47
CARMICHAEL 0.9 NE, Sacramento, CA02, -121.306, 38.643, 130, M, 1.01
CARMICHAEL 1.4 W, Sacramento, CA02, -121.345, 38.638, 109, M, 1.04
FOLSOM 1.2 SSE, Sacramento, CA02, -121.140, 38.660, 362, M, 1.60
CARMICHAEL 0.9 S, Sacramento, CA02, -121.319, 38.621, 108, M, 0.75
SACRAMENTO 2.0 SE, Sacramento, CA02, -121.437, 38.550, 34, M, 1.40
FOLSOM 0.6 NE, Sacramento, CA02, -121.138, 38.682, 399, M, 2.00
LA RIVIERA 1.0 NE, Sacramento, CA02, -121.340, 38.575, 64, M, 1.17
GOLETA 3.7 WNW, Santa Barbara, CA06, -119.896, 34.440, 158, M, 0.55
SANTA BARBARA 1.9 NE, Santa Barbara, CA06, -119.700, 34.450, 811, M, 0.13
MOUNTAIN VIEW 1.2 S, Santa Clara, CA04, -122.075, 37.385, 109, M, 1.66
SAN JOSE 4.6 S, Santa Clara, CA04, -121.836, 37.238, 158, M, 0.95
SUNNYVALE 1.9 SE, Santa Clara, CA04, -122.004, 37.365, 85, M, 1.24
SAN JOSE 5.4 SW, Santa Clara, CA04, -121.775, 37.305, 223, M, 1.63
MONTE SERENO 0.4 SSW, Santa Clara, CA04, -121.990, 37.232, 467, M, 1.77
SAN JOSE 4.6 NE, Santa Clara, CA04, -121.795, 37.354, 318, M, 1.76
SAN JOSE 2.7 SSW, Santa Clara, CA04, -121.876, 37.271, 162, M, 1.24
CAMBRIAN PARK 2.2 SE, Santa Clara, CA04, -121.897, 37.234, 252, M, 1.33
SAN JOSE 3.5 ENE, Santa Clara, CA04, -121.789, 37.319, 200, M, 1.69
SAN JOSE 2.3 SSW, Santa Clara, CA04, -121.866, 37.273, 161, M, 1.17
SARATOGA 0.5 N, Santa Clara, CA04, -122.023, 37.275, 373, M, 1.27
PALO ALTO 1.2 NE, Santa Clara, CA04, -122.149, 37.452, 32, M, 1.65
SAN JOSE 3.0 WSW, Santa Clara, CA04, -121.927, 37.309, 159, M, 1.50
SAN JOSE 6.2 W, Santa Clara, CA04, -121.961, 37.319, 139, M, 1.40
LOS GATOS 5.4 SSW, Santa Clara, CA04, -121.988, 37.156, 1662, M, 1.69
SAN MARCOS 2.5 ENE, San Diego, CA06, -117.132, 33.147, 666, M, 0.85
IMPERIAL BEACH 3.3 E, San Diego, CA06, -117.062, 32.574, 138, M, 0.82
OCEANSIDE 8.4NE, San Diego, CA06, -117.266, 33.270, 252, M, 0.67
EL CAJON 2.3ENE, San Diego, CA06, -116.925, 32.811, 610, M, 0.96
ENCINITAS 3.34ENE, San Diego, CA06, -117.237, 33.050, 193, M, 1.19
ESCONDIDO 5.2NNW, San Diego, CA06, -117.128, 33.185, 1474, M, 0.51
EL CAJON 1.5WSW, San Diego, CA06, -116.987, 32.791, 727, M, 0.82
ESCONDIDO 2.5 SSE, San Diego, CA06, -117.048, 33.106, 690, M, 1.08
POWAY 3.2NE, San Diego, CA06, -117.004, 32.996, 1206, M, 1.33
JAMUL 9.9ESE, San Diego, CA06, -116.706, 32.680, 2737, M, 1.31
BORREGO SPRINGS 2.4 WSW, San Diego, CA07, -116.390, 33.223, 777, M, 0.00
LA JOLLA 2.5SE, San Diego, CA06, -117.240, 32.825, 508, M, 0.02
CHULA VISTA 6.3E, San Diego, CA06, -116.975, 32.638, 555, M, 0.87
OCEANSIDE 5.6NE, San Diego, CA06, -117.313, 33.254, 60, M, 0.74
POWAY 1.4SW, San Diego, CA06, -117.059, 32.949, 444, M, 0.89
CARDIFF BY THE SEA 0.2 E, San Diego, CA06, -117.271, 33.027, 266, M, 0.83
CHULA VISTA 2.5SE, San Diego, CA06, -117.052, 32.617, 266, M, 0.92
PAUMA VALLEY 1.7 SE, San Diego, CA06, -116.957, 33.290, 1132, M, 0.89
SAN DIEGO 3.5NE, San Diego, CA06, -117.110, 32.747, 344, M, 0.86
SANTEE 1.8NW, San Diego, CA06, -116.996, 32.856, 470, M, 0.95
SAN DIEGO 7.9NE, San Diego, CA06, -117.073, 32.806, 242, M, 1.15
LA JOLLA 2.1 SE, San Diego, CA06, -117.250, 32.826, 491, M, 0.55
RANCHO BERNARDO 0.5SE, San Diego, CA06, -117.067, 33.018, 483, M, 1.88
VISTA 1.5NNW, San Diego, CA06, -117.254, 33.219, 417, M, 0.46
EL CAJON 2.3 S, San Diego, CA06, -116.959, 32.770, 738, M, 0.93
SAN DIEGO 9NE, San Diego, CA06, -117.059, 32.817, 292, M, 1.30
POWAY 4.7NNW, San Diego, CA06, -117.047, 33.026, 739, M, 1.73
SAN DIEGO COUNTRY ESTATES 1.5 WNW, San Diego, CA06, -116.807, 33.016, 1474, M, 1.69
SAN FRANCISCO 2.8 WNW, San Francisco, CA04, -122.470, 37.783, 173, M, 0.38
SAN FRANCISCO 1.1 SW, San Francisco, CA04, -122.435, 37.765, 194, M, 1.27
COTTONWOOD 0.5 NNE, Shasta, CA02, -122.276, 40.397, 452, M, 1.28
SHINGLETOWN 5.3 ENE, Shasta, CA02, -121.796, 40.524, 3964, M, 3.10
REDDING 2.7 NNW, Shasta, CA02, -122.380, 40.610, 708, M, 2.05
REDDING 7.9 NNE, Shasta, CA02, -122.291, 40.672, 681, M, 1.88
REDDING 3.7 N, Shasta, CA02, -122.358, 40.626, 618, M, 2.05
REDDING 3.6 N, Shasta, CA02, -122.354, 40.623, 604, M, 2.36
REDDING 4.1 N, Shasta, CA02, -122.358, 40.631, 616, M, 1.94
ANDERSON 2.6 NE, Shasta, CA02, -122.261, 40.478, 409, M, 1.74
LINDEN 5.8 ENE, San Joaquin, CA05, -121.008, 38.063, 146, M, 2.64
STOCKTON 5.8 NNE, San Joaquin, CA05, -121.255, 38.038, 35, M, 2.36
LODI 1.0 NNW, San Joaquin, CA05, -121.304, 38.136, 43, M, 2.18
STOCKTON 3.3 SE, San Joaquin, CA05, -121.259, 37.942, 23, M, 2.64
TRACY 2.1 W, San Joaquin, CA05, -121.470, 37.735, 52, M, 3.03
WEED 5.4 N, Siskiyou, CA01, -122.370, 41.495, 3064, M, 2.27
ETNA 3.9 NNW, Siskiyou, CA01, -122.923, 41.511, 2966, M, 1.53
BARSTOW-DAGGETT AIRPORT, San Bernardino, CA07, -116.787, 34.854, 1919, 67.2, 0.71
MERCED, Merced, CA05, -120.516, 37.289, 154, 61.1, 1.07
SAN DIEGO MONTGOMERY FIELD, San Diego, CA06, -117.137, 32.815, 418, 64.5, 0.88
SAN DIEGO INTERNATIONAL AP, San Diego, CA06, -117.183, 32.734, 15, 65.5, 0.55
SAN DIEGO MIRAMAR NAS, San Diego, CA06, -117.133, 32.867, 477, 65.3, 1.09
NORTH ISLAND NAS, San Diego, CA06, -117.210, 32.692, 14, 62.2, 0.78
SAN FRANCISCO INTERNATIONAL AP, San Mateo, CA04, -122.366, 37.620, 10, 60.3, 0.82
SAN LUIS OBISPO MCCHESNEY FIELD, San Luis Obispo, CA04, -120.644, 35.238, 183, 61.8, 0.21
CEDARVILLE, Modoc, CA03, -120.179, 41.530, 4688, 51.6, 1.05
CHICO UNIVERSITY FARM, Butte, CA02, -121.821, 39.691, 185, 63.1, 0.08
CHULA VISTA, San Diego, CA06, -117.086, 32.640, 56, 63.9, 0.88
COLFAX, Placer, CA02, -120.947, 39.090, 2373, 57.8, 2.39
CUYAMACA, San Diego, CA06, -116.587, 32.990, 4640, 51.0, 1.97
DAVIS 2 WSW EXP FARM, Yolo, CA02, -121.776, 38.535, 60, 62.4, 0.37
DEATH VALLEY NATIONAL PARK, Inyo, CA07, -116.867, 36.463, -194, 79.2, 0.64
FAIRMONT, Los Angeles, CA07, -118.430, 34.705, 3060, 61.1, 0.21
FORT BRAGG 5 N, Mendocino, CA01, -123.756, 39.510, 123, 54.2, 2.50
HANFORD 1 S, Kings, CA05, -119.637, 36.316, 237, 65.5, 0.57
HAPPY CAMP RANGER STATION, Siskiyou, CA01, -123.375, 41.796, 1142, 56.5, 1.09
INDIO FIRE STATION, Riverside, CA07, -116.215, 33.709, -21, 75.9, 0.10
LEMON COVE, Tulare, CA05, -119.026, 36.382, 513, 64.9, 0.88
LIVERMORE, Alameda, CA04, -121.751, 37.682, 529, 60.3, 2.14
MERCED MUNICIPAL AP, Merced, CA05, -120.518, 37.286, 152, 62.7, 3.59
NAPA STATE HOSPITAL, Napa, CA01, -122.265, 38.278, 35, 61.5, 1.00
OJAI, Ventura, CA06, -119.227, 34.448, 745, 60.2, 0.43
ORLAND, Glenn, CA02, -122.200, 39.746, 254, 64.3, 0.82
ORLEANS, Humboldt, CA01, -123.532, 41.309, 403, 59.7, 2.59
PASADENA, Los Angeles, CA06, -118.145, 34.148, 864, 65.7, 0.61
PASO ROBLES, San Luis Obispo, CA04, -120.685, 35.628, 730, 60.0, 0.15
PETALUMA AIRPORT, Sonoma, CA01, -122.608, 38.258, 20, 59.0, 1.05
QUINCY, Plumas, CA02, -120.947, 39.937, 3420, 51.0, 1.94
REDLANDS, San Bernardino, CA06, -117.195, 34.037, 1410, M, 1.11
SANTA BARBARA, Santa Barbara, CA06, -119.684, 34.417, 16, 64.4, 0.38
SANTA CRUZ, Santa Cruz, CA04, -122.000, 36.988, 70, 60.6, 0.89
TAHOE CITY, Placer, CA03, -120.143, 39.168, 6230, 42.9, 2.85
WASCO, Kern, CA05, -119.352, 35.589, 291, 66.8, 1.66
WEAVERVILLE, Trinity, CA01, -122.940, 40.737, 2058, 56.8, 1.50
WILLOWS 6 W, Glenn, CA02, -122.305, 39.523, 234, 63.6, 0.67
YOSEMITE PARK HEADQUARTERS, Mariposa, CA05, -119.590, 37.750, 4018, 53.0, 2.86
YREKA, Siskiyou, CA01, -122.641, 41.703, 2709, 55.4, 1.33
BERKELEY, Alameda, CA04, -122.260, 37.874, 310, 59.8, 1.82
BLYTHE, Riverside, CA07, -114.597, 33.613, 268, M, 0.00
EUREKA WFO WOODLEY ISLAND, Humboldt, CA01, -124.160, 40.810, 20, 54.5, 2.84
INDEPENDENCE, Inyo, CA07, -118.204, 36.798, 3950, 62.3, 0.29
SAN LUIS OBISPO POLY, San Luis Obispo, CA04, -120.662, 35.306, 308, 59.8, 0.25
IMPERIAL BEACH REAM FIELD NAS, San Diego, CA06, -117.117, 32.568, 24, 62.0, 0.51
CAMPO, San Diego, CA06, -116.470, 32.626, 2630, 56.5, 1.90
EL CENTRO 2 SSW, Imperial, CA07, -115.562, 32.767, -30, 71.7, 0.30
IMPERIAL COUNTY AP, Imperial, CA07, -115.577, 32.835, -55, 73.8, 0.16
EL CENTRO NAF, Imperial, CA07, -115.664, 32.832, -46, 74.4, 0.07
ALPINE, San Diego, CA06, -116.777, 32.836, 1695, 60.5, 1.07
BOULDER CREEK 3.0 NW, Santa Cruz, CA04, -122.164, 37.169, 875, M, 1.95
FELTON 4.5 NNE, Santa Cruz, CA04, -122.047, 37.105, 838, M, 1.22
RED BLUFF 4.3 W, Tehama, CA02, -122.322, 40.179, 396, M, 1.57
TERRA BELLA 6.3 W, Tulare, CA05, -119.149, 35.950, 374, M, 0.66
VISALIA 0.7 SSE, Tulare, CA05, -119.318, 36.315, 318, M, 0.70
DOUGLAS CITY 2.4 SW, Trinity, CA01, -122.978, 40.633, 1689, M, 1.47
HAWKINS BAR 0.6 NW, Trinity, CA01, -123.530, 40.877, 674, M, 2.07
MAD RIVER 7.4 SE, Trinity, CA01, -123.376, 40.321, 2762, M, 2.56
TRINITY CENTER 0.6 ESE, Trinity, CA01, -122.696, 40.983, 2427, M, 1.86
THOUSAND OAKS 2.1 WSW, Ventura, CA06, -118.898, 34.177, 692, M, 0.78
FRAZIER PARK 10.7 WSW, Ventura, CA06, -119.110, 34.746, 5274, M, 0.48
SIMI VALLEY 3.8 SW, Ventura, CA06, -118.805, 34.231, 1081, M, 0.60
OJAI 0.3 WNW, Ventura, CA06, -119.251, 34.451, 797, M, 0.49
SIMI VALLEY 1.0 NW, Ventura, CA06, -118.764, 34.272, 848, M, 0.30
CHALLENGE-BROWNSVILLE 1.3 WSW, Yuba, CA02, -121.280, 39.452, 2049, M, 1.63
DAVIS 1.2 SE, Yolo, CA02, -121.721, 38.543, 36, M, 0.46
DAVIS 0.8 NE, Yolo, CA02, -121.724, 38.562, 41, M, 0.52
DAVIS 1.4 SSE, Yolo, CA02, -121.722, 38.538, 4, M, 0.30
DAVIS 2.7 W, Yolo, CA02, -121.786, 38.552, 57, M, 0.46
WOODLAND 2.8 SE, Yolo, CA02, -121.732, 38.647, 38, M, 0.10
PLACERVILLE 3 ENE, El Dorado, CA02, -120.742, 38.785, 2658, 57.4, 3.04
TAHOMA, El Dorado, CA03, -120.129, 39.060, 6315, 38.7, 2.44
ORCHARD SUNFLOWER VALLEY, Kings, CA05, -120.103, 35.803, 753, M, 0.59
HURON - WOOLF FARM, Fresno, CA05, -120.122, 36.183, 404, M, 0.55
JAWBONE CANYON, Kern, CA07, -118.001, 35.302, 2161, M, 0.35
CORONA MUNICIPAL AIRPORT, Riverside, -, -117.602, 33.898, 533, 61.8, 0.21
OAKLAND 4.4 NNW, Alameda, CA04, -122.250, 37.832, 191, M, 1.40
SAN LORENZO 0.5 NNW, Alameda, CA04, -122.133, 37.682, 30, M, 0.25
OROVILLE 4.8 E, Butte, CA02, -121.477, 39.493, 668, M, 1.01
MCKINLEYVILLE 4.3 E, Humboldt, CA01, -124.034, 40.953, 173, M, 3.04
KNEELAND 0.4 NNW, Humboldt, CA01, -123.999, 40.766, 2008, M, 4.92
BISHOP 8.8 WNW, Inyo, CA07, -118.547, 37.411, 4537, M, 0.70
CLAREMONT 0.5 E, Los Angeles, CA06, -117.707, 34.121, 1465, M, 0.89
LANCASTER 6.5 ENE, Los Angeles, CA07, -118.066, 34.718, 2366, M, 0.07
CARLSBAD 2.2SE, San Diego, CA06, -117.321, 33.143, 22, M, 0.64
DESCANSO 0.3 WNW, San Diego, CA06, -116.621, 32.854, 3442, M, 2.09
SAN DIEGO 5.2WNW, San Diego, CA06, -117.245, 32.735, 251, M, 0.50
VISTA 1.2SE, San Diego, CA06, -117.231, 33.186, 505, M, 0.54
FORESTVILLE 0.7 SW, Sonoma, CA01, -122.897, 38.473, 201, M, 1.81
RIALTO 2.1 N, San Bernardino, CA06, -117.381, 34.144, 1482, M, 1.07
THREE RIVERS 1.7 NE, Tulare, CA05, -118.886, 36.458, 1010, M, 1.53
TRINITY CENTER 0.2 ENE, Trinity, CA01, -122.704, 40.986, 2481, M, 2.14
VERDI 2W, Sierra, CA03, -120.027, 39.521, 5429, 48.3, 2.80
PASADENA 2.0 SE, Los Angeles, CA06, -118.116, 34.139, 739, M, 0.57
RAYMOND 6.8 NE, Madera, CA05, -119.802, 37.272, 1802, M, 4.02
SUNNYVALE 3.6 S (W6NW), Santa Clara, CA04, -122.018, 37.334, 170, M, 1.26
PIONEER 6.4 NE, Amador, CA05, -120.499, 38.505, 4073, M, 3.41
CRESCENT CITY 4.2 NE, Del Norte, CA01, -124.143, 41.800, 98, M, 3.38
POLLOCK PINES 0.5 NW, El Dorado, CA02, -120.578, 38.757, 3895, M, 3.72
EUREKA 3.0 SSW, Humboldt, CA01, -124.181, 40.757, 100, M, 3.37
TEHACHAPI 2.2 W, Kern, CA05, -118.480, 35.132, 3945, M, 1.58
DIAMOND BAR 1.9 NNE, Los Angeles, CA06, -117.796, 34.023, 935, M, 0.69
YOSEMITE LAKES 4.7 S, Madera, CA05, -119.761, 37.124, 1598, M, 2.08
MARIPOSA 12.5 E, Mariposa, CA05, -119.740, 37.462, 2940, M, 3.78
BIG SUR 7.2 NNW, Monterey, CA04, -121.818, 36.353, 2434, M, 1.35
IRVINE 2.9 WSW, Orange, CA06, -117.838, 33.640, 193, M, 0.25
MISSION VIEJO 3.5 SSE(K6WTA), Orange, CA06, -117.639, 33.563, 613, M, 0.31
IRVINE 4.1 NNE, Orange, CA06, -117.772, 33.718, 152, M, 0.12
ANAHEIM 4.9 E, Orange, CA06, -117.787, 33.847, 374, M, 0.38
LOS ALTOS HILLS 1.3 N, Santa Clara, CA04, -122.135, 37.387, 194, M, 1.59
CHULA VISTA 3.1SE, San Diego, CA06, -117.051, 32.604, 200, M, 0.87
CONVERSE CALIFORNIA, San Bernardino, CA06, -116.913, 34.194, 5618, 49.3, M
COOSKIE MOUNTAIN CALIFORNIA, Humboldt, CA01, -124.266, 40.257, 2950, 50.9, M
CORRALITOS CALIFORNIA, Santa Cruz, CA04, -121.798, 36.991, 450, 59.3, M
COUNTY LINE CALIFORNIA, Lake, CA02, -122.412, 39.019, 2085, 59.5, M
CAMP 9 CALIFORNIA, Los Angeles, CA06, -118.422, 34.362, 4000, 53.3, M
CRANE FLAT LOOKOUT CALIFORNIA, Mariposa, CA05, -119.825, 37.762, 6644, 47.0, M
CRESTVIEW CALIFORNIA, Mono, CA07, -118.983, 37.745, 7600, 41.1, M
CORNING CALIFORNIA, Tehama, CA02, -122.170, 39.939, 294, 64.0, M
CARPENTER RIDGE CALIFORNIA, Butte, CA02, -121.582, 40.069, 4812, 50.8, M
CRANSTON CALIFORNIA, Riverside, CA06, -116.841, 33.740, 1950, 63.4, M
CASHMAN CALIFORNIA, Plumas, CA02, -120.915, 40.002, 4520, 53.1, M
DESCANSO CALIFORNIA, San Diego, CA06, -116.622, 32.857, 3480, 54.5, M
DEVILS GARDEN CALIFORNIA, Modoc, CA02, -120.671, 41.530, 5022, 48.7, M
DIABLO GRANDE CALIFORNIA, Stanislaus, CA05, -121.294, 37.329, 1850, 59.9, M
DEMOCRAT CALIFORNIA, Kern, CA05, -118.630, 35.532, 2356, 59.2, M
DINKEY CALIFORNIA, Fresno, CA05, -119.039, 37.066, 5668, 44.4, M
DOG VALLEY CALIFORNIA, Sierra, CA03, -120.048, 39.562, 5976, 45.9, M
DOYLE CALIFORNIA, Lassen, CA03, -120.106, 40.022, 4240, 52.3, M
DEL VALLE CALIFORNIA, Los Angeles, CA06, -118.683, 34.431, 1278, 64.8, M
DEVORE CALIFORNIA, San Bernardino, CA06, -117.404, 34.221, 2057, 62.6, M
EAGLE PEAK CALIFORNIA, Tehama, CA02, -122.657, 39.928, 3713, 55.0, M
EEL RIVER CAMP CALIFORNIA, Humboldt, CA01, -123.824, 40.138, 446, 57.5, M
EEL RIVER CALIFORNIA, Mendocino, CA01, -123.083, 39.833, 1500, 57.5, M
EL CARISO CALIFORNIA, Riverside, CA06, -117.411, 33.647, 3038, 61.8, M
MOUNT ELIZABETH CALIFORNIA, Tuolumne, CA05, -120.247, 38.063, 4933, 52.5, M
FANCHER CREEK CALIFORNIA, Fresno, CA05, -119.466, 36.884, 920, 64.6, M
FAWNSKIN CALIFORNIA, San Bernardino, CA06, -116.899, 34.266, 6900, 44.2, M
FENCE MEADOW CALIFORNIA, Fresno, CA05, -119.175, 36.961, 5048, 52.4, M
FORT HUNTER LIGGET CALIFORNIA, Monterey, CA04, -121.242, 36.012, 1100, 58.5, M
FIGUEROA CALIFORNIA, Santa Barbara, CA06, -120.007, 34.733, 3200, 58.7, M
FISH CREEK MTN CALIFORNIA, Imperial, CA07, -116.067, 32.990, 760, 75.8, M
FIVE MILE CALIFORNIA, Inyo, CA07, -117.918, 35.872, 4150, 63.4, M
FORESTHILL CALIFORNIA, Placer, CA02, -120.732, 39.091, 4355, 53.8, M
FOUNTAIN SPRINGS CALIFORNIA, Tulare, CA05, -118.915, 35.892, 210, 62.1, M
FREMONT CANYON CALIFORNIA, Orange, CA06, -117.711, 33.808, 1781, 64.2, M
FRIEND MOUNTAIN CALIFORNIA, Trinity, CA01, -123.342, 40.505, 4000, 51.5, M
GRASSHOPPER CALIFORNIA, Lassen, CA03, -120.784, 40.782, 6158, 44.6, M
GOOSE VALLEY CALIFORNIA, San Diego, CA06, -116.846, 33.074, 1530, 62.6, M
GORDON CALIFORNIA, Lassen, CA03, -120.896, 40.759, 6200, 44.4, M
GREEN SPRING CALIFORNIA, Tuolumne, CA05, -120.500, 37.833, 1020, 60.3, M
HASTINGS CALIFORNIA, Monterey, CA04, -121.552, 36.389, 1885, 55.8, M
HAWKEYE CALIFORNIA, Sonoma, CA01, -122.917, 38.782, 2000, 57.1, M
HAYFORK CALIFORNIA, Trinity, CA01, -123.165, 40.550, 2323, 54.6, M
HELL HOLE CALIFORNIA, Placer, CA02, -120.422, 39.072, 5240, 50.1, M
HERNANDEZ CALIFORNIA, San Benito, CA04, -120.856, 36.383, 3733, 55.1, M
HIGH GLADE LOOKOUT CALIFORNIA, Lake, CA02, -122.808, 39.208, 4840, 51.1, M
HIGH SIERRA CALIFORNIA, Fresno, CA05, -119.038, 37.315, 7403, 44.3, M
HOPLAND CALIFORNIA, Mendocino, CA01, -123.081, 39.031, 2682, 55.6, M
HOLLISTER CALIFORNIA, San Benito, CA04, -121.362, 36.842, 404, 59.5, M
HUNTER MOUNTAIN CALIFORNIA, Inyo, CA07, -117.474, 36.563, 6880, 48.5, M
HORSE LAKE CALIFORNIA, Lassen, CA03, -120.503, 40.631, 5100, 47.2, M
HOOPA CALIFORNIA, Humboldt, CA01, -123.671, 41.048, 375, 59.0, M
HORSE THIEF SPRINGS CALIFORNIA, San Bernardino, CA07, -115.909, 35.771, 5000, 56.6, M
HURLEY CALIFORNIA, Fresno, CA05, -119.568, 37.015, 1201, 59.1, M
INDIAN WELL CALIFORNIA, Siskiyou, CA01, -121.538, 41.742, 4770, 49.9, M
JARBO GAP CALIFORNIA, Butte, CA02, -121.489, 39.736, 2490, 58.6, M
JERSEYDALE CALIFORNIA, Mariposa, CA05, -119.839, 37.544, 3900, 55.1, M
JOHNSONDALE CALIFORNIA, Tulare, CA05, -118.545, 35.972, 4700, 49.0, M
JUANITA LAKE CALIFORNIA, Siskiyou, CA01, -122.006, 41.786, 5400, 49.5, M
JULIAN CALIFORNIA, San Diego, CA07, -116.591, 33.076, 4240, 53.2, M
JUNIPER CREEK CALIFORNIA, Modoc, CA02, -120.472, 41.332, 4372, 48.8, M
KEENWILD CALIFORNIA, Riverside, CA06, -116.767, 33.667, 4920, 53.1, M
KETTLEMAN HILLS CALIFORNIA, Kings, CA05, -120.057, 36.033, 810, 66.4, M
KNOXVILLE CREEK CALIFORNIA, Lake, CA02, -122.417, 38.862, 2200, 57.5, M
KONOCTI CALIFORNIA, Lake, CA02, -122.706, 38.912, 2163, 58.0, M
LOS BANOS CALIFORNIA, Merced, CA05, -121.053, 37.055, 350, 64.3, M
MT. LAGUNA CALIFORNIA, San Diego, CA07, -116.420, 32.880, 5760, 48.0, M
LA HONDA CALIFORNIA, San Mateo, CA04, -122.255, 37.305, 872, 56.4, M
LA PANZA CALIFORNIA, San Luis Obispo, CA04, -120.187, 35.381, 1630, 57.8, M
LAURAL MOUNTAIN CALIFORNIA, Kern, CA07, -117.699, 35.478, 4390, 59.3, M
LASSEN LODGE CALIFORNIA, Tehama, CA02, -121.714, 40.344, 4159, 53.7, M
LAUFMAN CALIFORNIA, Lassen, CA03, -120.353, 40.142, 5800, 50.4, M
LAYTONVILLE CALIFORNIA, Mendocino, CA01, -123.485, 39.702, 1820, 56.0, M
LADDER BUTTE CALIFORNIA, Lassen, CA02, -121.297, 40.807, 5750, 47.1, M
LEO CARRILLO CALIFORNIA, Los Angeles, CA06, -118.936, 34.046, 50, 61.8, M
LOS GATOS CALIFORNIA, Santa Clara, CA04, -121.943, 37.203, 2000, 57.9, M
LOST HORSE CALIFORNIA, Riverside, CA07, -116.188, 34.018, 4200, 56.5, M
LINCOLN CALIFORNIA, Placer, CA02, -121.268, 38.883, 200, 62.3, M
LOWER KLAMATH CALIFORNIA, Siskiyou, CA01, -121.700, 41.999, 4098, 49.3, M
LOS PRIETOS CALIFORNIA, Santa Barbara, CA06, -119.783, 34.536, 1020, 62.1, M
LAS TABLAS CALIFORNIA, San Luis Obispo, CA04, -120.924, 35.656, 994, 57.1, M
LITTLE TUJUNGA CALIFORNIA, Los Angeles, CA06, -118.361, 34.294, 1390, 63.0, M
SANTA ROSA ISLAND CALIFORNIA, Santa Barbara, CA06, -120.078, 33.978, 1298, 56.6, M
SANTA ROSA PLATEAU CALIFORNIA, Riverside, CA06, -117.231, 33.529, 1980, 62.3, M
SANTA ROSA CALIFORNIA, Sonoma, CA01, -122.712, 38.479, 576, 60.3, M
STAMPEDE CALIFORNIA, Sierra, CA03, -120.075, 39.483, 6867, 44.3, M
STONYFORD CALIFORNIA, Colusa, CA02, -122.575, 39.367, 1200, 58.9, M
SUGARLOAF (SHF) CALIFORNIA, Shasta, CA02, -122.438, 40.917, 4200, 56.1, M
SPRING VALLEY CALIFORNIA, San Mateo, CA04, -122.436, 37.563, 1075, 56.0, M
TANBARK CALIFORNIA, Los Angeles, CA06, -117.761, 34.207, 2600, 59.2, M
TEMESCAL (LPF) CALIFORNIA, Ventura, CA06, -118.756, 34.481, 1140, 62.9, M
THOMES CREEK CALIFORNIA, Tehama, CA02, -122.610, 39.864, 1040, 63.3, M
TIMBER MOUNTAIN CALIFORNIA, Modoc, CA01, -121.298, 41.629, 4960, 49.3, M
MOUNT TOM CALIFORNIA, Fresno, CA05, -119.178, 37.376, 9018, 39.4, M
TRINITY CAMP CALIFORNIA, Trinity, CA01, -122.804, 40.786, 3308, 53.8, M
TRIMMER CALIFORNIA, Fresno, CA05, -119.305, 36.911, 1540, 61.1, M
UHL / HOT SPRINGS, Tulare, CA05, -118.633, 35.889, 3720, 53.5, M
UNDERWOOD CALIFORNIA, Trinity, CA01, -123.495, 40.722, 2600, 55.1, M
VALLEY CENTER CALIFORNIA, San Diego, CA06, -117.009, 33.237, 1483, 62.0, M
VAN BREMMER CALIFORNIA, Siskiyou, CA01, -121.794, 41.643, 4928, 48.8, M
VALYERMO CALIFORNIA, Los Angeles, CA07, -117.851, 34.446, 3780, 57.5, M
VANDENBERG CALIFORNIA, Santa Barbara, CA06, -120.486, 34.759, 1050, 55.0, M
WALKER CALIFORNIA, Mono, CA03, -119.459, 38.565, 5440, 51.5, M
WALKER PASS CALIFORNIA, Kern, CA05, -118.057, 35.665, 5572, 55.1, M
WARM SPRINGS CALIFORNIA, Los Angeles, CA06, -118.579, 34.596, 4930, 61.0, M
WEED AIRPORT CALIFORNIA, Siskiyou, CA01, -122.454, 41.479, 2930, 54.7, M
WESTWOOD CALIFORNIA, Lassen, CA02, -120.900, 40.307, 5800, 46.4, M
WHITE CLOUD CALIFORNIA, Nevada, CA02, -120.837, 39.317, 4320, 53.9, M
WHITTIER HILLS CALIFORNIA, Los Angeles, CA06, -118.010, 33.984, 950, 64.5, M
WHITMORE CALIFORNIA, Shasta, CA02, -121.899, 40.619, 2417, 58.1, M
WILEY RIDGE CALIFORNIA, Ventura, CA06, -118.841, 34.372, 1645, 62.7, M
WOFFORD HEIGHTS CALIFORNIA, Kern, CA05, -118.499, 35.722, 3150, 56.9, M
WOLVERTON CALIFORNIA, Tulare, CA05, -118.703, 36.445, 5240, 52.2, M
WOODACRE CALIFORNIA, Marin, CA01, -122.645, 37.991, 1400, 57.7, M
WHITAKER PEAK CALIFORNIA, Los Angeles, CA06, -118.740, 34.569, 4120, 57.4, M
WHITE WOLF CALIFORNIA, Tuolumne, CA05, -119.650, 37.851, 8025, 41.3, M
YOLLA BOLLA CALIFORNIA, Trinity, CA01, -123.066, 40.338, 4524, 52.2, M
YUCCA VALLEY CALIFORNIA, San Bernardino, CA07, -116.408, 34.123, 3260, 60.9, M
YUROK CALIFORNIA, Humboldt, CA01, -123.857, 41.290, 495, 59.2, M
HAGAN'S MEADOW, El Dorado, CA03, -119.940, 38.850, 7776, 40.2, 3.70
BLUE LAKES, Alpine, CA05, -119.920, 38.610, 8057, 38.0, 3.00
POISON FLAT, Alpine, CA03, -119.630, 38.510, 7736, 39.4, 3.00
SONORA PASS, Mono, CA03, -119.600, 38.310, 8827, 37.9, 3.30
LEAVITT MEADOWS, Mono, CA03, -119.550, 38.300, 7198, 42.5, 2.90
VIRGINIA LAKES RIDGE, Mono, CA03, -119.230, 38.070, 9445, 37.7, 2.90
LOBDELL LAKE, Mono, CA03, -119.370, 38.440, 9233, 36.2, 4.80
EBBETTS PASS, Alpine, CA03, -119.800, 38.550, 8765, 39.0, 4.00
HEAVENLY VALLEY, El Dorado, CA03, -119.920, 38.920, 8582, 38.5, 4.10
LEAVITT LAKE, Mono, CA03, -119.610, 38.280, 9617, 36.3, 3.70
SPRATT CREEK, Alpine, CA03, -119.820, 38.670, 6115, 45.8, 2.00
MONITOR PASS, Alpine, CA03, -119.610, 38.670, 8310, 40.7, 2.80
BURNSIDE LAKE, Alpine, CA03, -119.890, 38.720, 8129, 37.0, 3.50
SUMMIT MEADOW, Mono, CA03, -119.540, 38.400, 9313, 36.7, 3.50
FORESTDALE CREEK, Alpine, CA03, -119.960, 38.680, 8017, 40.7, 3.50
HORSE MEADOW, Alpine, CA03, -119.890, 38.840, 8557, 38.6, 3.10
CARSON PASS, Alpine, CA02, -119.990, 38.690, 8353, 39.0, 3.70
CROWDER FLAT, Modoc, CA01, -120.750, 41.890, 5170, 47.2, 0.70
CEDAR PASS, Modoc, CA02, -120.300, 41.580, 7030, 42.7, 3.80
DISMAL SWAMP, Modoc, CA03, -120.180, 41.990, 7360, 40.0, 3.80
ADIN MTN, Modoc, CA02, -120.790, 41.240, 6190, 42.0, 2.10
INDEPENDENCE CREEK, Sierra, CA03, -120.280, 39.490, 6456, 42.5, 2.90
INDEPENDENCE CAMP, Sierra, CA03, -120.290, 39.450, 7003, 41.0, 3.00
INDEPENDENCE LAKE, Nevada, CA03, -120.310, 39.430, 8352, 39.6, 3.80
TRUCKEE #2, Placer, CA03, -120.180, 39.300, 6509, 44.9, 2.90
WARD CREEK #3, Placer, CA03, -120.220, 39.140, 6655, 42.8, 3.80
TAHOE CITY CROSS, Placer, CA03, -120.150, 39.170, 6797, 43.4, 3.20
SQUAW VALLEY G.C., Placer, CA03, -120.260, 39.190, 8029, 40.0, 3.40
CSS LAB, Nevada, CA02, -120.370, 39.330, 6855, 43.3, 4.10
RUBICON #2, El Dorado, CA03, -120.130, 39.000, 7689, 41.7, 3.30
ECHO PEAK, El Dorado, CA03, -120.080, 38.850, 7670, 41.6, 4.70
FALLEN LEAF, El Dorado, CA03, -120.050, 38.930, 6236, 43.2, 2.90
BEAR VALLEY F.D., Kern, CA01, -118.644, 35.166, 4100, 49.1, 4.12
GRIDLEY 0.4 NNE, Butte, CA02, -121.693, 39.369, 86, M, 0.61
WASCO 0.8 SSW, Kern, CA05, -119.348, 35.583, 325, M, 2.18
NEVADA CITY 1.7 SSE, Nevada, CA02, -121.006, 39.238, 3168, M, 2.62
LA MESA 2.6E, San Diego, CA06, -116.979, 32.770, 1014, M, 0.81
BERKELEY 4.0 E, Alameda, CA04, -122.226, 37.857, 1148, M, 1.84
CHESTER 0.9 NNE, Plumas, CA02, -121.225, 40.311, 4532, M, 1.92
CARLSBAD 1.3ENE, San Diego, CA06, -117.331, 33.166, 194, M, 0.40
SAN MATEO 1.2 SW, San Mateo, CA04, -122.329, 37.550, 114, M, 1.01
RED BLUFF 4.9 SE, Tehama, CA02, -122.175, 40.124, 265, M, 1.98
CHICO 0.2 ESE, Butte, CA02, -121.803, 39.753, 257, M, 1.40
CRESCENT CITY 7.8 NNE, Del Norte, CA01, -124.144, 41.862, 95, M, 3.45
MISSION VIEJO 3.9 NNE, Orange, CA06, -117.626, 33.665, 1051, M, 0.37
ANDERSON 8.5 WNW, Shasta, CA02, -122.452, 40.475, 819, M, 1.63
STOCKTON 2.5 NE, San Joaquin, CA05, -121.366, 38.001, 1, M, 0.25
HALF MOON BAY 1.0 S, San Mateo, CA04, -122.438, 37.455, 65, M, 1.17
LAKE FOREST 1.0 S, Orange, CA06, -117.691, 33.632, 461, M, 0.24
RED BLUFF 5.7 W, Tehama, CA02, -122.346, 40.161, 490, M, 1.48
VOLCANO 3.2 N, Amador, CA05, -120.631, 38.488, 2426, M, 3.66
CHICO 1.1 SSE, Butte, CA02, -121.798, 39.739, 248, M, 1.44
CAMINO 2.0 WSW, El Dorado, CA02, -120.711, 38.734, 2910, M, 3.63
TRINIDAD 1.0 ENE, Humboldt, CA01, -124.124, 41.061, 287, M, 4.11
HYDESVILLE 11.4 NE, Humboldt, CA01, -123.924, 40.658, 2446, M, 3.74
BENICIA 1.0 N, Solano, CA01, -122.157, 38.086, 246, M, 1.13
SANTA CRUZ 6.3 NNE, Santa Cruz, CA04, -121.981, 37.057, 400, M, 1.22
LOS MOLINOS 4.5 N, Tehama, CA02, -122.111, 40.092, 235, M, 0.90
RED BLUFF 19.0 SW, Tehama, CA02, -122.535, 40.016, 773, M, 0.70
WILLOW CREEK 4.9 NNE, Humboldt, CA01, -123.628, 40.947, 501, M, 2.32
PASADENA 1.8 E, Los Angeles, CA06, -118.107, 34.162, 911, M, 0.70
TORRANCE 0.7 E, Los Angeles, CA06, -118.328, 33.834, 92, M, 0.30
COARSEGOLD 0.8 WSW, Madera, CA05, -119.714, 37.258, 2296, M, 1.91
GARDEN GROVE 0.8 ESE, Orange, CA06, -117.946, 33.775, 85, M, 0.09
NORCO 1.7 W, Riverside, CA06, -117.582, 33.925, 626, M, 0.28
DESCANSO 3.7 NNW, San Diego, CA06, -116.626, 32.906, 3278, M, 1.75
ESCONDIDO 0.8 NNE, San Diego, CA06, -117.066, 33.147, 734, M, 0.34
EL CAJON 2.8SE, San Diego, CA06, -116.920, 32.772, 686, M, 0.85
OCEANSIDE 8.1ENE, San Diego, CA06, -117.256, 33.250, 189, M, 0.49
SAN MARCOS 2.6W, San Diego, CA06, -117.211, 33.147, 657, M, 0.49
CARLSBAD 8.3SE, San Diego, CA06, -117.242, 33.079, 222, M, 0.79
ENCINITAS 3.33ESE, San Diego, CA06, -117.237, 33.049, 207, M, 1.14
OROVILLE 4.6 ENE, Butte, CA02, -121.489, 39.531, 394, M, 0.98
SALINAS 3.2 NNW, Monterey, CA04, -121.656, 36.728, 105, M, 0.73
MEADOW VALLEY 5.6 WSW, Plumas, CA02, -121.100, 39.919, 4438, M, 2.89
SANTA MARIA 1.8 NE, Santa Barbara, CA06, -120.419, 34.959, 235, M, 0.08
MORGAN HILL 6.4 NE, Santa Clara, CA04, -121.546, 37.186, 2624, M, 1.71
SAN JOSE 1.9 SW, Santa Clara, CA04, -121.877, 37.288, 141, M, 0.30
SPRING VALLEY 0.9 W, San Diego, CA06, -117.004, 32.719, 339, M, 0.79
EL CAJON 3.2ESE, San Diego, CA06, -116.910, 32.780, 783, M, 1.03
VALLEY CENTER 6.4N, San Diego, CA06, -117.041, 33.311, 1357, M, 0.67
JOSHUA TREE 2.6 SE, San Bernardino, CA07, -116.289, 34.098, 3247, M, 0.77
HOLLISTER 0.3 WSW, San Benito, CA04, -121.403, 36.854, 326, M, 0.85
LOS MOLINOS 5.8 N, Tehama, CA02, -122.084, 40.111, 259, M, 0.75
KNEELAND 3.5 SSE, Humboldt, CA01, -123.976, 40.711, 2050, M, 4.39
ELK GROVE 3.5 NNW, Sacramento, CA02, -121.402, 38.444, 33, M, 0.00
DESCANSO 0.8 N, San Diego, CA06, -116.618, 32.865, 3487, M, 1.62
BOULEVARD 4.4 WSW, San Diego, CA06, -116.348, 32.645, 3521, M, 1.10
WOODSIDE 3.4 S, San Mateo, CA04, -122.264, 37.375, 1592, M, 2.27
YUCCA VALLEY 2.7 ENE, San Bernardino, CA07, -116.388, 34.129, 3257, M, 0.75
YUCAIPA 1.5 NNE, San Bernardino, CA06, -117.038, 34.054, 2776, M, 2.01
SANTA CRUZ 2.0 ENE, Santa Cruz, CA04, -122.001, 36.980, 73, M, 0.72
JACKSON 0.4 S, Amador, CA05, -120.772, 38.345, 1232, M, 2.98
LA CRESCENTA-MONTROSE 1.6 WNW, Los Angeles, CA06, -118.261, 34.241, 1872, M, 0.68
SANTA MONICA 1.3 NNE, Los Angeles, CA06, -118.485, 34.032, 186, M, 0.16
CASPAR 1.4 ESE, Mendocino, CA01, -123.789, 39.361, 323, M, 3.15
LAKESIDE 4.1NNE, San Diego, CA06, -116.888, 32.909, 1679, M, 1.15
JOSHUA TREE 0.0 ESE, San Bernardino, CA07, -116.318, 34.127, 2883, M, 0.95
GERBER 3.5 SW, Tehama, CA02, -122.190, 40.021, 268, M, 1.22
CRESCENT CITY 2.1 N, Del Norte, CA01, -124.200, 41.785, 31, M, 2.90
SILVERADO 0.9 E, Orange, CA06, -117.622, 33.746, 1439, M, 0.43
EL CERRITO 1.3 NW, Contra Costa, CA04, -122.316, 37.936, 258, M, 1.67
MCKINLEYVILLE 2.1 NE, Humboldt, CA01, -124.088, 40.975, 270, M, 3.48
CULVER CITY 1.6 SSW, Los Angeles, CA06, -118.409, 33.986, 23, M, 0.28
SAN ANSELMO 2.0 NNW, Marin, CA01, -122.580, 38.010, 204, M, 1.58
ANAHEIM 7.3 E, Orange, CA06, -117.747, 33.852, 755, M, 0.17
LOS GATOS 9.6 SSE, Santa Clara, CA04, -121.890, 37.104, 2199, M, 1.96
COTTONWOOD 3.2 WSW, Shasta, CA02, -122.339, 40.378, 460, M, 1.55
SAN LUIS OBISPO 2.2 NNW, San Luis Obispo, CA04, -120.681, 35.302, 324, M, 0.20
ADELANTO 3.1 S, San Bernardino, CA07, -117.433, 34.525, 3085, M, 0.09
CHICO 1.3 E, Butte, CA02, -121.782, 39.755, 362, M, 1.56
MOJAVE 6.9 SSW, Kern, CA07, -118.234, 34.962, 2900, M, 0.65
PALM DESERT 5.0 ENE, Riverside, CA07, -116.301, 33.771, 109, M, 0.18
FOLSOM 0.5 W, Sacramento, CA02, -121.156, 38.675, 335, M, 0.00
REDDING 7.3 NE, Shasta, CA02, -122.255, 40.637, 682, M, 2.43
LANCASTER 3.9 ESE, Los Angeles, CA07, -118.110, 34.680, 2429, M, T
SAUSALITO 0.3 WNW, Marin, CA01, -122.497, 37.859, 159, M, 1.43
NOVATO 1.2 SW, Marin, CA01, -122.570, 38.079, 228, M, 2.36
SAN RAFAEL 4.6 NNW, Marin, CA01, -122.543, 38.041, 195, M, 1.08
SALINAS 2.7 WSW, Monterey, CA04, -121.681, 36.670, 38, M, 0.55
SALYER 1.1 E, Trinity, CA01, -123.561, 40.890, 762, M, 1.91
LOS GATOS 5.6 S, Santa Clara, CA04, -121.978, 37.151, 1439, M, 1.64
FRESNO 5.9 NNE, Fresno, CA05, -119.741, 36.856, 364, M, 1.28
SEBASTOPOL 1.4 WSW, Sonoma, CA01, -122.850, 38.392, 178, M, 1.52
OAKLAND 1.2 ENE, Alameda, CA04, -122.203, 37.778, 116, M, 1.28
BANGOR 0.4 N, Butte, CA02, -121.405, 39.395, 820, M, 1.24
ARNOLD 3.2 ENE, Calaveras, CA05, -120.312, 38.242, 4036, M, 3.34
WILSEYVILLE 2.2 E, Calaveras, CA05, -120.473, 38.380, 3027, M, 3.39
ARCATA 0.9 WNW, Humboldt, CA01, -124.097, 40.872, 15, M, 4.32
WHITETHORN 1.7 NNW, Humboldt, CA01, -123.959, 40.045, 967, M, 4.02
BISHOP 1.7 SW, Inyo, CA07, -118.415, 37.347, 4221, M, 0.75
SANTA CLARITA 1.4 ESE, Los Angeles, CA06, -118.487, 34.406, 1561, M, 0.24
ALTADENA 1.9 ESE, Los Angeles, CA06, -118.105, 34.179, 1089, M, 0.97
WILLITS 20.4 E, Lake, CA01, -122.969, 39.436, 1922, M, 1.60
FORT BRAGG 4.0 NNE, Mendocino, CA01, -123.785, 39.499, 85, M, 0.00
MARINA 0.8 SSE, Monterey, CA04, -121.784, 36.673, 136, M, 0.59
CARMEL VALLEY VILLAGE 12.2 SE, Monterey, CA04, -121.577, 36.354, 3084, M, 1.71
PORTOLA HILLS 1.4 E, Orange, CA06, -117.607, 33.684, 1544, M, 0.73
TRABUCO CANYON 0.2 N, Orange, CA06, -117.589, 33.665, 1052, M, 0.56
ROCKLIN 2.5 W, Placer, CA02, -121.286, 38.809, 130, M, 1.22
MURRIETA 3.6 NNE, Riverside, CA06, -117.188, 33.608, 1723, M, 1.84
SACRAMENTO 4.3 ENE, Sacramento, CA02, -121.394, 38.591, 52, M, 1.29
SANTA BARBARA 4.7 WNW, Santa Barbara, CA06, -119.799, 34.453, 129, M, 0.56
RANCHO BERNARDO 1.7W, San Diego, CA06, -117.105, 33.026, 625, M, 1.16
ESCONDIDO 4.0 SSW, San Diego, CA06, -117.093, 33.082, 762, M, 1.74
VISTA 3.4ENE, San Diego, CA06, -117.172, 33.241, 891, M, 0.35
BORREGO SPRINGS 7.1SE, San Diego, CA07, -116.279, 33.193, 574, M, 0.09
SHINGLETOWN 2.5 E, Shasta, CA02, -121.843, 40.499, 3643, M, 3.08
SAN MATEO 0.8 NE, San Mateo, CA04, -122.301, 37.568, 5, M, 0.96
PACIFICA 1.9 S, San Mateo, CA04, -122.479, 37.584, 297, M, 1.03
CAZADERO 1.3 SSE, Sonoma, CA01, -123.078, 38.515, 179, M, 1.41
KENWOOD 1.4 NNW, Sonoma, CA01, -122.551, 38.435, 490, M, 1.26
SEBASTOPOL 4.7 W, Sonoma, CA01, -122.912, 38.390, 599, M, 1.41
SONOMA 0.4 SSE, Sonoma, CA01, -122.456, 38.286, 79, M, 1.49
SANTA ROSA 6.7 WSW, Sonoma, CA01, -122.821, 38.426, 86, M, 0.82
SANTA ROSA 2.1 NNE, Sonoma, CA01, -122.690, 38.478, 643, M, 1.57
BARSTOW 0.8 SSE, San Bernardino, CA07, -117.059, 34.867, 2609, M, 0.73
SAN BERNARDINO 5.1 NW, San Bernardino, CA06, -117.350, 34.195, 1735, M, 0.92
HESPERIA 3.6 SSW, San Bernardino, CA07, -117.335, 34.375, 3545, M, 0.34
MODESTO 4.1 NW, Stanislaus, CA05, -121.057, 37.693, 78, M, 2.01
APTOS 1.4 N, Santa Cruz, CA04, -121.901, 37.012, 601, M, 0.91
SANTA CRUZ 5.7 N, Santa Cruz, CA04, -122.033, 37.056, 353, M, 1.04
WATSONVILLE 1.0 N, Santa Cruz, CA04, -121.766, 36.934, 106, M, 1.16
COTTONWOOD 7.8 SW, Tehama, CA02, -122.368, 40.299, 690, M, 0.96
SONORA 3.4 E, Tuolumne, CA05, -120.319, 37.985, 2538, M, 3.15
DAVIS 1.7 SE, Yolo, CA02, -121.711, 38.541, 54, M, 0.47
MCOLF CAMP PENDLETON RED BEACH AIRPORT, San Diego, -, -117.456, 33.286, 89, 61.9, 0.23
SOUTH LAKE F.S, Kern, CA05, -118.361, 35.647, 2654, 57.7, 0.33
CAMPO ASOS, San Diego, CA07, -116.468, 32.626, 2641, 55.2, 1.71
Burbank Glendale Pasadena Area, -, -, -, -, -, 65.3, 0.30
Camarillo Area, -, -, -, -, -, 61.6, 0.57
Needles Area, -, -, -, -, -, 73.9, 1.59
Oxnard Area, -, -, -, -, -, 61.4, 0.16
Palm Springs Area, -, -, -, -, -, 74.0, 0.14
Riverside Area, -, -, -, -, -, 66.4, 0.49
Ramona Area, -, -, -, -, -, 58.3, 1.35
Northern CA 8 Station Index, -, -, -, -, -, M, 2.75
San Joaquin 5 Station Index, -, -, -, -, -, M, 2.84
Tulare 6 Station Index, -, -, -, -, -, M, 1.59
MERCED 1.2 NW, Merced, CA05, -120.497, 37.310, 168, M, 2.65
FREMONT 3.3 NNE, Alameda, CA04, -121.965, 37.568, 83, M, 2.01
ROSEVILLE 3.6 E, Placer, CA02, -121.228, 38.770, 342, M, 0.88
HEALDSBURG 0.6 W, Sonoma, CA01, -122.873, 38.618, 105, M, 0.74
LAKE ARROWHEAD 1.5 SE, San Bernardino, CA07, -117.171, 34.247, 5519, M, 3.94
BOULEVARD 1.2 WNW, San Diego, CA07, -116.291, 32.672, 3547, M, 0.62
SANTA MARIA 1.6 WSW, Santa Barbara, CA06, -120.461, 34.924, 223, M, 0.41
DESCANSO 3.7N, San Diego, CA06, -116.623, 32.908, 3327, M, 1.71
CASTRO VALLEY 2.0 SW, Alameda, CA04, -122.086, 37.689, 154, M, 1.88
PACIFIC GROVE 1.6 SSW, Monterey, CA04, -121.941, 36.603, 137, M, 0.54
ESCONDIDO 1.4 ENE, San Diego, CA06, -117.050, 33.147, 703, M, 0.09
LOS ANGELES 2.6 NW, Los Angeles, CA06, -118.273, 34.081, 405, M, 0.25
MILL VALLEY 2.1 S, Marin, CA01, -122.541, 37.877, 240, M, 1.54
CAMBRIA 0.5 WSW, San Luis Obispo, CA04, -121.087, 35.543, 214, M, 0.35
Alturas Area, -, -, -, -, -, 49.1, 1.32
Mount Shasta Area, -, -, -, -, -, 52.7, 1.90
Palmdale Area, -, -, -, -, -, 61.6, 0.19
Lancaster Area, -, -, -, -, -, 61.6, 0.15
POMONA 1.8 SW, Los Angeles, CA06, -117.779, 34.037, 953, M, 0.29
MADERA 0.9 SSW, Madera, CA05, -120.084, 36.956, 262, M, 1.45
FALLBROOK 4.6 ESE, San Diego, CA06, -117.165, 33.342, 410, M, 0.30
SOMES BAR 1.5 NW, Siskiyou, CA01, -123.496, 41.392, 712, M, 1.99
BIG PINE 1.0 NW, Inyo, CA07, -118.305, 37.178, 4010, M, 0.70
SQUAW VALLEY 0.6 SE, Fresno, CA05, -119.187, 36.689, 1309, M, 1.33
SAN RAMON 1.7 SSE, Contra Costa, CA04, -121.943, 37.733, 412, M, 1.80
BODEGA BAY 1.3 NW, Sonoma, CA01, -123.047, 38.335, 87, M, 0.49
MARICOPA 0.4 WNW, Kern, CA05, -119.407, 35.063, 906, M, 0.93
CORNING 12.4 W, Tehama, CA02, -122.415, 39.930, 538, M, 0.40
MENDOCINO 2.7 NNE, Mendocino, CA01, -123.776, 39.342, 421, M, 2.60
ROHNERT PARK 3.1 ENE, Sonoma, CA01, -122.650, 38.372, 668, M, 1.27
LA SELVA BEACH 1.0 NE, Santa Cruz, CA04, -121.851, 36.945, 303, M, 0.83
MCARTHUR 16.0 SE, Lassen, CA02, -121.178, 40.890, 4178, M, 1.98
CORNING 1.3 ESE, Tehama, CA02, -122.159, 39.921, 303, M, 0.67
HEMET 1.6 N, Riverside, CA06, -116.994, 33.754, 1553, M, 0.48
ARROYO GRANDE 2.5 NW, San Luis Obispo, CA04, -120.610, 35.155, 491, M, 0.01
MISSION VIEJO 3.1 SSE, Orange, CA06, -117.636, 33.569, 538, M, 0.28
RICHMOND 3.6 SE, Contra Costa, CA04, -122.316, 37.913, 98, M, 1.67
SANTA CRUZ 0.1 SSE, Santa Cruz, CA04, -122.035, 36.971, 75, M, 0.13
MID-CITY SAN DIEGO 0.5W, San Diego, CA06, -117.069, 32.765, 462, M, 0.90
BENICIA 1.3 SW, Solano, CA01, -122.169, 38.056, 9, M, 1.12
BEN LOMOND 2.6 SSE, Santa Cruz, CA04, -122.067, 37.068, 747, M, 1.05
BISHOP 1.6 NW, Inyo, CA07, -118.415, 37.385, 4183, M, 0.81
GILROY 2.0 S, Santa Clara, CA04, -121.572, 36.981, 221, M, 1.05
WHITETHORN 1.4 NW, Humboldt, CA01, -123.960, 40.039, 1005, M, 4.04
FORT BRAGG 3.5 S, Mendocino, CA01, -123.802, 39.391, 211, M, 2.46
PORTOLA HILLS 1.7 WNW, Orange, CA06, -117.660, 33.690, 997, M, 0.48
LAGUNA HILLS 1.8 E, Orange, CA06, -117.679, 33.598, 448, M, 0.18
SONOMA 1.7 NNW, Sonoma, CA01, -122.475, 38.312, 158, M, 1.53
CLAIREMONT 3.7SSE, San Diego, CA06, -117.187, 32.781, 307, M, 0.47
FAIRFAX 0.7 N, Marin, CA01, -122.594, 37.999, 196, M, 1.15
LAKE CALIFORNIA .4 NW, Tehama, CA02, -122.200, 40.352, 372, M, 1.63
JACKSON 0.8 SSE, Amador, CA05, -120.769, 38.339, 1355, M, 1.65
SQUAW VALLEY 3.1 ESE, Fresno, CA05, -119.139, 36.686, 2492, M, 1.65
SAN RAFAEL 2.5 W, Marin, CA01, -122.551, 37.985, 126, M, 0.22
ARTESIA 0.5 W, Los Angeles, CA06, -118.089, 33.868, 59, M, 0.01
GUERNEVILLE 0.8 N, Sonoma, CA01, -122.999, 38.513, 58, M, 1.64
BEAUMONT 2.2 NNW, Riverside, CA06, -116.992, 33.961, 2644, M, 2.24
NEWARK 1.2 ENE, Alameda, CA04, -122.010, 37.527, 30, M, 1.69
LOS ALTOS 1.8 SSE, Santa Clara, CA04, -122.084, 37.345, 277, M, 1.50
SAN MARCOS 3.3 WSW, San Diego, CA06, -117.228, 33.123, 587, M, 0.69
TRACY 1.1 SSW, San Joaquin, CA05, -121.440, 37.723, 78, M, 2.58
SANTA CLARITA 3.1 WSW, Los Angeles, CA06, -118.557, 34.390, 1251, M, 0.36
LAGUNA BEACH 0.8 SSE, Orange, CA06, -117.757, 33.529, 770, M, 0.22
AUBURN 4.8 N, Placer, CA02, -121.092, 38.960, 1445, M, 1.94
EL CAJON 3.1 SSE, San Diego, CA06, -116.940, 32.762, 653, M, 0.84
Crescent City Area, -, -, -, -, -, 53.1, 2.74
Escondido Area, -, -, -, -, -, 64.5, 1.07
Sacramento Downtown Area, -, -, -, -, -, 64.5, 1.48
Tahoe City Area, -, -, -, -, -, 42.9, 2.85
Ukiah Area, -, -, -, -, -, 58.8, 1.27
PACIFIC PALISADES 1.3 NW, Los Angeles, CA06, -118.533, 34.047, 278, M, 0.05
LOMITA 0.6 SE, Los Angeles, CA06, -118.310, 33.787, 110, M, 0.18
PIONEER 2.7 NNE, Amador, CA05, -120.551, 38.468, 3412, M, 1.76
SOLEDAD 12.0 ENE, San Benito, CA04, -121.136, 36.517, 1188, M, T
El Cajon Area, -, -, -, -, -, 64.3, 0.69
Hanford Area, -, -, -, -, -, 64.6, 0.57
El Centro Area, -, -, -, -, -, 73.8, 0.16
Madera Area, -, -, -, -, -, 63.4, 1.59
Merced Area, -, -, -, -, -, 62.7, 3.59
CAMARILLO 0.4 NW, Ventura, CA06, -119.035, 34.227, 165, M, 0.32
San Jose Area, -, -, -, -, -, 62.0, 1.53
MODESTO IRRIGATION DISTRICT, Stanislaus, CA05, -120.003, 37.644, 88, 64.8, 2.21
GRASS VALLEY 1.3 N, Nevada, CA02, -121.058, 39.241, 2761, M, 1.73
LORAINE 5 NNE, Kern, CA05, -118.412, 35.384, 4235, 52.3, 1.64
LEMON GROVE FIRE DEPARTMENT, San Diego, CA06, -117.030, 32.738, 427, M, 0.64
LEE VINING, Mono, CA07, -119.119, 37.957, 6797, 48.1, 1.28
ANAHEIM, Orange, CA06, -117.842, 33.865, 235, 67.6, 0.20
NEW MELONES DAM HQ, Tuolumne, CA05, -120.486, 38.005, 960, 60.3, 2.99
MAMMOTH LAKES RS, Mono, CA07, -118.962, 37.648, 7804, 42.7, 1.20
FRAZIER PARK 9 SW, Ventura, CA05, -119.104, 34.733, 5169, M, 0.63
MONTEREY WFO, Monterey, CA04, -121.855, 36.593, 122, 57.7, 0.59
SKYLINE RIDGE PRESERVE, San Mateo, CA04, -122.185, 37.313, 2270, 55.0, 5.58
FREMONT, Alameda, CA04, -122.016, 37.542, 38, 61.2, 1.53
MAD RIVER 12 SE, Trinity, CA01, -123.374, 40.319, 2763, M, 2.52
TEHACHAPI 4 SE, Kern, CA05, -118.422, 35.101, 4220, 50.6, 1.10
WRIGHTWOOD, San Bernardino, CA07, -117.639, 34.362, 6000, M, 1.59
VALLEJO, Solano, CA01, -122.187, 38.100, 341, 63.0, 0.99
NORTHRIDGE CAL STATE, Los Angeles, CA06, -118.525, 34.245, 904, M, 0.56
OXNARD WFO, Ventura, CA06, -119.137, 34.207, 52, 61.4, 0.16
HANFORD MUNICIPAL AP, Kings, CA05, -119.623, 36.311, 249, 64.6, 0.57
RAMONA AIRPORT, San Diego, CA06, -116.916, 33.038, 1385, 58.3, 1.35
VACAVILLE/NUT TREE AP ASOS, Solano, CA02, -121.959, 38.378, 104, 62.5, 0.84
ALTURAS MUNICIPAL AP, Modoc, CA02, -120.561, 41.484, 4383, 49.1, 1.32
MADERA MUNICIPAL AP, Madera, CA05, -120.111, 36.985, 251, 63.4, 1.59
BAKERSFIELD 5 NW, Kern, CA05, -119.051, 35.419, 470, 65.5, 1.06
FRESNO 5 NE, Fresno, CA05, -119.709, 36.767, 338, 67.0, 0.99
OCEANSIDE MUNICIPAL AP, San Diego, CA06, -117.350, 33.219, 30, 60.2, 0.46
SAN DIEGO SEAWORLD, San Diego, CA06, -117.231, 32.765, 14, 61.8, 0.76
ARCATA EUREKA AP, Humboldt, CA01, -124.105, 40.978, 211, 54.6, 3.27
NEWPORT BEACH HARBOR, Orange, CA06, -117.884, 33.603, 10, 62.2, 0.21
ESCONDIDO NO. 2, San Diego, CA06, -117.090, 33.121, 600, 64.5, 1.07
REDDING AP, Shasta, CA02, -122.298, 40.515, 501, 64.3, 3.25
AVALON CATALINA AP, Los Angeles, CA06, -118.415, 33.404, 1565, 60.7, 0.53
SANTA MARIA PUBLIC AP, Santa Barbara, CA06, -120.452, 34.894, 243, 61.1, 0.52
MOUNT SHASTA, Siskiyou, CA02, -122.333, 41.333, 3535, 52.7, 1.90
RED BLUFF MUNI AP, Tehama, CA02, -122.255, 40.152, 354, 63.8, 1.28
NEEDLES AIRPORT, San Bernardino, CA07, -114.618, 34.768, 888, 73.9, 1.59
CHINA LAKE NAF, Kern, CA07, -117.693, 35.688, 2230, 65.5, T
HEARST CASTLE, San Luis Obispo, CA04, -121.168, 35.684, 1526, 59.3, 0.97
GETTY CENTER, Los Angeles, CA06, -118.479, 34.087, 1117, 63.9, 0.17
HESPERIA 2E, San Bernardino, CA07, -117.266, 34.421, 3055, 60.9, 0.21
RANCHO BERNARDO, San Diego, CA06, -117.081, 33.022, 690, 63.3, 1.63
APPLE VALLEY #2, San Bernardino, CA07, -117.279, 34.536, 2780, M, 0.00
OCOTILLO WELLS 2W, San Diego, CA07, -116.169, 33.155, 390, 74.5, 0.30
IRVINE RANCH, Orange, CA06, -117.723, 33.720, 540, 66.3, 0.18
MT. LAGUNA #3, San Diego, CA07, -116.419, 32.867, 5920, 53.8, 1.75
AVALON INLAND, Los Angeles, CA06, -118.330, 33.338, 90, 55.5, 0.01
DESERT CENTER 2 NNE, Riverside, CA07, -115.392, 33.738, 747, 65.7, 0.00
TORRANCE AP, Los Angeles, CA06, -118.342, 33.802, 90, 64.1, 0.16
MERCED 23 WSW, Merced, CA05, -120.882, 37.238, 78, 60.3, 1.69
REDDING 12 WNW, Shasta, CA02, -122.607, 40.651, 1418, 59.6, 2.05
STOVEPIPE WELLS 1 SW, Inyo, CA07, -117.145, 36.602, 84, 78.5, 0.17
RED BLUFF 2.8 N, Tehama, CA02, -122.243, 40.215, 406, M, 1.20
COTTONWOOD 6.7 SSW, Tehama, CA02, -122.347, 40.307, 585, M, 1.16
LOS ANGELES DOWNTOWN/USC, Los Angeles, CA06, -118.291, 34.024, 179, 66.6, 0.24
FRESNO YOSEMITE INT'L, Fresno, CA05, -119.720, 36.780, 334, 65.3, 1.06
MONTEREY PENINSUL AP, Monterey, CA04, -121.849, 36.590, 160, 57.6, 0.61
PASO ROBLES MUNICIPAL AP, San Luis Obispo, CA04, -120.629, 35.669, 820, 60.8, 0.16
MONTAGUE SISKIYOU AIRPORT, Siskiyou, CA01, -122.468, 41.774, 2645, 52.2, 0.78
SAN JOSE, Santa Clara, CA04, -121.924, 37.359, 49, 62.0, 1.53
PALM SPRINGS ASOS, Riverside, CA07, -116.504, 33.822, 409, 74.0, 0.14
FILLMORE 2 W, Ventura, CA06, -118.945, 34.409, 495, M, 0.41
SAN DIEGO BROWN FIELD, San Diego, CA06, -116.994, 32.576, 521, 61.9, 1.04
Bakersfield Area, -, -, -, -, -, 66.9, 0.97
Bishop Area, -, -, -, -, -, 57.9, 1.04
Los Angeles Downtown Area, -, -, -, -, -, 66.6, 0.24
Eureka Area, -, -, -, -, -, 54.5, 2.84
Fresno Area, -, -, -, -, -, 65.3, 1.06
Los Angeles Airport Area, -, -, -, -, -, 63.5, 0.29
Long Beach Area, -, -, -, -, -, 65.7, 0.11
Redding Area, -, -, -, -, -, 64.3, 3.25
Sacramento Area, -, -, -, -, -, 63.0, 1.03
San Diego Area, -, -, -, -, -, 65.5, 0.55
Stockton Area, -, -, -, -, -, 63.0, 2.83
San Francisco Airport Area, -, -, -, -, -, 60.3, 0.82
Santa Maria Area, -, -, -, -, -, 61.1, 0.52
CAMP PENDLETON MCAS, San Diego, CA06, -117.355, 33.304, 70, 60.7, 0.89
LEMOORE REEVES NAS, Fresno, CA05, -119.950, 36.333, 232, 64.4, 0.38
COTTONWOOD 3.9 SW, Tehama, CA02, -122.342, 40.358, 447, M, 1.76
ARVIN, Kern, CA05, -118.834, 35.211, 450, 66.2, 0.69
CHIRIACO SUMMIT, Riverside, CA07, -115.721, 33.662, 1706, 66.5, 1.22
EDWARDS AFB NORTH AUXILIARY AIRFIELD, Kern, CA07, -117.865, 34.988, 2283, 62.6, 0.16
MOJAVE NTPS, Kern, CA07, -118.173, 35.056, 2827, M, 0.17
FALLBROOK 5 NE, San Diego, CA06, -117.190, 33.439, 1140, 64.6, 0.20
SANTA BARBARA 11 W, Santa Barbara, CA06, -119.880, 34.414, 18, 59.0, 0.46
BODEGA 6 WSW, Sonoma, CA01, -123.075, 38.321, 63, 53.6, 1.20
YOSEMITE VILLAGE 12 W, Mariposa, CA05, -119.821, 37.759, 6620, 46.2, 3.19
YUCCA MESA, San Bernardino, CA07, -116.407, 34.218, 3445, 62.0, 0.41
YUCCA VALLEY, San Bernardino, CA07, -116.388, 34.129, 3249, 60.7, 0.75
JOHNSON VALLEY, San Bernardino, CA07, -116.538, 34.359, 3167, 60.7, 0.70
YREKA 0.9 WNW, Siskiyou, CA01, -122.649, 41.733, 2692, M, 1.33
MONTAGUE 1.6 ESE, Siskiyou, CA01, -122.501, 41.718, 2556, M, 0.81
SANTA MARGARITA 8.9 ESE, San Luis Obispo, CA04, -120.453, 35.381, 2005, M, 0.53
PACIFICA 0.3 W, San Mateo, CA04, -122.483, 37.612, 227, M, 1.22
FOSTER CITY 1.3 SW, San Mateo, CA04, -122.259, 37.549, 7, M, 1.18
HALF MOON BAY 0.5 SSW, San Mateo, CA04, -122.441, 37.463, 54, M, 1.08
REDWOOD CITY 2.5 SW, San Mateo, CA04, -122.240, 37.493, 17, M, 1.02
PORTOLA VALLEY 1.3 ENE, San Mateo, CA04, -122.198, 37.382, 531, M, 1.86
ROHNERT PARK 1.6 WNW, Sonoma, CA01, -122.727, 38.352, 93, M, 1.39
GEYSERVILLE 10.6 WNW, Sonoma, CA01, -123.098, 38.737, 1328, M, 1.78
SANTA ROSA 3.1 W, Sonoma, CA01, -122.758, 38.451, 107, M, 0.73
SEBASTOPOL 3.7 WSW, Sonoma, CA01, -122.893, 38.385, 383, M, 1.48
SEBASTOPOL 4.5 WSW, Sonoma, CA01, -122.904, 38.375, 423, M, 1.58
WINDSOR 1.5 WNW, Sonoma, CA01, -122.823, 38.555, 123, M, 0.56
WINDSOR 1.4 SE, Sonoma, CA01, -122.780, 38.532, 140, M, 1.40
SANTA ROSA 4.7 S, Sonoma, CA01, -122.725, 38.378, 94, M, 1.15
SANTA ROSA 3.1 NW, Sonoma, CA01, -122.744, 38.479, 140, M, 1.37
CLOVERDALE 3.2 ESE, Sonoma, CA01, -122.963, 38.781, 797, M, 1.65
WINDSOR 1.8 SE, Sonoma, CA01, -122.777, 38.526, 142, M, 1.31
SEBASTOPOL 2.6 SSE, Sonoma, CA01, -122.804, 38.366, 214, M, 1.57
SANTA ROSA 2.9 ENE, Sonoma, CA01, -122.655, 38.471, 292, M, 2.03
SEBASTOPOL 3.0 SW, Sonoma, CA01, -122.869, 38.372, 539, M, 1.38
SANTA ROSA 4.4 NNW, Sonoma, CA01, -122.719, 38.511, 392, M, 1.31
SEBASTOPOL 1.1 SSE, Sonoma, CA01, -122.819, 38.384, 168, M, 1.41
WINDSOR 1.2 NNW, Sonoma, CA01, -122.805, 38.562, 155, M, 1.26
HEALDSBURG 7.5 NW, Sonoma, CA01, -122.963, 38.693, 203, M, 1.16
SANTA ROSA 2.6 NE, Sonoma, CA01, -122.664, 38.473, 273, M, 1.97
SANTA ROSA 1.3 NW, Sonoma, CA01, -122.715, 38.464, 173, M, 1.65
WINDSOR 0.6 NNE, Sonoma, CA01, -122.793, 38.553, 157, M, 1.52
GLEN ELLEN 1.9 WNW, Sonoma, CA01, -122.572, 38.365, 956, M, 1.74
ROHNERT PARK 0.9 SW, Sonoma, CA01, -122.711, 38.339, 96, M, 1.30
HEALDSBURG 3.7 WNW, Sonoma, CA01, -122.921, 38.648, 142, M, 1.23
CLOVERDALE 0.6 W, Sonoma, CA01, -123.028, 38.799, 382, M, 1.19
ROHNERT PARK 0.9 ESE, Sonoma, CA01, -122.681, 38.345, 125, M, 1.20
GLEN ELLEN 1.5 N, Sonoma, CA01, -122.534, 38.378, 337, M, 1.58
SANTA ROSA 2.7 ENE, Sonoma, CA01, -122.659, 38.470, 281, M, 1.95
BOYES HOT SPRINGS 0.5 ENE, Sonoma, CA01, -122.473, 38.316, 295, M, 1.44
SEBASTOPOL 3.3 WSW, Sonoma, CA01, -122.885, 38.384, 362, M, 1.46
OCCIDENTAL 2.8 SW, Sonoma, CA01, -122.974, 38.365, 614, M, 1.66
HEALDSBURG 12.6 NNW, Sonoma, CA01, -122.963, 38.784, 1026, M, 1.55
BENICIA 0.2 SSW, Solano, CA01, -122.155, 38.070, 403, M, 1.37
WRIGHTWOOD 1.2 WNW, San Bernardino, CA07, -117.651, 34.365, 6148, M, 1.31
APPLE VALLEY 2.6 SE, San Bernardino, CA07, -117.181, 34.504, 2941, M, 0.81
ALTA LOMA 2.7 ENE, San Bernardino, CA06, -117.551, 34.138, 1535, M, 0.75
JOSHUA TREE 2.0 S, San Bernardino, CA07, -116.318, 34.097, 3409, M, 1.19
CRESTLINE 0.2 WSW, San Bernardino, CA07, -117.299, 34.246, 4530, M, 1.09
LANDERS 1.6 NE, San Bernardino, CA07, -116.375, 34.283, 2954, M, 0.23
PINON HILLS 3.5 N, San Bernardino, CA07, -117.644, 34.485, 3495, M, 0.23
APPLE VALLEY 1.9 N, San Bernardino, CA07, -117.211, 34.556, 2935, M, 0.38
KNIGHTS FERRY 5.2 WSW, Stanislaus, CA05, -120.752, 37.789, 144, M, 2.68
OAKDALE 4.2 ENE, Stanislaus, CA05, -120.777, 37.782, 232, M, 2.85
SAN JUAN BAUTISTA 0.5 S, San Benito, CA04, -121.537, 36.839, 252, M, 0.75
HOLLISTER 5.4 NNE, San Benito, CA04, -121.370, 36.931, 247, M, 1.08
HOLLISTER 2.1 ESE, San Benito, CA04, -121.365, 36.842, 389, M, 0.82
DAVENPORT 4.2 NW, Santa Cruz, CA04, -122.218, 37.065, 495, M, 1.05
BOULDER CREEK 3.6 NE, Santa Cruz, CA04, -122.091, 37.181, 1724, M, 1.73
FELTON 0.1 SE, Santa Cruz, CA04, -122.071, 37.042, 238, M, 0.21
BONNY DOON 2.0 NE, Santa Cruz, CA04, -122.133, 37.068, 1880, M, 0.88
LYONS VALLEY CALIFORNIA, Lake, CA01, -123.074, 39.126, 3200, 53.0, M
LYTLE CREEK CALIFORNIA, San Bernardino, CA06, -117.480, 34.234, 2792, 59.5, M
MAD RIVER CALIFORNIA, Trinity, CA01, -123.524, 40.463, 2775, 53.1, M
MALIBU HILLS CALIFORNIA, Los Angeles, CA06, -118.633, 34.058, 1575, 64.0, M
MANZANITA LAKE CALIFORNIA, Shasta, CA02, -121.580, 40.540, 5660, 44.1, M
MILL CREEK (BDF) CALIFORNIA, San Bernardino, CA06, -117.035, 34.084, 2950, 61.2, M
MCGUIRES CALIFORNIA, Mendocino, CA01, -123.601, 39.353, 593, 56.6, M
MEANS LAKE CALIFORNIA, San Bernardino, CA07, -116.517, 34.391, 2900, 63.9, M
MENDOCINO PASS CALIFORNIA, Mendocino, CA01, -122.945, 39.808, 5420, 48.0, M
METCALF GAP CALIFORNIA, Madera, CA05, -119.768, 37.409, 3077, 58.8, M
MID HILLS CALIFORNIA, San Bernardino, CA07, -115.411, 35.123, 5413, 53.4, M
MILL CREEK (ANF) CALIFORNIA, Los Angeles, CA06, -118.082, 34.390, 5021, 53.5, M
MILO CALIFORNIA, Tulare, CA05, -118.869, 36.231, 1923, 62.0, M
MALLORY RIDGE CALIFORNIA, Contra Costa, CA05, -121.779, 37.817, 2040, 57.2, M
MONTECITO CALIFORNIA, Santa Barbara, CA06, -119.648, 34.461, 1500, 63.5, M
MORMON ROCK CALIFORNIA, San Bernardino, CA06, -117.502, 34.318, 3300, 58.5, M
MOUNTAIN REST CALIFORNIA, Fresno, CA05, -119.371, 37.054, 4100, 55.0, M
MARKLEEVILLE CALIFORNIA, Alpine, CA03, -119.767, 38.683, 5501, 46.8, M
MT. SHASTA CALIFORNIA, Siskiyou, CA02, -122.316, 41.316, -, 51.8, M
MARIPOSA CALIFORNIA, Mariposa, CA05, -119.987, 37.504, 2231, 57.3, M
MOUNT ZION CALIFORNIA, Amador, CA05, -120.651, 38.389, 2960, 57.4, M
NORTH FORK CALIFORNIA, Madera, CA05, -119.505, 37.233, 2720, 57.2, M
OAK KNOLL CALIFORNIA, Siskiyou, CA01, -122.850, 41.839, 1940, 56.3, M
OAK MOUNTAIN CALIFORNIA, Shasta, CA02, -121.983, 41.006, 1700, 58.2, M
OAK CREEK CALIFORNIA, Inyo, CA07, -118.259, 36.843, 4855, 58.6, M
OAK GROVE CALIFORNIA, San Diego, CA06, -116.795, 33.393, 2752, 57.9, M
OAKLAND NORTH CALIFORNIA, Contra Costa, CA04, -122.221, 37.865, 1403, 57.4, M
OAK OPENING CALIFORNIA, Tulare, CA05, -118.702, 36.175, 3240, 56.6, M
OAKLAND SOUTH CALIFORNIA, Alameda, CA04, -122.145, 37.786, 1095, 57.5, M
OPAL MOUNTAIN CALIFORNIA, San Bernardino, CA07, -117.176, 35.154, 3240, 62.0, M
OWENS CAMP LOC CALIFORNIA, El Dorado, CA02, -120.245, 38.733, 5240, 48.7, M
OWENS VALLEY CALIFORNIA, Inyo, CA07, -118.551, 37.390, 4640, 58.3, M
OZENA CALIFORNIA, Ventura, CA06, -119.354, 34.682, 3670, 56.2, M
PARKFIELD CALIFORNIA, Monterey, CA04, -120.432, 35.899, 1535, 58.8, M
PATTY MOCUS CALIFORNIA, Tehama, CA02, -122.867, 40.295, 3500, 54.5, M
PINE HILLS CALIFORNIA, San Diego, CA06, -116.634, 33.016, -, 54.2, M
PIERCE CALIFORNIA, Plumas, CA02, -120.642, 40.246, 5700, 47.5, M
PINEHURST CALIFORNIA, Fresno, CA05, -119.000, 36.685, 4060, 53.4, M
PIKE COUNTY LOOKOUT CALIFORNIA, Yuba, CA02, -121.202, 39.475, 3714, 54.9, M
PILOT HILL CALIFORNIA, El Dorado, CA02, -121.009, 38.833, 1200, 58.6, M
PARK RIDGE CALIFORNIA, Tulare, CA05, -118.942, 36.724, 7540, 43.9, M
PINNACLES CALIFORNIA, San Benito, CA04, -121.147, 36.471, 1322, 60.1, M
POPPY PARK CALIFORNIA, Los Angeles, CA07, -118.383, 34.733, 2760, 60.8, M
POTRERO CALIFORNIA, San Diego, CA06, -116.609, 32.606, 2345, 57.1, M
POVERTY CALIFORNIA, Santa Clara, CA04, -121.771, 37.443, 2066, 56.1, M
PANOCHE ROAD CALIFORNIA, Fresno, CA05, -120.766, 36.727, 2032, 61.4, M
PULGAS CALIFORNIA, San Mateo, CA04, -122.298, 37.475, 644, 59.5, M
QUARTZ HILL CALIFORNIA, Siskiyou, CA01, -122.934, 41.599, 4225, 52.9, M
QUINCY RD CALIFORNIA, Plumas, CA02, -120.942, 39.973, 3500, 53.7, M
RAVENDALE CALIFORNIA, Lassen, CA03, -120.316, 40.731, 5298, 47.5, M
RANCHITA CALIFORNIA, San Diego, CA07, -116.497, 33.222, 4415, 55.9, M
READER RANCH CALIFORNIA, Nevada, CA02, -121.117, 39.304, 1968, 58.8, M
REDDING AIRPORT CALIFORNIA, Shasta, CA02, -122.291, 40.516, 500, 62.6, M
RICE VALLEY CALIFORNIA, Riverside, CA07, -114.732, 34.061, 820, 72.4, M
ROCK CREEK, Mono, CA07, -118.667, 37.551, 7040, 46.5, M
RODEO VALLEY, Mendocino, CA01, -123.321, 39.668, 2428, 54.3, M
ROSE VALLEY CALIFORNIA, Ventura, CA06, -119.184, 34.543, 3331, 52.0, M
ROUND MOUNTAIN, Siskiyou, CA02, -121.464, 41.427, 5258, 48.7, M
ROSE PEAK CALIFORNIA, Alameda, CA04, -121.735, 37.502, 3060, 52.8, M
RUSH CREEK CALIFORNIA, Modoc, CA02, -120.864, 41.294, 4800, 48.0, M
RUTH CALIFORNIA, Trinity, CA01, -123.316, 40.251, 2732, 53.2, M
SAN DIEGO 9.5 NNW, San Diego, CA06, -117.221, 32.843, 284, M, 0.95
CARLSBAD 3.8SE, San Diego, CA06, -117.304, 33.119, 168, M, 0.80
LOS OSOS 0.5 N, San Luis Obispo, CA04, -120.832, 35.329, 77, M, 0.20
MENLO PARK 2.4 W, San Mateo, CA04, -122.187, 37.477, 25, M, 0.84
BURLINGAME 2.0 WSW, San Mateo, CA04, -122.398, 37.584, 447, M, 1.33
TWENTYNINE PALMS 1.5 SW, San Bernardino, CA07, -116.085, 34.124, 2162, M, 0.93
CAMARILLO 2.4 W, Ventura, CA06, -119.072, 34.228, 114, M, 0.36
MARYSVILLE 5.0 N, Yuba, CA02, -121.594, 39.224, 73, M, 0.64
WHEATLAND 0.1 ENE, Yuba, CA02, -121.424, 39.013, 85, M, 0.76
CHICO 1.7 SW, Butte, CA02, -121.832, 39.739, 210, M, 1.08
BLUE LAKE 0.6 NNW, Humboldt, CA01, -123.994, 40.888, 179, M, 2.61
REDWAY 1.8 WSW, Humboldt, CA01, -123.852, 40.109, 955, M, 3.04
UPPER LAKE 3.6 W, Lake, CA02, -122.978, 39.168, 1440, M, 1.69
MORGAN HILL 1.4 SW, Santa Clara, CA04, -121.659, 37.117, 433, M, 1.61
REDDING 3.8 S, Shasta, CA02, -122.369, 40.518, 444, M, 2.39
FORKS OF SALMON 1.0 NW, Siskiyou, CA01, -123.334, 41.269, 1664, M, 2.89
SAN MATEO 3.4 SSW, San Mateo, CA04, -122.343, 37.518, 585, M, 1.10
ARBUCKLE BASIN CALIFORNIA, Shasta, CA02, -122.833, 40.398, 1900, 57.8, M
ACTON CALIFORNIA, Los Angeles, CA06, -118.200, 34.446, 2600, 59.2, M
ARROYO GRANDE CALIFORNIA, San Luis Obispo, CA04, -120.392, 35.179, 1048, 60.0, M
ALDER SPRINGS CALIFORNIA, Glenn, CA02, -122.724, 39.651, 4300, 52.1, M
ALPINE CALIFORNIA, San Diego, CA06, -116.739, 32.834, 2041, 59.2, M
LOS ALTOS CALIFORNIA, Santa Clara, CA04, -122.147, 37.358, 645, 59.9, M
ANZA CALIFORNIA, Riverside, CA06, -116.673, 33.555, 3920, 53.4, M
ALDER POINT CALIFORNIA, Humboldt, CA01, -123.590, 40.187, 923, 58.0, M
ARROYO SECO (MT. DIABLO) CALIF, Monterey, CA04, -121.492, 36.230, 980, 60.1, M
ASH CREEK CALIFORNIA, Siskiyou, CA02, -121.979, 41.277, 3200, 48.5, M
BACKBONE CALIFORNIA, Trinity, CA01, -123.142, 40.889, 4700, 53.2, M
BALD MTN LOC CALIFORNIA, El Dorado, CA02, -120.697, 38.906, 4680, 53.5, M
BARNABY CALIFORNIA, Marin, CA01, -122.702, 38.028, 1240, 57.7, M
BATTERSON CALIFORNIA, Madera, CA05, -119.508, 37.232, 3160, 56.7, M
BIG BAR CALIFORNIA, Trinity, CA01, -123.233, 40.733, 1500, 59.2, M
BELL CANYON CALIFORNIA, Orange, CA06, -117.592, 33.542, 700, 63.8, M
BRADLEY CALIFORNIA, Monterey, CA04, -120.803, 35.864, 537, 61.5, M
BEAR PEAK CALIFORNIA, Tulare, CA05, -118.052, 35.884, 8228, 42.8, M
BENTON CALIFORNIA, Mono, CA07, -118.478, 37.843, 5450, 51.5, M
BEAUMONT CALIFORNIA, Riverside, CA06, -116.950, 33.931, 2604, 59.7, M
BEVERLY HILLS CALIFORNIA, Los Angeles, CA06, -118.412, 34.125, 1260, 67.6, M
BANGOR CALIFORNIA, Butte, CA02, -121.386, 39.398, 803, 61.5, M
BIG PINES CALIFORNIA, Los Angeles, CA07, -117.692, 34.379, 6917, 47.2, M
BIG ROCK CALIFORNIA, Marin, CA01, -122.570, 38.039, 1500, 58.1, M
BLACK DIAMOND CALIFORNIA, Contra Costa, CA04, -121.884, 37.950, 1600, 57.8, M
BLUE DOOR CALIFORNIA, Lassen, CA02, -120.337, 41.055, 5615, 45.9, M
BLUE RIDGE (KNF) CALIFORNIA, Siskiyou, CA01, -123.187, 41.269, 5956, 46.6, M
BEN BOLT CALIFORNIA, El Dorado, CA05, -120.934, 38.591, 905, 59.5, M
BEN LOMOND CALIFORNIA, Santa Cruz, CA04, -122.170, 37.132, 2630, 54.0, M
BOGARD R.S. CALIFORNIA, Lassen, CA02, -121.083, 40.598, 5650, 44.0, M
BOONVILLE CALIFORNIA, Mendocino, CA01, -123.349, 38.988, 644, 57.5, M
BIG PINE FLAT CALIFORNIA, San Bernardino, CA07, -117.013, 34.319, 6861, 45.7, M
BRIDGEPORT 4NW CALIFORNIA, Mono, CA03, -119.289, 38.272, 6650, 45.5, M
BRANCH MOUNTAIN CALIFORNIA, San Luis Obispo, CA04, -120.083, 35.189, 3770, 55.7, M
BEAR FLAT CALIFORNIA, Modoc, CA02, -120.313, 41.295, 6200, 44.8, M
BRIONES CALIFORNIA, Contra Costa, CA04, -122.118, 37.944, 1450, 58.3, M
BLACKROCK CALIFORNIA, Tulare, CA05, -118.260, 36.093, 8200, 41.9, M
BROOKS CALIFORNIA, Yolo, CA02, -122.145, 38.738, 354, 62.5, M
BIG SUR CALIFORNIA, Monterey, CA04, -121.785, 36.236, 450, 59.2, M
BULL FLAT CALIFORNIA, Lassen, CA03, -120.114, 40.481, 4395, 49.3, M
BURNS CANYON CALIFORNIA, San Bernardino, CA07, -116.634, 34.210, 6000, 53.0, M
BUTTERCUP CALIFORNIA, Imperial, CA07, -114.884, 32.740, 217, 73.6, M
BEAVER CAMP LOC CALIFORNIA, Amador, CA05, -120.325, 38.488, 5000, 53.9, M
BRAZIE RANCH CALIFORNIA, Siskiyou, CA01, -122.594, 41.685, 3000, 55.7, M
CAHUILLA CALIFORNIA, Imperial, CA07, -115.174, 32.974, 278, 75.1, M
GRASS VALLEY 8.3 SSE, Nevada, CA02, -121.008, 39.107, 2182, M, 1.98
QUINCY 2.3 E, Plumas, CA02, -120.905, 39.938, 3473, M, 1.78
PERRIS 10.6 W, Riverside, CA06, -117.405, 33.821, 1586, M, 0.53
GILROY 0.1 SE, Santa Clara, CA04, -121.577, 37.009, 211, M, 0.95
BENICIA 1.3 W, Solano, CA01, -122.178, 38.075, 304, M, 0.93
RED BLUFF 2.4 NE, Tehama, CA02, -122.205, 40.194, 275, M, 1.16
SPRINGVILLE 1.4 SSW, Tulare, CA05, -118.825, 36.111, 937, M, 1.73
DAVIS 2.3 W, Yolo, CA02, -121.778, 38.559, 55, M, 0.48
GRIDLEY 3.3 SE, Butte, CA02, -121.646, 39.335, 92, M, 0.70
SOUTH LAKE TAHOE 4.9 SW, El Dorado, CA03, -120.034, 38.882, 6325, M, 3.67
EL DORADO HILLS 0.7 NNE, El Dorado, CA02, -121.074, 38.695, 709, M, 2.53
EL DORADO HILLS 0.9 NNW, El Dorado, CA02, -121.087, 38.698, 771, M, 2.28
REDWAY 9.9 ENE, Humboldt, CA01, -123.638, 40.154, 1577, M, 3.53
INDEPENDENCE 0.2 NNW, Inyo, CA07, -118.201, 36.806, 3914, M, 0.08
CALABASAS 1.9 E, Los Angeles, CA06, -118.628, 34.141, 1080, M, 0.51
COARSEGOLD 1.4 SE, Madera, CA05, -119.686, 37.247, 2674, M, 3.40
CHOWCHILLA 0.3 E, Madera, CA05, -120.252, 37.116, 238, M, 1.62
SAN RAFAEL 4.6 NW, Marin, CA01, -122.574, 38.020, 166, M, 1.19
BOLINAS 0.2 W, Marin, CA01, -122.701, 37.906, 190, M, 1.74
LAGUNITAS-FOREST KNOLLS 0.2 SSE, Marin, CA01, -122.686, 38.013, 269, M, 1.68
SAN RAFAEL 1.9 NNW, Marin, CA01, -122.524, 38.005, 15, M, 0.95
NOVATO 0.7 WNW, Marin, CA01, -122.568, 38.098, 12, M, 0.89
NOVATO 2.7 WNW, Marin, CA01, -122.600, 38.110, 76, M, 0.77
AUBURN 5.3 NNW, Placer, CA02, -121.115, 38.963, 1236, M, 1.62
LAKE ELSINORE 4.6 WNW, Riverside, CA06, -117.396, 33.692, 1508, M, 0.30
SUNNYSLOPE 1.6 W, Riverside, CA06, -117.450, 34.016, 946, M, 0.39
FAIR OAKS 3.0 WNW, Sacramento, CA02, -121.300, 38.662, 173, M, 1.21
BUELLTON 0.7 S, Santa Barbara, CA06, -120.199, 34.617, 363, M, 0.82
MORGAN HILL 4.5 NW, Santa Clara, CA04, -121.703, 37.173, 310, M, 1.45
SAN DIEGO 10.6 NNW, San Diego, CA06, -117.209, 32.956, 282, M, 0.74
UPLAND 2.0 NNW, San Bernardino, CA06, -117.665, 34.147, 1915, M, 0.42
BOULDER CREEK 4.1 N, Santa Cruz, CA04, -122.141, 37.195, 984, M, 1.82
BOULDER CREEK 0.9 N, Santa Cruz, CA04, -122.126, 37.151, 596, M, 1.89
PORTERVILLE 2.4 NNW, Tulare, CA05, -119.051, 36.093, 422, M, 0.01
CAMARILLO 0.6 N, Ventura, CA06, -119.030, 34.231, 178, M, 0.39
DAVIS 1.1 ENE, Yolo, CA02, -121.716, 38.559, 56, M, 0.49
DAVIS 6.3 W, Yolo, CA02, -121.852, 38.561, 86, M, 0.56
DAVIS 1.6 NNW, Yolo, CA02, -121.751, 38.574, 57, M, 0.54
ALBANY 1.7 E, Alameda, CA04, -122.296, 37.895, 55, M, 1.90
WALNUT CREEK 2.3 WSW, Contra Costa, CA04, -122.081, 37.891, 252, M, 1.56
TRINIDAD 0.2 NE, Humboldt, CA01, -124.140, 41.059, 180, M, 3.42
LONG BEACH 1.1 SE, Los Angeles, CA06, -118.147, 33.777, 48, M, 0.20
RANCHO PALOS VERDES 1.3 NNW, Los Angeles, CA06, -118.370, 33.775, 1014, M, 0.25
MILL VALLEY 2.5 SSE, Marin, CA01, -122.526, 37.874, 57, M, 1.39
NEWCASTLE 0.4 SSW, Placer, CA02, -121.137, 38.868, 824, M, 1.36
RIVERSIDE 2.0 NNE, Riverside, CA06, -117.388, 33.969, 850, M, 0.38
RIVERSIDE 5.8 E, Riverside, CA06, -117.296, 33.941, 1536, M, 0.91
YUCAIPA 4.1 SE, Riverside, CA06, -116.986, 33.998, 3563, M, 2.61
FOLSOM 1.9 SE, Sacramento, CA02, -121.122, 38.657, 436, M, 1.63
LA MESA 0.9 SW, San Diego, CA06, -117.028, 32.760, 528, M, 0.75
SAN MARCOS 2.3 SSW, San Diego, CA06, -117.187, 33.105, 961, M, 0.31
JACUMBA 0.3 NNW, San Diego, CA07, -116.190, 32.621, 2821, M, 0.65
MILLVILLE 3.6 SW, Shasta, CA02, -122.173, 40.545, 506, M, 1.49
SANTA ROSA 2.3 NW, Sonoma, CA01, -122.733, 38.470, 137, M, 1.32
HEALDSBURG 2.9 N, Sonoma, CA01, -122.864, 38.661, 177, M, 1.17
SANTA ROSA 1.7 E, Sonoma, CA01, -122.669, 38.449, 220, M, 0.96
FAIRFIELD 5.9 WSW, Solano, CA01, -122.143, 38.222, 3303, M, 0.90
LUCERNE VALLEY 2.7 SSE, San Bernardino, CA07, -116.949, 34.407, 3387, M, 0.13
THOUSAND OAKS 2.7 NW, Ventura, CA06, -118.897, 34.222, 681, M, 0.60
STATE LINE, Modoc, CA01, -120.720, 41.990, 5680, 46.4, 1.10
BIG PINE 0.5 ENE, Inyo, CA07, -118.288, 37.169, 3972, M, 0.64
SANTA ANA 2.0 N, Orange, CA06, -117.888, 33.766, 110, M, 0.18
POWAY 3.9 NNW, San Diego, CA06, -117.046, 33.036, 648, M, 1.40
SAN DIEGO 7.8 SW, San Diego, CA06, -117.246, 32.750, 24, M, 0.50
SACRAMENTO NWR CALIFORNIA, Glenn, CA02, -122.182, 39.417, 120, 63.9, M
SADDLEBACK BUTTE CALIFORNIA, Los Angeles, CA07, -117.821, 34.685, 2590, 61.3, M
SAUGUS CALIFORNIA, Los Angeles, CA06, -118.525, 34.425, 1450, 64.7, M
SAWYERS BAR CALIFORNIA, Siskiyou, CA01, -123.132, 41.300, 2192, 56.3, M
SANTA BARBARA ISLAND CALIFORNI, Santa Barbara, CA06, -119.033, 33.483, 176, 60.0, M
SANTA CRUZ ISLAND CALIFORNIA, Santa Barbara, CA06, -119.722, 33.996, 250, 62.7, M
SCORPION CALIFORNIA, Trinity, CA01, -122.697, 41.112, 4400, 56.2, M
SODA CREEK CALIFORNIA, Lake, CA01, -122.977, 39.425, 1773, 55.1, M
SADDLEBACK CALIFORNIA, Sierra, CA02, -120.865, 39.638, 6670, 43.8, M
SECRET TOWN CALIFORNIA, Nevada, CA02, -120.885, 39.184, 2826, 56.9, M
SANTA FE DAM CALIFORNIA, Los Angeles, CA06, -117.946, 34.121, 500, 67.4, M
SHAVER CALIFORNIA, Fresno, CA05, -119.256, 37.135, 5746, 45.0, M
SCHOOL HOUSE CALIFORNIA, Humboldt, CA01, -123.906, 41.138, 2640, 50.5, M
SHIP MTN. CALIFORNIA, Del Norte, CA01, -123.792, 41.736, 5300, 46.1, M
SHADEQUARTER CALIFORNIA, Tulare, CA05, -118.956, 36.567, 4069, 54.6, M
SIMS CALIFORNIA, Shasta, CA02, -122.373, 41.075, 2400, 58.0, M
SLATER BUTTE CALIFORNIA, Siskiyou, CA01, -123.352, 41.859, 4670, 48.7, M
SAN MIGUEL CALIFORNIA, San Diego, CA06, -116.974, 32.685, 425, 64.3, M
SAN LUIS NWR CALIFORNIA, Merced, CA05, -120.794, 37.182, 65, 63.1, M
SANTA RITA CALIFORNIA, San Benito, CA05, -120.598, 36.348, 5000, 51.6, M
SOLDIER MOUNTAIN CALIFORNIA, Shasta, CA02, -121.586, 40.926, 3710, 54.0, M
SOMES BAR CALIFORNIA, Siskiyou, CA01, -123.496, 41.390, 920, 60.4, M
SQUAW SPRINGS CALIFORNIA, San Bernardino, CA07, -117.568, 35.370, 3620, 61.8, M
SQUAW LAKE CALIFORNIA, Imperial, CA07, -114.494, 32.908, 300, 74.7, M
CALLAHAN CALIFORNIA, Siskiyou, CA01, -122.796, 41.308, 3136, 53.7, M
CAMERON FIRE STATION CALIFORNI, San Diego, CA06, -116.463, 32.721, 3443, 53.1, M
CARRIZO CALIFORNIA, San Luis Obispo, CA05, -119.773, 35.096, 2490, 60.2, M
CASE SPRINGS CALIFORNIA, San Diego, CA06, -117.418, 33.445, 2320, 59.7, M
CATHEYS VALLEY CALIFORNIA, Mariposa, CA05, -120.111, 37.468, 1200, 61.4, M
CEDAR GROVE CALIFORNIA, Fresno, CA05, -118.656, 36.788, 4720, 50.3, M
CHEESEBORO CALIFORNIA, Ventura, CA06, -118.717, 34.185, 1650, 64.4, M
CHILAO CALIFORNIA, Los Angeles, CA06, -118.030, 34.332, 5450, 53.0, M
CHUCHUPATE CALIFORNIA, Ventura, CA05, -119.012, 34.808, 4900, 47.5, M
CLAREMONT CALIFORNIA, Los Angeles, CA06, -117.707, 34.137, 1645, 62.7, M
CLEAR CREEK CALIFORNIA, Los Angeles, CA06, -118.152, 34.271, 3000, 58.2, M
CLARK CALIFORNIA, Riverside, CA06, -117.309, 33.877, 1720, 63.9, M
CALAVERAS ROAD CALIFORNIA, Alameda, CA04, -121.844, 37.553, 1230, 58.5, M
CASE MOUNTAIN CALIFORNIA, Tulare, CA05, -118.809, 36.411, 6450, 46.3, M
COHASSET CALIFORNIA, Butte, CA02, -121.769, 39.872, 1733, 61.8, M
COLLINS BALDY CALIFORNIA, Siskiyou, CA01, -122.950, 41.775, 5493, 47.8, M
UPLAND 1.8 NNE, San Bernardino, CA06, -117.649, 34.144, 1779, M, 0.63
CHICO 0.8 SW, Butte, CA02, -121.820, 39.747, 228, M, 0.29
MAXWELL 5.1 N, Colusa, CA02, -122.177, 39.349, 91, M, 0.30
BISHOP 1.8 NW, Inyo, CA07, -118.423, 37.384, 4206, M, 0.81
LARKSPUR 0.3 WSW, Marin, CA01, -122.535, 37.940, 9, M, 0.65
NAPA 2.0 E, Napa, CA01, -122.263, 38.301, 219, M, 1.06
HUNTINGTON BEACH 2.0 ESE, Orange, CA06, -117.974, 33.685, 13, M, 0.21
RANCHO CORDOVA 1.5 SE, Sacramento, CA02, -121.281, 38.580, 104, M, 1.62
SANTA BARBARA 6.6 NW, Santa Barbara, CA06, -119.790, 34.505, 2675, M, 1.38
N CLAIREMONT 0.6SSE, San Diego, CA06, -117.199, 32.826, 341, M, 0.73
ATASCADERO 3.1 WNW, San Luis Obispo, CA04, -120.738, 35.503, 1403, M, 0.38
REDWOOD CITY 3.3 SSW, San Mateo, CA04, -122.234, 37.474, 31, M, 1.08
PETALUMA 1.8 WSW, Sonoma, CA01, -122.656, 38.233, 157, M, 0.85
CAZADERO 6.6 WNW, Sonoma, CA01, -123.200, 38.562, 919, M, 2.05
PHELAN 6.2 E, San Bernardino, CA07, -117.464, 34.438, 3665, M, 0.07
TWAIN HARTE 1.6 SW, Tuolumne, CA05, -120.253, 38.024, 3231, M, 2.97
TUOLUMNE CITY 2.0 N, Tuolumne, CA05, -120.237, 37.992, 2915, M, 3.06
PORT HUENEME 1.4 NNW, Ventura, CA06, -119.214, 34.181, 14, M, 0.25
THOUSAND OAKS 2.3 NE, Ventura, CA06, -118.837, 34.215, 1093, M, 0.82
GUALALA 0.5 NW, Mendocino, CA01, -123.535, 38.770, 122, M, 1.37
PLEASANT HILL 1.1 ENE, Contra Costa, CA04, -122.056, 37.959, 43, M, 1.52
WHITMORE 4.1 NNE, Shasta, CA02, -121.873, 40.680, 2693, M, 2.90
DEL MONTE FOREST 1.6 ESE, Monterey, CA04, -121.918, 36.579, 686, M, 0.60
SACRAMENTO 11.8 NE, Sacramento, CA02, -121.331, 38.696, 161, M, 0.98
COLUMBIA 1.6 NW, Tuolumne, CA05, -120.425, 38.042, 2326, M, 2.93
BAKERSFIELD 6.1 WSW, Kern, CA05, -119.108, 35.331, 370, M, 1.23
WALKER BASIN 0.9 E, Kern, CA05, -118.507, 35.409, 3435, M, 1.43