Name, County, ClimateDivision, Longitude, Latitude, Elevation, MeanAvgTemperature, TotalPrecipitation
BARSTOW-DAGGETT AIRPORT, San Bernardino, CA07, -116.787, 34.854, 1919, 49.5, T
MERCED, Merced, CA05, -120.516, 37.289, 154, 46.2, 0.10
SAN DIEGO MONTGOMERY FIELD, San Diego, CA06, -117.137, 32.815, 418, 62.8, 0.07
SAN DIEGO INTERNATIONAL AP, San Diego, CA06, -117.183, 32.734, 15, 60.2, 0.07
SAN DIEGO MIRAMAR NAS, San Diego, CA06, -117.133, 32.867, 477, 64.3, T
NORTH ISLAND NAS, San Diego, CA06, -117.210, 32.692, 14, 58.8, 0.01
SAN FRANCISCO INTERNATIONAL AP, San Mateo, CA04, -122.366, 37.620, 10, 51.9, 0.07
SAN LUIS OBISPO MCCHESNEY FIELD, San Luis Obispo, CA04, -120.644, 35.238, 183, 56.8, 0.07
CEDARVILLE, Modoc, CA03, -120.179, 41.530, 4688, 29.7, 0.62
CHICO UNIVERSITY FARM, Butte, CA02, -121.821, 39.691, 185, 47.5, 0.00
CHULA VISTA, San Diego, CA06, -117.086, 32.640, 56, 58.7, 0.03
COLFAX, Placer, CA02, -120.947, 39.090, 2373, 50.2, 0.79
CUYAMACA, San Diego, CA06, -116.587, 32.990, 4640, 46.7, 0.11
DAVIS 2 WSW EXP FARM, Yolo, CA02, -121.776, 38.535, 60, 47.8, 0.03
DEATH VALLEY NATIONAL PARK, Inyo, CA07, -116.867, 36.463, -194, 54.6, 0.00
FAIRMONT, Los Angeles, CA07, -118.430, 34.705, 3060, 52.4, 0.00
FORT BRAGG 5 N, Mendocino, CA01, -123.756, 39.510, 123, 45.3, 1.06
HANFORD 1 S, Kings, CA05, -119.637, 36.316, 237, 45.9, 0.08
HAPPY CAMP RANGER STATION, Siskiyou, CA01, -123.375, 41.796, 1142, 41.3, 1.81
HEALDSBURG, Sonoma, CA01, -122.866, 38.629, 177, 51.2, 0.04
INDIO FIRE STATION, Riverside, CA07, -116.215, 33.709, -21, 61.1, 0.00
LEMON COVE, Tulare, CA05, -119.026, 36.382, 513, 48.6, 0.07
LIVERMORE, Alameda, CA04, -121.751, 37.682, 529, 47.8, 0.06
MERCED MUNICIPAL AP, Merced, CA05, -120.518, 37.286, 152, 46.5, 0.08
NAPA STATE HOSPITAL, Napa, CA01, -122.265, 38.278, 35, 49.4, 0.03
OJAI, Ventura, CA06, -119.227, 34.448, 745, 54.6, 0.00
ORLAND, Glenn, CA02, -122.200, 39.746, 254, 49.3, 0.00
PASADENA, Los Angeles, CA06, -118.145, 34.148, 864, 61.0, 0.00
PASO ROBLES, San Luis Obispo, CA04, -120.685, 35.628, 730, 47.8, 0.04
PETALUMA AIRPORT, Sonoma, CA01, -122.608, 38.258, 20, 47.0, 0.08
QUINCY, Plumas, CA02, -120.947, 39.937, 3420, 32.6, 0.84
REDLANDS, San Bernardino, CA06, -117.195, 34.037, 1410, M, 0.00
SANTA BARBARA, Santa Barbara, CA06, -119.684, 34.417, 16, 56.8, 0.00
SANTA CRUZ, Santa Cruz, CA04, -122.000, 36.988, 70, 52.7, 0.18
SANTA ROSA, Sonoma, CA01, -122.713, 38.456, 166, 46.9, 0.12
TAHOE CITY, Placer, CA03, -120.143, 39.168, 6230, 34.3, 0.48
WASCO, Kern, CA05, -119.352, 35.589, 291, 48.6, 0.00
WEAVERVILLE, Trinity, CA01, -122.940, 40.737, 2058, 39.5, 0.59
WILLOWS 6 W, Glenn, CA02, -122.305, 39.523, 234, 51.2, 0.00
YOSEMITE PARK HEADQUARTERS, Mariposa, CA05, -119.590, 37.750, 4018, 41.7, 0.37
YREKA, Siskiyou, CA01, -122.641, 41.703, 2709, 34.3, 0.53
BERKELEY, Alameda, CA04, -122.260, 37.874, 310, 53.7, 0.12
BLYTHE, Riverside, CA07, -114.597, 33.613, 268, M, 0.00
EUREKA WFO WOODLEY ISLAND, Humboldt, CA01, -124.160, 40.810, 20, 47.3, 1.94
INDEPENDENCE, Inyo, CA07, -118.204, 36.798, 3950, 45.6, 0.00
SAN LUIS OBISPO POLY, San Luis Obispo, CA04, -120.662, 35.306, 308, 59.3, 0.17
IMPERIAL BEACH REAM FIELD NAS, San Diego, CA06, -117.117, 32.568, 24, 57.0, T
CAMPO, San Diego, CA06, -116.470, 32.626, 2630, 53.6, 0.02
EL CENTRO 2 SSW, Imperial, CA07, -115.562, 32.767, -30, 58.7, 0.00
IMPERIAL COUNTY AP, Imperial, CA07, -115.577, 32.835, -55, 57.4, T
EL CENTRO NAF, Imperial, CA07, -115.664, 32.832, -46, 56.5, T
ALPINE, San Diego, CA06, -116.777, 32.836, 1695, 58.8, 0.10
DEEP CANYON LAB, Riverside, CA07, -116.376, 33.651, 1200, M, 0.00
ELSINORE, Riverside, CA06, -117.346, 33.686, 1268, 60.9, 0.00
SANTA ANA JOHN WAYNE AP, Orange, CA06, -117.867, 33.680, 43, 61.2, 0.01
HAYFIELD PUMPING PLANT, Riverside, CA07, -115.629, 33.704, 1370, 58.0, 0.00
IDYLLWILD FIRE DEPT, Riverside, CA06, -116.707, 33.757, 5380, 48.7, 0.00
SAN JACINTO, Riverside, CA06, -116.975, 33.797, 1525, 57.9, 0.00
HEMET, Riverside, CA06, -116.894, 33.738, 1811, 61.0, 0.00
SANTA ANA FIRE STATION, Orange, CA06, -117.867, 33.744, 135, 62.7, 0.00
EAGLE MOUNTAIN, Riverside, CA07, -115.451, 33.809, 973, 57.2, 0.00
PALM SPRINGS, Riverside, CA07, -116.510, 33.828, 425, M, 0.00
LONG BEACH DAUGHERTY AP, Los Angeles, CA06, -118.147, 33.812, 34, 60.8, T
PALOS VERDES ES FC43D, Los Angeles, CA06, -118.391, 33.800, 220, M, 0.01
FULLERTON MUNICIPAL AP, Orange, CA06, -117.986, 33.872, 86, 60.4, 0.03
MARCH AFB, Riverside, CA06, -117.250, 33.900, 1536, 53.6, T
HAWTHORNE MUNICIPAL AP, Los Angeles, CA06, -118.333, 33.924, 55, 61.1, 0.06
LOS ANGELES INTL AP, Los Angeles, CA06, -118.387, 33.938, 97, 61.4, 0.01
RIVERSIDE FIRE STATION 3, Riverside, CA06, -117.388, 33.951, 840, M, 0.00
RIVERSIDE MUNICIPAL AP, Riverside, CA06, -117.435, 33.953, 845, 60.0, T
CHINO AP, San Bernardino, CA06, -117.625, 33.976, 636, 59.1, T
CULVER CITY, Los Angeles, CA06, -118.414, 34.005, 92, 59.4, 0.00
SANTA MONICA MUNICIPAL AP, Los Angeles, CA06, -118.447, 34.021, 175, 60.1, T
ONTARIO INTL AP, San Bernardino, CA06, -117.577, 34.053, 924, 60.5, T
COVINA CITY YARD FC387B, Los Angeles, CA06, -117.880, 34.092, 607, M, 0.00
U C L A, Los Angeles, CA06, -118.443, 34.070, 430, 64.8, 0.00
IRON MOUNTAIN, San Bernardino, CA07, -115.122, 34.147, 922, 57.6, 0.00
TWENTYNINE PALMS, San Bernardino, CA07, -116.037, 34.128, 1975, 55.8, 0.00
JOSHUA TREE, San Bernardino, CA07, -116.275, 34.147, 2563, 52.0, 0.06
SAN GABRIEL FIRE DEPT, Los Angeles, CA06, -118.100, 34.084, 363, M, 0.00
POINT MUGU NF, Ventura, CA06, -119.123, 34.124, 12, 58.6, 0.00
ALTADENA, Los Angeles, CA06, -118.138, 34.182, 1127, M, 0.00
SAN GABRIEL CANYON PH, Los Angeles, CA06, -117.908, 34.155, 744, M, 0.00
WOODLAND HILLS PIERCE COLLEGE, Los Angeles, CA06, -118.574, 34.182, 790, 60.0, T
LYTLE CREEK R S, San Bernardino, CA06, -117.471, 34.238, 2730, M, 0.00
SAN GABRIEL DAM FC425B-E, Los Angeles, CA06, -117.861, 34.205, 1481, M, 0.00
MT WILSON CBS, Los Angeles, CA06, -118.071, 34.231, 5710, 52.2, 0.00
VAN NUYS AP, Los Angeles, CA06, -118.491, 34.212, 785, 61.5, T
CAMARILLO AP, Ventura, CA06, -119.088, 34.211, 71, 59.8, 0.00
OXNARD VENTURA COUNTY AP, Ventura, CA06, -119.204, 34.200, 39, 60.0, 0.00
PARKER RESRVOIR, San Bernardino, CA07, -114.171, 34.290, 738, 59.8, 0.00
BIG BEAR LAKE, San Bernardino, CA06, -116.917, 34.243, 6753, 40.2, 0.01
BIG TUJUNGA DAM FC46, Los Angeles, CA06, -118.188, 34.295, 2326, M, 0.00
PACOIMA DAM FC33A-E, Los Angeles, CA06, -118.400, 34.329, 1550, M, 0.00
PIRU 2 ESE, Ventura, CA06, -118.757, 34.406, 712, M, 0.00
SANTA BARBARA MUNI AP, Santa Barbara, CA06, -119.842, 34.424, 8, 52.8, 0.00
JUNCAL DAM, Santa Barbara, CA06, -119.507, 34.491, 2260, M, 0.00
VICTORVILLE, San Bernardino, CA07, -117.293, 34.529, 2880, 48.2, 0.00
GIBRALTAR DAM NO. 2, Santa Barbara, CA06, -119.682, 34.523, 1558, 53.9, 0.00
AMBOY, San Bernardino, CA07, -115.744, 34.559, 648, 55.2, T
PALMDALE, Los Angeles, CA07, -118.094, 34.588, 2612, 48.7, 0.00
SAUGUS POWER PLANT 1, Los Angeles, CA06, -118.454, 34.590, 2161, M, 0.00
LOS PRIETOS RS, Santa Barbara, CA06, -119.791, 34.544, 1024, M, 0.00
CACHUMA LAKE, Santa Barbara, CA06, -119.982, 34.582, 789, 52.8, 0.00
SALSIPUEDES GAGING STATION, Santa Barbara, CA06, -120.408, 34.585, 254, M, 0.04
PALMDALE AP, Los Angeles, CA07, -118.083, 34.629, 2509, 47.6, T
LOMPOC, Santa Barbara, CA06, -120.451, 34.654, 75, 55.0, 0.00
LOMPOC AP, Santa Barbara, CA06, -120.467, 34.667, 88, 52.0, 0.04
LANCASTER, Los Angeles, CA06, -118.213, 34.741, 2338, 44.1, T
SANDBERG, Los Angeles, CA06, -118.724, 34.744, 4510, 53.6, T
LEBEC, Kern, CA05, -118.865, 34.833, 3575, 48.3, 0.25
NEW CUYAMA FIRE STATION, Santa Barbara, CA06, -119.683, 34.946, 2160, 49.6, 0.01
TWITCHELL DAM, Santa Barbara, CA06, -120.321, 34.988, 582, 56.2, 0.04
BORON, Kern, CA07, -117.650, 35.004, 2450, M, 0.00
MOJAVE, Kern, CA07, -118.162, 35.049, 2735, 53.0, 0.00
TAFT, Kern, CA05, -119.430, 35.150, 773, M, 0.00
SALINAS DAM, San Luis Obispo, CA04, -120.504, 35.337, 1392, M, 0.05
RANDSBURG, Kern, CA07, -117.652, 35.369, 3570, 50.6, 0.00
SANTA MARGARITA BOOST, San Luis Obispo, CA04, -120.637, 35.374, 1148, M, 0.13
MORRO BAY FIRE DEPT, San Luis Obispo, CA04, -120.845, 35.367, 118, M, 0.00
BAKERSFIELD AP, Kern, CA05, -119.055, 35.434, 490, 50.0, 0.04
BUTTONWILLOW, Kern, CA05, -119.470, 35.403, 225, 45.6, 0.00
LOST HILLS, Kern, CA05, -119.689, 35.618, 288, M, T
GLENNVILLE, Kern, CA05, -118.701, 35.727, 3140, 43.2, 0.18
TRONA, San Bernardino, CA07, -117.391, 35.764, 1695, 49.6, 0.00
DELANO, Kern, CA05, -119.260, 35.768, 302, 47.1, 0.00
BRADLEY TELEMETERING, Monterey, CA04, -120.868, 35.930, 443, M, 0.00
KETTLEMAN CITY, Kings, CA05, -119.960, 36.007, 240, 45.1, 0.01
CORCORAN IRRIGATION DIST., Kings, CA05, -119.582, 36.098, 200, 45.8, 0.05
COALINGA, Fresno, CA05, -120.361, 36.136, 670, 49.3, 0.00
KING CITY, Monterey, CA04, -121.138, 36.207, 320, 50.5, 0.07
LINDSAY, Tulare, CA05, -119.054, 36.203, 435, 46.2, 0.05
WESTHAVEN, Fresno, CA05, -119.997, 36.227, 285, M, 0.01
BIG SUR STATION, Monterey, CA04, -121.780, 36.247, 200, 55.1, 0.06
VISALIA, Tulare, CA05, -119.300, 36.328, 303, 46.5, 0.08
FIVE POINTS 5 SSW, Fresno, CA05, -120.156, 36.364, 285, 47.8, 0.00
SAN CLEMENTE DAM, Monterey, CA04, -121.709, 36.438, 600, M, 0.05
ASH MOUNTAIN, Tulare, CA05, -118.825, 36.491, 1708, 51.4, 0.15
THREE RIVERS EDISON PH 1, Tulare, CA05, -118.862, 36.465, 1140, 49.6, 0.10
PINNACLES NATIONAL PARK, San Benito, CA04, -121.182, 36.482, 1307, 51.2, 0.22
CARMEL VALLEY, Monterey, CA04, -121.724, 36.481, 480, 54.5, 0.20
LODGEPOLE, Tulare, CA05, -118.732, 36.604, 6735, 32.9, 0.12
PANOCHE 2 W, San Benito, CA05, -120.884, 36.607, 1400, M, T
MONTEREY, Monterey, CA04, -121.855, 36.593, 122, 53.2, 0.24
SALINAS NO. 2, Monterey, CA04, -121.666, 36.659, 45, 52.8, 0.10
SALINAS AP, Monterey, CA04, -121.609, 36.664, 73, 53.7, 0.03
GRANT GROVE, Tulare, CA05, -118.962, 36.738, 6580, 44.1, 0.17
LOS BANOS ARBURUA RANCH, Merced, CA05, -120.939, 36.875, 843, M, 0.06
HOLLISTER 2, San Benito, CA04, -121.421, 36.848, 275, 49.0, 0.23
BALCH POWER HOUSE, Fresno, CA05, -119.088, 36.909, 1735, 48.7, 0.20
WATSONVILLE WATERWORKS, Santa Cruz, CA04, -121.769, 36.931, 95, 53.4, 0.00
FRIANT GOVERNMENT CAMP, Fresno, CA05, -119.707, 36.997, 410, 48.1, 0.06
MADERA, Madera, CA05, -120.038, 36.954, 270, 45.6, 0.00
WISHON DAM, Fresno, CA05, -118.984, 37.007, 6550, M, 0.00
GILROY, Santa Clara, CA04, -121.561, 37.003, 194, 46.8, 0.00
AUBERRY 2 NW, Fresno, CA05, -119.513, 37.092, 2090, 47.5, 0.14
LOS BANOS, Merced, CA05, -120.867, 37.056, 120, 47.7, 0.07
BEN LOMOND NO. 4, Santa Cruz, CA04, -122.080, 37.086, 420, 51.3, 0.11
ASPENDELL, Inyo, CA01, -118.599, 37.232, 8470, 35.6, 0.01
HUNTINGTON LAKE, Fresno, CA05, -119.221, 37.228, 7020, M, 0.12
NORTH FORK RS, Madera, CA05, -119.510, 37.233, 2645, 46.6, 0.29
RAYMOND, Madera, CA05, -119.909, 37.210, 919, M, 0.37
LOS GATOS, Santa Clara, CA04, -121.959, 37.232, 365, 52.5, 0.00
NEWMAN, Stanislaus, CA05, -121.018, 37.281, 90, 50.3, 0.02
MOUNT HAMILTON, Santa Clara, CA04, -121.635, 37.343, 4220, 51.9, 0.16
BISHOP AIRPORT, Inyo, CA07, -118.359, 37.371, 4110, 42.0, T
MOFFETT FEDERAL AIRFIELD, Santa Clara, CA04, -122.048, 37.406, 39, 50.6, 0.08
TURLOCK #2, Stanislaus, CA05, -120.846, 37.502, 103, 50.4, 0.05
PALO ALTO, Santa Clara, CA04, -122.140, 37.444, 25, 48.0, 0.02
REDWOOD CITY, San Mateo, CA04, -122.239, 37.477, 31, 49.3, 0.08
HALF MOON BAY, San Mateo, CA04, -122.443, 37.473, 27, 52.3, 0.16
IMPERIAL, Imperial, CA07, -115.567, 32.849, -64, 57.6, 0.00
DESCANSO RANGER STN, San Diego, CA06, -116.617, 32.850, 3500, M, 0.00
EL CAPITAN DAM, San Diego, CA06, -116.815, 32.886, 600, M, 0.17
LAKESIDE 2 E, San Diego, CA06, -116.895, 32.854, 690, M, 0.08
POWAY VALLEY, San Diego, CA06, -117.031, 33.020, 648, M, 0.11
JULIAN CDF, San Diego, CA06, -116.592, 33.076, 4215, 52.9, 0.05
CARLSBAD MCCLELLAN PALOMAR AP, San Diego, CA06, -117.277, 33.130, 313, 59.9, 0.10
HENSHAW DAM, San Diego, CA06, -116.761, 33.237, 2700, 49.5, 0.00
VISTA, San Diego, CA06, -117.232, 33.235, 430, 60.1, 0.00
OCEANSIDE MARINA, San Diego, CA06, -117.395, 33.210, 10, 58.0, 0.03
NILAND, Imperial, CA07, -115.524, 33.278, -60, M, 0.00
BORREGO DESERT PARK, San Diego, CA07, -116.404, 33.256, 810, 61.2, 0.00
PALOMAR MTN OBSERVATORY, San Diego, CA06, -116.840, 33.378, 5550, 51.6, 0.00
MECCA FIRE STATION, Riverside, CA07, -116.073, 33.570, -183, 58.9, 0.00
BLYTHE ASOS, Riverside, CA07, -114.715, 33.619, 395, 56.2, 0.00
DESERT RESORTS REGIONAL AP, Riverside, CA07, -116.164, 33.632, -118, 56.8, 0.00
SO ENTRANCE YOSEMITE N.P., Mariposa, CA05, -119.633, 37.512, 5047, 43.0, 0.20
MARIPOSA R S, Mariposa, CA05, -119.986, 37.495, 2100, M, 0.12
NEWARK, Alameda, CA04, -122.032, 37.515, 10, 51.4, 0.06
EXCHEQUER DAM, Mariposa, CA05, -120.267, 37.585, 442, M, 0.23
MODESTO AP, Stanislaus, CA05, -120.955, 37.625, 87, 47.8, 0.05
HAYWARD AIR TERMINAL, Alameda, CA04, -122.121, 37.659, 31, 51.1, 0.05
TRACY CARBONA, San Joaquin, CA05, -121.347, 37.682, 135, 45.5, 0.07
LIVERMORE MUNICIPAL AP, Alameda, CA04, -121.815, 37.693, 393, 47.8, 0.03
OAKLAND INTERNATIONAL AIRPORT, Alameda, CA04, -122.233, 37.718, 5, 48.7, 0.09
UPPER SAN LEANDRO FILTERS, Alameda, CA04, -122.167, 37.772, 394, M, 0.10
SAN FRANCISCO DOWNTOWN, San Francisco, CA04, -122.427, 37.771, 150, 54.4, 0.15
SAN FRANCISCO OCEANSIDE, San Francisco, CA04, -122.505, 37.728, 8, 53.8, 0.17
GROVELAND 2, Tuolumne, CA05, -120.226, 37.844, 2800, 44.1, 0.17
TRACY PUMPING PLANT, Alameda, CA05, -121.583, 37.796, 61, 48.6, 0.06
TUOLUMNE MEADOWS R.S., Tuolumne, CA05, -119.344, 37.877, 8694, 32.4, 0.18
MOUNT DIABLO JUNCTION, Contra Costa, CA04, -121.930, 37.879, 2170, 52.9, 0.38
STOCKTON AP, San Joaquin, CA05, -121.226, 37.890, 27, 47.6, 0.05
RICHMOND, Contra Costa, CA04, -122.377, 37.919, 20, 54.8, 0.05
HETCH HETCHY, Tuolumne, CA05, -119.783, 37.961, 3870, 45.0, 0.35
CHERRY VALLEY DAM, Tuolumne, CA05, -119.916, 37.975, 4765, 46.3, 0.37
SONORA, Tuolumne, CA05, -120.387, 37.967, 1675, 45.8, 0.12
STOCKTON FIRE STA 4, San Joaquin, CA05, -121.318, 37.999, 12, M, 0.04
CONCORD BUCHANAN FIELD, Contra Costa, CA04, -122.053, 37.992, 23, 50.1, 0.10
CONCORD WASTEWATER PLANT, Contra Costa, CA04, -122.069, 37.983, 40, 49.6, 0.05
SAN RAFAEL-CIVIC CENTER, Marin, CA01, -122.537, 37.998, 120, 50.2, 0.02
KENTFIELD, Marin, CA01, -122.545, 37.957, 145, 50.0, 0.02
MARTINEZ WATER PLANT, Contra Costa, CA04, -122.114, 38.013, 40, 45.9, 0.06
SAN ANDREAS 2, Calaveras, CA05, -120.671, 38.191, 1100, 49.0, 0.29
BODIE CALIFORNIA STATE HISTORIC PARK, Mono, CA03, -119.014, 38.212, 8370, 26.4, 0.22
ACAMPO 5NE, San Joaquin, CA05, -121.201, 38.218, 87, M, 0.20
NAPA COUNTY AIRPORT, Napa, CA04, -122.280, 38.208, 16, 47.0, 0.06
BRIDGEPORT, Mono, CA03, -119.229, 38.258, 6470, 31.8, 0.02
CALAVERAS BIG TREES, Calaveras, CA05, -120.311, 38.277, 4695, 44.1, 0.60
CAMP PARDEE, Calaveras, CA05, -120.843, 38.249, 658, M, 0.43
TRAVIS FIELD AFB, Solano, CA02, -121.933, 38.267, 62, M, 0.06
FAIRFIELD, Solano, CA02, -122.068, 38.274, 40, 50.1, 0.03
SUTTER HILL CDF, Amador, CA05, -120.801, 38.377, 1586, 48.0, 0.38
WEST POINT, Calaveras, CA05, -120.545, 38.378, 2775, M, 0.68
ATLAS ROAD BROWN, Napa, CA01, -122.248, 38.427, 1680, M, 0.08
GRATON, Sonoma, CA01, -122.865, 38.431, 200, 47.4, 0.05
OCCIDENTAL, Sonoma, CA01, -122.966, 38.386, 865, 50.9, 0.24
FIDDLETOWN DEXTER RCH, Amador, CA05, -120.698, 38.525, 2170, M, 0.83
SACRAMENTO AP ASOS, Sacramento, CA02, -121.496, 38.507, 19, 47.1, 0.14
WINTERS, Yolo, CA02, -121.978, 38.525, 135, 48.6, 0.01
LAKE SOLANO, Solano, CA02, -122.004, 38.492, 187, 50.0, T
SAINT HELENA, Napa, CA01, -122.471, 38.507, 225, 51.4, 0.07
SAINT HELENA 4 WSW, Napa, CA01, -122.538, 38.493, 1780, M, 0.20
FORT ROSS, Sonoma, CA01, -123.245, 38.515, 112, 47.9, 0.33
SACRAMENTO 5 ESE, Sacramento, CA02, -121.418, 38.555, 38, 49.6, 0.13
ANGWIN PACIFIC UNION COLLEGE, Napa, CA01, -122.440, 38.573, 1715, 49.6, 0.11
VENADO, Sonoma, CA01, -123.018, 38.609, 1260, M, 0.20
WOODLAND 1 WNW, Yolo, CA02, -121.794, 38.683, 67, 47.7, 0.09
PLACERVILLE, El Dorado, CA02, -120.824, 38.696, 1850, M, 0.85
SACRAMENTO METROPOLITAN AP, Sacramento, CA02, -121.595, 38.701, 24, 46.0, 0.09
PACIFIC HOUSE, El Dorado, CA02, -120.503, 38.758, 3450, 39.4, 0.95
MIDDLETOWN, Lake, CA02, -122.626, 38.748, 1121, M, 0.50
CLOVERDALE, Sonoma, CA01, -123.026, 38.793, 400, 50.0, 0.13
KELSEY 1 N, El Dorado, CA02, -120.821, 38.809, 2000, M, 0.98
SOUTH LAKE TAHOE AP, El Dorado, CA03, -119.996, 38.898, 6257, 33.9, 0.14
GEORGETOWN RS, El Dorado, CA02, -120.801, 38.933, 3001, 48.2, 0.66
AUBURN, Placer, CA02, -121.084, 38.907, 1292, 46.1, 0.52
NICOLAUS #2, Sutter, CA02, -121.545, 38.926, 43, M, 0.18
YORKVILLE, Mendocino, CA01, -123.231, 38.905, 1100, M, 0.40
CLEARLAKE 4 SE, Lake, CA02, -122.567, 38.924, 1349, 47.6, 0.02
FORESTHILL RANGER STATION, Placer, CA02, -120.845, 39.010, 3015, M, 1.04
HELL HOLE, Placer, CA02, -120.415, 39.058, 4850, M, 0.65
MARYSVILLE AIRPORT (ASOS), Yuba, CA02, -121.569, 39.102, 62, 46.5, 0.08
UKIAH MUNICIPAL AP, Mendocino, CA01, -123.200, 39.128, 603, 46.2, 0.15
UKIAH 4 WSW, Mendocino, CA01, -123.272, 39.127, 1328, M, 0.48
GOLD RUN 4 SW, Placer, CA02, -120.900, 39.150, 3220, M, 1.10
WILLIAMS, Colusa, CA02, -122.150, 39.150, 85, M, 0.48
GRASS VALLEY NO. 2, Nevada, CA02, -121.068, 39.204, 2400, 45.9, 1.06
HARRY L. ENGLEBRIGHT DAM, Nevada, CA02, -121.267, 39.237, 800, M, 0.65
COLUSA 2 SSW, Colusa, CA02, -122.027, 39.188, 50, 47.8, 0.00
BLUE CANYON NYACK AP, Placer, CA02, -120.709, 39.276, 5286, 47.4, 0.88
NEVADA CITY, Nevada, CA02, -121.001, 39.247, 2781, 45.2, 0.88
TRUCKEE AIRPORT, Nevada, CA03, -120.139, 39.320, 5900, 28.4, 0.59
TRUCKEE RS, Nevada, CA03, -120.173, 39.333, 5823, M, 0.00
COLGATE POWERHOUSE, Yuba, CA02, -121.192, 39.331, 595, M, 0.68
MOULTON WEIR, Colusa, CA02, -122.017, 39.333, 76, M, 0.00
BOCA, Nevada, CA03, -120.094, 39.389, 5575, 31.3, 0.41
POTTER VALLEY POWERHOUSE, Mendocino, CA01, -123.129, 39.362, 1018, 46.8, 0.32
FARAD, Nevada, CA03, -120.033, 39.428, 5153, M, 0.21
BOWMAN DAM, Nevada, CA02, -120.656, 39.454, 5385, 43.5, 1.21
OROVILLE, Butte, CA02, -121.553, 39.518, 171, 49.5, 0.05
OROVILLE MUNICIPAL AP, Butte, CA02, -121.622, 39.494, 187, 47.6, 0.02
SIERRAVILLE RS, Sierra, CA02, -120.370, 39.583, 4975, 31.1, 0.39
DOWNIEVILLE, Sierra, CA02, -120.824, 39.563, 2915, 38.8, 1.31
STRAWBERRY VALLEY, Yuba, CA02, -121.108, 39.563, 3808, 45.0, 1.19
STONY GORGE RESERVOIR, Glenn, CA02, -122.534, 39.586, 800, 46.4, 0.00
BRUSH CREEK RANGER STATION, Butte, CA02, -121.345, 39.695, 3560, M, 0.96
PARADISE, Butte, CA02, -121.624, 39.754, 1750, 51.5, 0.38
VINTON, Plumas, CA02, -120.186, 39.806, 4950, 37.1, 0.08
PORTOLA, Plumas, CA02, -120.472, 39.805, 4850, 33.4, 0.48
DE SABLA, Butte, CA02, -121.611, 39.872, 2710, 45.5, 0.79
BUCKS CREEK, Plumas, CA02, -121.315, 39.937, 1891, M, 1.19
DOYLE, Lassen, CA03, -120.105, 40.027, 4293, M, 0.09
CANYON DAM, Plumas, CA02, -121.089, 40.171, 4560, 33.8, 1.85
MIRANDA 4 SE, Humboldt, CA01, -123.776, 40.182, 266, M, 1.04
FORT SEWARD, Humboldt, CA01, -123.632, 40.218, 220, M, 1.04
HONEYDEW 1 SW, Humboldt, CA01, -124.132, 40.238, 373, M, 1.35
CHESTER, Plumas, CA02, -121.242, 40.303, 4530, 33.5, 0.34
MINERAL, Tehama, CA02, -121.609, 40.346, 4875, 35.2, 1.12
COLEMAN FISHERIES STATION, Shasta, CA02, -122.143, 40.400, 420, M, 0.13
VOLTA PH, Shasta, CA02, -121.866, 40.458, 2220, M, 0.46
SCOTIA, Humboldt, CA01, -124.104, 40.483, 136, 48.7, 1.21
MANZANITA LAKE, Shasta, CA02, -121.577, 40.541, 5750, 35.9, 1.46
WHISKEYTOWN RESERVOIR, Shasta, CA02, -122.528, 40.612, 1295, 49.2, 0.04
SHASTA DAM, Shasta, CA02, -122.416, 40.714, 1075, 50.0, 0.09
TRINITY RIVER HATCHERY, Trinity, CA01, -122.795, 40.726, 1861, 40.3, 0.26
BIG BAR 4 E, Trinity, CA01, -123.208, 40.741, 1253, 38.7, 0.50
BUCKHORN, Shasta, CA02, -121.932, 40.880, 3700, M, 1.15
HAT CREEK, Shasta, CA02, -121.543, 40.932, 3015, 35.2, 0.26
PIT RIVER PH 5, Shasta, CA02, -121.977, 40.987, 1458, M, 0.61
WILLOW CREEK 1 NW, Humboldt, CA01, -123.636, 40.947, 464, 41.5, 1.81
FALL RIVER MILLS, Shasta, CA02, -121.435, 41.008, 3300, M, 0.37
COFFEE CREEK RS, Trinity, CA01, -122.709, 41.089, 2503, M, 0.37
ADIN RANGER STATION, Modoc, CA02, -120.945, 41.193, 4202, M, 0.28
DUNSMUIR TREATMENT PL, Siskiyou, CA02, -122.282, 41.183, 2169, 40.3, 0.78
JESS VALLEY, Modoc, CA02, -120.295, 41.268, 5400, 32.8, 0.64
MCCLOUD, Siskiyou, CA02, -122.138, 41.252, 3233, 39.1, 0.68
ORICK, Humboldt, CA01, -124.067, 41.283, 5, M, 2.60
CALLAHAN, Siskiyou, CA01, -122.825, 41.338, 3085, 33.0, 0.59
SAWYERS BAR RS, Siskiyou, CA01, -123.133, 41.301, 2255, 44.7, 0.96
ORLEANS RS, Humboldt, CA01, -123.534, 41.303, 433, M, 1.20
ALTURAS, Modoc, CA02, -120.544, 41.490, 4378, 30.2, 0.10
FORT JONES RS, Siskiyou, CA01, -122.848, 41.601, 2729, 30.3, 0.59
LAVA BEDS NAT MON, Siskiyou, CA01, -121.501, 41.702, 4770, 33.5, 0.03
MOUNT HEBRON RS, Siskiyou, CA01, -122.045, 41.783, 4265, M, 0.20
CRESCENT CITY MCNAMARA AP, Del Norte, CA01, -124.238, 41.784, 56, 49.5, 2.74
OAK KNOLL W. C., Siskiyou, CA01, -122.850, 41.839, 1980, M, 0.85
FORT BIDWELL, Modoc, CA03, -120.157, 41.872, 4739, 33.1, 0.46
GASQUET RS, Del Norte, CA01, -123.965, 41.845, 387, M, 3.91
FORT DICK RIVER, Del Norte, CA01, -124.135, 41.881, -, M, 2.31
TULELAKE, Siskiyou, CA01, -121.474, 41.960, 4038, 29.4, 0.49
COPCO NO 1 DAM, Siskiyou, CA01, -122.338, 41.980, 2665, 35.1, 0.78
ELK VALLEY, Del Norte, CA01, -123.718, 41.988, 1708, M, 3.71
BARSTOW, San Bernardino, CA07, -117.022, 34.893, 2220, 48.5, 0.00
PEARBLOSSOM, Los Angeles, CA07, -117.897, 34.503, 3101, 51.6, 0.00
EL CAJON, San Diego, CA06, -116.928, 32.801, 495, 58.7, 0.05
MARKLEY COVE, Napa, CA02, -122.124, 38.492, 480, 48.0, 0.03
LORAINE 5 NNE, Kern, CA05, -118.412, 35.384, 4235, 49.3, 0.04
LEE VINING, Mono, CA07, -119.119, 37.957, 6797, 35.0, T
ANAHEIM, Orange, CA06, -117.842, 33.865, 235, 63.7, 0.50
NEW MELONES DAM HQ, Tuolumne, CA05, -120.486, 38.005, 960, 50.5, 0.24
MAMMOTH LAKES RS, Mono, CA07, -118.962, 37.648, 7804, 35.1, 0.29
FRAZIER PARK 9 SW, Ventura, CA05, -119.104, 34.733, 5169, M, 0.00
MONTEREY WFO, Monterey, CA04, -121.855, 36.593, 122, 52.2, 0.20
SKYLINE RIDGE PRESERVE, San Mateo, CA04, -122.185, 37.313, 2270, 50.6, 0.88
FREMONT, Alameda, CA04, -122.016, 37.542, 38, 49.6, 0.13
MAD RIVER 12 SE, Trinity, CA01, -123.374, 40.319, 2763, M, 1.16
TEHACHAPI 4 SE, Kern, CA05, -118.422, 35.101, 4220, 46.6, T
VALLEJO, Solano, CA01, -122.187, 38.100, 341, 52.1, 0.03
OXNARD WFO, Ventura, CA06, -119.137, 34.207, 52, 60.3, 0.00
HANFORD MUNICIPAL AP, Kings, CA05, -119.623, 36.311, 249, 46.6, 0.04
RAMONA AIRPORT, San Diego, CA06, -116.916, 33.038, 1385, 54.7, 0.04
VACAVILLE/NUT TREE AP ASOS, Solano, CA02, -121.959, 38.378, 104, 48.2, 0.04
ALTURAS MUNICIPAL AP, Modoc, CA02, -120.561, 41.484, 4383, 30.9, 0.38
MADERA MUNICIPAL AP, Madera, CA05, -120.111, 36.985, 251, 46.7, 0.09
BAKERSFIELD 5 NW, Kern, CA05, -119.051, 35.419, 470, 47.9, 0.05
FRESNO 5 NE, Fresno, CA05, -119.709, 36.767, 338, 48.5, 0.00
OCEANSIDE MUNICIPAL AP, San Diego, CA06, -117.350, 33.219, 30, 55.6, 0.00
SAN DIEGO SEAWORLD, San Diego, CA06, -117.231, 32.765, 14, 56.3, 0.02
ARCATA EUREKA AP, Humboldt, CA01, -124.105, 40.978, 211, 49.6, 2.31
NEWPORT BEACH HARBOR, Orange, CA06, -117.884, 33.603, 10, 61.3, 0.00
ESCONDIDO NO. 2, San Diego, CA06, -117.090, 33.121, 600, 59.7, 0.00
REDDING AP, Shasta, CA02, -122.298, 40.515, 501, 48.7, 0.11
AVALON CATALINA AP, Los Angeles, CA06, -118.415, 33.404, 1565, 62.6, T
SANTA MARIA PUBLIC AP, Santa Barbara, CA06, -120.452, 34.894, 243, 55.1, 0.03
MOUNT SHASTA, Siskiyou, CA02, -122.333, 41.333, 3535, 37.2, 0.29
RED BLUFF MUNI AP, Tehama, CA02, -122.255, 40.152, 354, 49.1, 0.01
NEEDLES AIRPORT, San Bernardino, CA07, -114.618, 34.768, 888, 58.6, 0.00
CHINA LAKE NAF, Kern, CA07, -117.693, 35.688, 2230, 46.8, T
SUSANVILLE 2SW, Lassen, CA03, -120.663, 40.417, 4212, 32.2, 0.27
TEJON RANCHO, Kern, CA05, -118.750, 35.023, 1425, 49.6, 0.10
BURBANK GLENDALE PASADENA AP, Los Angeles, CA06, -118.365, 34.200, 731, 61.1, T
CHICO 2.9 W, Butte, CA02, -121.861, 39.749, 190, M, 0.29
CHICO 1.8 SW, Butte, CA02, -121.832, 39.737, 209, M, 0.30
MAGALIA 2.3 SE, Butte, CA02, -121.582, 39.804, 2327, M, 0.60
CHICO 5.5 NW, Butte, CA02, -121.891, 39.800, 191, M, 0.16
MORAGA 2.4 NNW, Contra Costa, CA04, -122.138, 37.870, 748, M, 0.06
SMITH RIVER 1.1 SSE, Del Norte, CA01, -124.136, 41.915, 120, M, 4.53
FORT DICK 0.2 SSW, Del Norte, CA01, -124.151, 41.865, 49, M, 3.78
CAMINO 2.6 ESE, El Dorado, CA02, -120.634, 38.719, 3108, M, 0.96
TOLLHOUSE 2.8 SSE, Fresno, CA05, -119.396, 36.978, 2111, M, 0.29
CLOVIS 1.3 NE, Fresno, CA05, -119.681, 36.833, 375, M, 0.03
FRESNO 2.4 NW, Fresno, CA05, -119.822, 36.805, 319, M, 0.00
SUSANVILLE 3.5 SSW, Lassen, CA03, -120.674, 40.363, 4347, M, 0.52
SUSANVILLE 0.6 WSW, Lassen, CA03, -120.660, 40.407, 4220, M, 0.30
AHWAHNEE 2.5 NNW, Madera, CA05, -119.738, 37.400, 2840, M, 0.25
WESTPORT 1.6 NNE, Mendocino, CA01, -123.770, 39.657, 722, M, 1.11
ALBION 4.0 SE, Mendocino, CA01, -123.710, 39.188, 636, M, 0.96
LAYTONVILLE 9.8 NNW, Mendocino, CA01, -123.534, 39.814, 2078, M, 0.69
LUCAS VALLEY 0.7 SSW, Marin, CA01, -122.571, 38.027, 185, M, 0.04
MONTEREY 1.5 WSW, Monterey, CA04, -121.905, 36.590, 235, M, 0.18
ALTA SIERRA 2.3 WSW, Nevada, CA02, -121.089, 39.106, 1677, M, 0.95
GRASS VALLEY 4.2 SE, Nevada, CA02, -120.993, 39.186, 2784, M, 0.70
GRASS VALLEY 1.3 NNE, Nevada, CA02, -121.046, 39.238, 2782, M, 0.98
GRASS VALLEY 2.7 SW, Nevada, CA02, -121.092, 39.194, 2334, M, 1.14
ORANGE 3.0 ENE, Orange, CA06, -117.778, 33.826, 649, M, 0.01
ROCKLIN 1.1 N, Placer, CA02, -121.244, 38.818, 550, M, 0.34
ROSEVILLE 2.4 SE, Placer, CA02, -121.257, 38.740, 156, M, 0.31
APPLEGATE 0.5 SE, Placer, CA02, -120.986, 38.996, 1983, M, 1.00
MURRIETA 4.3 ENE, Riverside, CA06, -117.140, 33.584, 1312, M, T
FAIR OAKS 1.9 N, Sacramento, CA02, -121.252, 38.676, 199, M, 0.31
MORGAN HILL 2.7 S, Santa Clara, CA04, -121.632, 37.092, 338, M, 0.08
SAN JOSE 5.8 NNE, Santa Clara, CA04, -121.824, 37.386, 293, M, 0.15
ENCINITAS 2.7N, San Diego, CA06, -117.292, 33.076, 188, M, 0.18
ESCONDIDO 7.2 SE, San Diego, CA06, -116.992, 33.056, 1585, M, 0.05
RAMONA 3ENE, San Diego, CA06, -116.828, 33.051, 2034, M, 0.00
RANCHO BERNARDO 1.9WSW, San Diego, CA06, -117.106, 33.014, 687, M, 0.04
SAN DIEGO 13.9N, San Diego, CA06, -117.163, 32.917, 406, M, 0.08
REDDING 2.8 NW, Shasta, CA02, -122.401, 40.602, 661, M, 0.04
SHINGLETOWN 3.5 ENE, Shasta, CA02, -121.834, 40.519, 3796, M, 0.30
MOUNT SHASTA 5.1 NW, Siskiyou, CA02, -122.397, 41.364, 3911, M, 0.37
DORRIS 0.2 SW, Siskiyou, CA01, -121.923, 41.963, 4249, M, 0.49
TEMPLETON 5.5 WSW, San Luis Obispo, CA04, -120.804, 35.535, 1469, M, 0.09
HALF MOON BAY 0.7 NW, San Mateo, CA04, -122.445, 37.478, 36, M, 0.18
EL GRANADA 0.7 W, San Mateo, CA04, -122.479, 37.509, 78, M, 0.16
CAZADERO 6.9 WNW, Sonoma, CA01, -123.206, 38.565, 645, M, 0.31
CAZADERO 5.6 W, Sonoma, CA01, -123.189, 38.532, 1211, M, 0.47
GUERNEVILLE 2.0 SSW, Sonoma, CA01, -123.005, 38.485, 69, M, 0.18
GLEN ELLEN 1.9 NNW, Sonoma, CA01, -122.551, 38.382, 365, M, 0.10
RANCHO CUCAMONGA 1.6 W, San Bernardino, CA06, -117.598, 34.122, 1379, M, 0.00
FAWNSKIN 0.3 NE, San Bernardino, CA06, -116.938, 34.271, 7030, M, 0.01
SOQUEL 0.8 NE, Santa Cruz, CA04, -121.936, 37.002, 414, M, 0.18
RED BLUFF 6.0 W, Tehama, CA02, -122.352, 40.159, 418, M, T
RED BLUFF 7.2 WNW, Tehama, CA02, -122.360, 40.224, 557, M, 0.00
COTTONWOOD 4.4 ESE, Tehama, CA02, -122.201, 40.369, 567, M, 0.03
RED BLUFF 5.1 NNW, Tehama, CA02, -122.281, 40.242, 497, M, 0.00
COTTONWOOD 9.1 SW, Tehama, CA02, -122.378, 40.282, 639, M, T
COTTONWOOD 3.6 SSW, Tehama, CA02, -122.302, 40.341, 554, M, 0.00
WATSONVILLE MUNICIPAL AIRPORT, Santa Cruz, CA04, -121.790, 36.939, 162, 52.3, 0.14
SANTA ROSA SONOMA CO AP, Sonoma, CA04, -122.811, 38.504, 119, 46.6, 0.08
COARSEGOLD 4SE, Madera, CA05, -119.690, 37.212, 2218, M, 0.13
MORONGO VALLEY NORTH, San Bernardino, CA07, -116.562, 34.086, 3145, 55.7, T
SHAFTER 6E, Kern, CA05, -119.146, 35.487, 404, 46.0, 0.05
TRUCKEE-TAHOE AP, Nevada, CA03, -120.145, 39.318, 5900, 28.4, 0.59
REDONDO BEACH, Los Angeles, CA06, -118.376, 33.834, 142, 59.7, 0.00
GRAPEVINE CHP, Kern, CA05, -118.938, 34.961, 1358, M, 0.00
THREE RIVERS MUSEUM, Tulare, CA05, -118.896, 36.451, 856, M, 0.00
PACHECO PASS WIND FARM, Merced, CA05, -121.183, 37.033, 1448, M, 0.00
AVENAL T.E.S., Kings, CA05, -120.118, 35.998, 787, M, 0.00
OAKHURST MADERA SHERIFF STATION, Madera, CA05, -119.668, 37.341, 2363, M, 0.10
FRESNO 3NW, Madera, CA05, -119.801, 36.909, 380, M, 0.12
BURBANK VALLEY PUMP PLANT, Los Angeles, CA06, -118.348, 34.187, 655, 60.4, 0.00
PIEDMONT 1.0 SE, Alameda, CA04, -122.216, 37.812, 372, M, 0.16
CASTRO VALLEY 0.4 NNE, Alameda, CA04, -122.059, 37.717, 536, M, 0.14
PLEASANTON 1.8 SSE, Alameda, CA04, -121.875, 37.648, 351, M, 0.08
FREMONT 2.6 ESE, Alameda, CA04, -121.952, 37.515, 30, M, 0.11
PLEASANTON 0.4 ESE, Alameda, CA04, -121.881, 37.670, 344, M, 0.05
VOLCANO 5.4 NE, Amador, CA05, -120.560, 38.497, 3488, M, 0.87
VOLCANO 6.4 NE, Amador, CA05, -120.536, 38.499, 3659, M, 0.86
OROVILLE 2.7 ENE, Butte, CA02, -121.518, 39.514, 535, M, 0.15
MARTINEZ 0.8 SSE, Contra Costa, CA04, -122.108, 37.990, 252, M, 0.09
WALNUT CREEK 1.7 SSE, Contra Costa, CA04, -122.034, 37.878, 243, M, 0.02
LAFAYETTE 0.7 E, Contra Costa, CA04, -122.104, 37.894, 248, M, 0.08
LAFAYETTE 1.9 WSW, Contra Costa, CA04, -122.153, 37.888, 518, M, 0.14
MARTINEZ 2.2 SW, Contra Costa, CA04, -122.138, 37.974, 692, M, 0.17
ANTIOCH 2.2 WSW, Contra Costa, CA05, -121.838, 37.979, 178, M, 0.16
CONCORD 0.8 WNW, Contra Costa, CA04, -122.013, 37.978, 124, M, 0.10
WALNUT CREEK 1.4 SSE, Contra Costa, CA04, -122.028, 37.885, 277, M, 0.07
CRESCENT CITY 5.5 NNE, Del Norte, CA01, -124.148, 41.824, 65, M, 3.62
PLACERVILLE 3.7 SW, El Dorado, CA02, -120.849, 38.695, 1755, M, 0.84
PLACERVILLE 0.9 NE, El Dorado, CA02, -120.785, 38.739, 2036, M, 0.70
CLOVIS 2.9 N, Fresno, CA05, -119.693, 36.861, 382, M, 0.04
TOLLHOUSE 6.2 SSE, Fresno, CA05, -119.359, 36.934, 1397, M, 0.11
SANGER 6.8 N, Fresno, CA05, -119.553, 36.798, 418, M, 0.02
HELM 2.7 NNE, Fresno, CA05, -120.089, 36.570, 183, M, 0.08
ARCATA 1.1 NE, Humboldt, CA01, -124.069, 40.881, 420, M, 2.74
MCKINLEYVILLE 2.7 SE, Humboldt, CA01, -124.084, 40.923, 325, M, 2.66
MCKINLEYVILLE 7.3 ESE, Humboldt, CA01, -123.998, 40.896, 366, M, 2.61
TRINIDAD 1.5 NNW, Humboldt, CA01, -124.152, 41.078, 201, M, 2.08
HONEYDEW 3.1 WNW, Humboldt, CA01, -124.182, 40.252, 316, M, 1.17
MCKINLEYVILLE 2.3 NE, Humboldt, CA01, -124.086, 40.978, 270, M, 2.71
FORTUNA 1.5 NW, Humboldt, CA01, -124.161, 40.600, 98, M, 1.64
REDWAY 4.8 WNW, Humboldt, CA01, -123.906, 40.139, 1820, M, 0.97
MIRANDA 4.1 SW, Humboldt, CA01, -123.894, 40.209, 539, M, 1.32
BAYVIEW 0.8 SE, Humboldt, CA01, -124.166, 40.756, 176, M, 2.40
FORTUNA 1.3 S, Humboldt, CA01, -124.136, 40.567, 195, M, 0.74
WILLOW CREEK 4.5 NNE, Humboldt, CA01, -123.624, 40.939, 655, M, 1.90
BRIDGEVILLE 5.2 ENE, Humboldt, CA01, -123.701, 40.473, 2675, M, 1.97
FORTUNA 0.1 NW, Humboldt, CA01, -124.141, 40.587, 65, M, 1.44
GARBERVILLE 2.2 SW, Humboldt, CA01, -123.824, 40.077, 415, M, 1.08
GARBERVILLE 2.9 SW, Humboldt, CA01, -123.830, 40.068, 389, M, 0.89
KNEELAND 4.8 WNW, Humboldt, CA01, -124.080, 40.790, 106, M, 2.00
EUREKA 2.2 S, Humboldt, CA01, -124.148, 40.764, 194, M, 2.37
BISHOP 8.5 WSW, Inyo, CA07, -118.540, 37.323, 6002, M, 0.00
BISHOP 1.7 NW, Inyo, CA07, -118.414, 37.388, 4181, M, 0.00
LEMOORE 0.9 ESE, Kings, CA05, -119.772, 36.293, 223, M, 0.10
LEMOORE 0.3 SW, Kings, CA05, -119.791, 36.295, 223, M, 0.11
HANFORD 3.6 N, Kings, CA05, -119.653, 36.377, 258, M, 0.05
HANFORD 1.7 WNW, Kings, CA05, -119.674, 36.335, 245, M, 0.10
INYOKERN 9.4 WSW, Kern, CA07, -117.978, 35.635, 4319, M, 0.00
ONYX 2.8 ENE, Kern, CA05, -118.174, 35.702, 3039, M, 0.00
GLENDALE 2.4 WSW, Los Angeles, CA06, -118.295, 34.169, 511, M, T
TORRANCE 2.8 SW, Los Angeles, CA06, -118.337, 33.790, 200, M, 0.00
SHERMAN OAKS 1.7 ENE, Los Angeles, CA06, -118.420, 34.154, 638, M, 0.00
WHITTIER 2.9 WNW, Los Angeles, CA06, -118.066, 33.986, 171, M, 0.00
CANYON COUNTRY 2.6 E, Los Angeles, CA06, -118.427, 34.427, 1617, M, 0.00
ARCADIA 2.1 NNE, Los Angeles, CA06, -118.028, 34.162, 652, M, 0.00
LAKEPORT 2.5 N, Lake, CA02, -122.917, 39.079, 1370, M, 0.02
MIDDLETOWN 3.3 SSE, Lake, CA02, -122.603, 38.706, 1273, M, 0.24
LOWER LAKE 4.0 SE, Lake, CA02, -122.564, 38.865, 1585, M, M
SUSANVILLE 3.2 SSW, Lassen, CA03, -120.674, 40.368, 4353, M, 0.51
OAKHURST 7.5 N, Madera, CA05, -119.632, 37.442, 4274, M, 0.21
UKIAH 8.4 NW, Mendocino, CA01, -123.331, 39.221, 2492, M, 0.63
BOONVILLE 2.2 WSW, Mendocino, CA01, -123.408, 39.006, 1061, M, 0.48
ELK 1.8 NNE, Mendocino, CA01, -123.706, 39.105, 147, M, 0.74
UKIAH 1.2 NW, Mendocino, CA01, -123.225, 39.158, 746, M, 0.26
UKIAH 0.6 ESE, Mendocino, CA01, -123.199, 39.141, 601, M, 0.21
REDWOOD VALLEY 1.5 ENE, Mendocino, CA01, -123.178, 39.272, 912, M, 0.27
UKIAH 4.3 S, Mendocino, CA01, -123.219, 39.083, 691, M, 0.31
LAYTONVILLE 1.1 SW, Mendocino, CA01, -123.490, 39.672, 1647, M, 0.58
POINT ARENA 4.8 ESE, Mendocino, CA01, -123.610, 38.883, 1048, M, 0.38
MARIPOSA 3.7 NNW, Mariposa, CA05, -119.988, 37.540, 2942, M, 0.26
MARIPOSA 12.5 E, Mariposa, CA05, -119.742, 37.461, 2952, M, 0.20
LA GRANGE 7.8 ESE, Mariposa, CA05, -120.327, 37.635, 1114, M, 0.26
CATHEYS VALLEY 1.2 S, Mariposa, CA05, -120.100, 37.415, 1172, M, 0.33
WOODACRE 0.6 SW, Marin, CA01, -122.635, 38.005, 439, M, 0.19
NOVATO 4.8 WNW, Marin, CA01, -122.644, 38.106, 246, M, 0.05
SAN ANSELMO 0.4 NE, Marin, CA01, -122.564, 37.987, 107, M, 0.09
IGNACIO 0.6 SW, Marin, CA01, -122.546, 38.065, 57, M, 0.05
PETALUMA 10.1 W, Marin, CA01, -122.812, 38.248, 119, M, 0.18
TOMALES 1.3 ENE, Marin, CA01, -122.883, 38.251, 128, M, 0.10
MILL VALLEY 1.5 S, Marin, CA01, -122.544, 37.886, 209, M, 0.12
LOCKWOOD 3.6 NW, Monterey, CA04, -121.117, 35.981, 1181, M, 0.00
CASTROVILLE 1.6 ENE, Monterey, CA04, -121.728, 36.776, 18, M, 0.07
PACIFIC GROVE 1.5 SSW, Monterey, CA04, -121.932, 36.602, 280, M, 0.14
AROMAS 2.0 SSW, Monterey, CA04, -121.650, 36.850, 344, M, 0.27
CARMEL VALLEY VILLAGE 0.7 SSE, Monterey, CA04, -121.720, 36.476, 446, M, 0.16
CASTROVILLE 1.6 ENE, Monterey, CA04, -121.727, 36.777, 17, M, 0.08
MARINA 0.8 SSE, Monterey, CA04, -121.784, 36.673, 118, M, 0.04
BIG SUR 9.5 NNW, Monterey, CA04, -121.869, 36.398, 1100, M, 0.15
SALINAS 5.9 SSW, Monterey, CA04, -121.671, 36.604, 361, M, 0.05
CALISTOGA 0.4 SSE, Napa, CA01, -122.578, 38.576, 348, M, 0.09
ST. HELENA 1.1 S, Napa, CA01, -122.462, 38.489, 248, M, 0.10
NEVADA CITY 3.4 NNW, Nevada, CA02, -121.040, 39.307, 2390, M, 0.87
ALTA SIERRA 1.3 S, Nevada, CA02, -121.057, 39.104, 2154, M, 0.76
LAKE OF THE PINES 1.0 WSW, Nevada, CA02, -121.077, 39.032, 1576, M, 0.80
ALTA SIERRA 0.4 WSW, Nevada, CA02, -121.060, 39.120, 2303, M, 0.84
NEVADA CITY 5.4 W, Nevada, CA02, -121.121, 39.268, 1982, M, 1.07
ALTA SIERRA 1.4 SSW, Nevada, CA02, -121.058, 39.103, 2057, M, 0.22
ORANGE 3.5 ENE, Orange, CA06, -117.770, 33.829, 811, M, T
LAGUNA NIGUEL 0.9 W, Orange, CA06, -117.720, 33.528, 477, M, 0.00
SILVERADO 1.0 ESE, Orange, CA06, -117.620, 33.746, 1394, M, 0.00
NEWPORT BEACH 3.1 ESE, Orange, CA06, -117.865, 33.589, 84, M, 0.04
MISSION VIEJO 1.3 SSE, Orange, CA06, -117.644, 33.595, 704, M, 0.03
ANAHEIM 4.9 ENE, Orange, CA06, -117.792, 33.863, 298, M, 0.00
SODA SPRINGS 1.5 SSW, Placer, CA02, -120.384, 39.302, 6887, M, 1.48
ROSEVILLE 4.7 WNW, Placer, CA02, -121.377, 38.780, 96, M, 0.13
PENRYN 0.4 SE, Placer, CA02, -121.158, 38.847, 610, M, 0.67
COLFAX 3.1 SW, Placer, CA02, -120.991, 39.061, 2077, M, 0.84
NEWCASTLE 1.6 SSE, Placer, CA02, -121.123, 38.851, 800, M, 0.67
HEMET 4.1 ENE, Riverside, CA06, -116.920, 33.753, 1698, M, T
CORONA 12.8 SE, Riverside, CA06, -117.428, 33.731, 1404, M, 0.00
NORCO 1.2 S, Riverside, CA06, -117.548, 33.908, 661, M, 0.00
BEAUMONT 2.5 NW, Riverside, CA06, -117.012, 33.954, 2532, M, 0.00
NORCO 2.3 SE, Riverside, CA06, -117.518, 33.906, 1091, M, T
CARMICHAEL 1.6 SW, Sacramento, CA02, -121.340, 38.617, 102, M, 0.12
SACRAMENTO 8.0 NE, Sacramento, CA02, -121.361, 38.635, 95, M, 0.24
CARMICHAEL 0.9 NE, Sacramento, CA02, -121.306, 38.643, 130, M, 0.15
CARMICHAEL 1.4 W, Sacramento, CA02, -121.345, 38.638, 109, M, 0.20
FOLSOM 1.2 SSE, Sacramento, CA02, -121.140, 38.660, 362, M, 0.52
CARMICHAEL 0.9 S, Sacramento, CA02, -121.319, 38.621, 108, M, 0.24
SACRAMENTO 2.0 SE, Sacramento, CA02, -121.437, 38.550, 34, M, 0.19
FOLSOM 0.6 NE, Sacramento, CA02, -121.138, 38.682, 399, M, 0.62
LA RIVIERA 1.0 NE, Sacramento, CA02, -121.340, 38.575, 64, M, 0.16
GOLETA 3.7 WNW, Santa Barbara, CA06, -119.896, 34.440, 158, M, 0.00
MOUNTAIN VIEW 1.2 S, Santa Clara, CA04, -122.075, 37.385, 109, M, 0.11
SUNNYVALE 1.9 SE, Santa Clara, CA04, -122.004, 37.365, 85, M, 0.13
SAN JOSE 5.4 SW, Santa Clara, CA04, -121.775, 37.305, 223, M, 0.12
MONTE SERENO 0.4 SSW, Santa Clara, CA04, -121.990, 37.232, 467, M, 0.14
SAN JOSE 4.6 NE, Santa Clara, CA04, -121.795, 37.354, 318, M, 0.12
SAN JOSE 2.7 SSW, Santa Clara, CA04, -121.876, 37.271, 162, M, 0.16
CAMBRIAN PARK 2.2 SE, Santa Clara, CA04, -121.897, 37.234, 252, M, 0.10
SAN JOSE 3.5 ENE, Santa Clara, CA04, -121.789, 37.319, 200, M, 0.10
SAN JOSE 2.3 SSW, Santa Clara, CA04, -121.866, 37.273, 161, M, 0.06
SARATOGA 0.5 N, Santa Clara, CA04, -122.023, 37.275, 373, M, 0.11
SAN JOSE 3.0 WSW, Santa Clara, CA04, -121.927, 37.309, 159, M, 0.06
SAN JOSE 6.2 W, Santa Clara, CA04, -121.961, 37.319, 139, M, 0.09
LOS GATOS 5.4 SSW, Santa Clara, CA04, -121.988, 37.156, 1662, M, 0.23
SAN MARCOS 2.5 ENE, San Diego, CA06, -117.132, 33.147, 666, M, 0.00
OCEANSIDE 8.4NE, San Diego, CA06, -117.266, 33.270, 252, M, 0.00
EL CAJON 2.3ENE, San Diego, CA06, -116.925, 32.811, 610, M, 0.05
ENCINITAS 3.34ENE, San Diego, CA06, -117.237, 33.050, 193, M, 0.09
ESCONDIDO 5.2NNW, San Diego, CA06, -117.128, 33.185, 1474, M, T
EL CAJON 1.5WSW, San Diego, CA06, -116.987, 32.791, 727, M, 0.07
ESCONDIDO 2.5 SSE, San Diego, CA06, -117.048, 33.106, 690, M, T
POWAY 3.2NE, San Diego, CA06, -117.004, 32.996, 1206, M, 0.05
LA JOLLA 2.5SE, San Diego, CA06, -117.240, 32.825, 508, M, 0.00
CHULA VISTA 6.3E, San Diego, CA06, -116.975, 32.638, 555, M, 0.07
POWAY 1.4SW, San Diego, CA06, -117.059, 32.949, 444, M, 0.10
CARDIFF BY THE SEA 0.2 E, San Diego, CA06, -117.271, 33.027, 266, M, 0.05
CHULA VISTA 2.5SE, San Diego, CA06, -117.052, 32.617, 266, M, 0.03
PAUMA VALLEY 1.7 SE, San Diego, CA06, -116.957, 33.290, 1132, M, 0.00
SAN DIEGO 3.5NE, San Diego, CA06, -117.110, 32.747, 344, M, 0.15
SAN DIEGO 7.9NE, San Diego, CA06, -117.073, 32.806, 242, M, 0.08
LA JOLLA 2.1 SE, San Diego, CA06, -117.250, 32.826, 491, M, 0.14
RANCHO BERNARDO 0.5SE, San Diego, CA06, -117.067, 33.018, 483, M, 0.05
VISTA 1.5NNW, San Diego, CA06, -117.254, 33.219, 417, M, T
EL CAJON 2.3 S, San Diego, CA06, -116.959, 32.770, 738, M, 0.09
SAN DIEGO 9NE, San Diego, CA06, -117.059, 32.817, 292, M, 0.07
POWAY 4.7NNW, San Diego, CA06, -117.047, 33.026, 739, M, 0.02
SAN DIEGO COUNTRY ESTATES 1.5 WNW, San Diego, CA06, -116.807, 33.016, 1474, M, 0.03
SAN FRANCISCO 1.1 SW, San Francisco, CA04, -122.435, 37.765, 194, M, 0.17
COTTONWOOD 0.5 NNE, Shasta, CA02, -122.276, 40.397, 452, M, 0.02
SHINGLETOWN 5.3 ENE, Shasta, CA02, -121.796, 40.524, 3964, M, 0.90
REDDING 7.9 NNE, Shasta, CA02, -122.291, 40.672, 681, M, 0.09
REDDING 3.7 N, Shasta, CA02, -122.358, 40.626, 618, M, 0.05
REDDING 3.6 N, Shasta, CA02, -122.354, 40.623, 604, M, 0.07
REDDING 2.6 NNE, Shasta, CA02, -122.347, 40.607, 590, M, 0.00
ANDERSON 2.6 NE, Shasta, CA02, -122.261, 40.478, 409, M, 0.07
LINDEN 5.8 ENE, San Joaquin, CA05, -121.008, 38.063, 146, M, 0.19
STOCKTON 5.8 NNE, San Joaquin, CA05, -121.255, 38.038, 35, M, 0.10
LODI 1.0 NNW, San Joaquin, CA05, -121.304, 38.136, 43, M, 0.07
STOCKTON 3.3 SE, San Joaquin, CA05, -121.259, 37.942, 23, M, 0.08
WEED 5.4 N, Siskiyou, CA01, -122.370, 41.495, 3064, M, 0.30
ETNA 3.9 NNW, Siskiyou, CA01, -122.923, 41.511, 2966, M, 0.66
YREKA 0.9 WNW, Siskiyou, CA01, -122.649, 41.733, 2692, M, 0.46
MONTAGUE 1.6 ESE, Siskiyou, CA01, -122.501, 41.718, 2556, M, 0.27
PACIFICA 0.3 W, San Mateo, CA04, -122.483, 37.612, 227, M, 0.32
FOSTER CITY 1.3 SW, San Mateo, CA04, -122.259, 37.549, 7, M, 0.15
HALF MOON BAY 0.5 SSW, San Mateo, CA04, -122.441, 37.463, 54, M, 0.18
REDWOOD CITY 2.5 SW, San Mateo, CA04, -122.240, 37.493, 17, M, 0.11
PORTOLA VALLEY 1.3 ENE, San Mateo, CA04, -122.198, 37.382, 531, M, 0.24
GEYSERVILLE 10.6 WNW, Sonoma, CA01, -123.098, 38.737, 1328, M, 0.20
SANTA ROSA 3.1 W, Sonoma, CA01, -122.758, 38.451, 107, M, 0.04
SEBASTOPOL 4.5 WSW, Sonoma, CA01, -122.904, 38.375, 423, M, 0.17
WINDSOR 1.5 WNW, Sonoma, CA01, -122.823, 38.555, 123, M, 0.10
CLOVERDALE 3.2 ESE, Sonoma, CA01, -122.963, 38.781, 797, M, 0.14
SEBASTOPOL 2.6 SSE, Sonoma, CA01, -122.804, 38.366, 214, M, 0.19
SANTA ROSA 2.9 ENE, Sonoma, CA01, -122.655, 38.471, 292, M, 0.15
SEBASTOPOL 1.1 SSE, Sonoma, CA01, -122.819, 38.384, 168, M, 0.11
WINDSOR 1.2 NNW, Sonoma, CA01, -122.805, 38.562, 155, M, 0.00
HEALDSBURG 7.5 NW, Sonoma, CA01, -122.963, 38.693, 203, M, 0.07
SANTA ROSA 2.6 NE, Sonoma, CA01, -122.664, 38.473, 273, M, 0.17
SANTA ROSA 1.3 NW, Sonoma, CA01, -122.715, 38.464, 173, M, 0.09
WINDSOR 0.6 NNE, Sonoma, CA01, -122.793, 38.553, 157, M, 0.12
GLEN ELLEN 1.9 WNW, Sonoma, CA01, -122.572, 38.365, 956, M, 0.22
ROHNERT PARK 0.9 SW, Sonoma, CA01, -122.711, 38.339, 96, M, 0.11
HEALDSBURG 3.7 WNW, Sonoma, CA01, -122.921, 38.648, 142, M, 0.12
CLOVERDALE 0.6 W, Sonoma, CA01, -123.028, 38.799, 382, M, 0.14
GLEN ELLEN 1.5 N, Sonoma, CA01, -122.534, 38.378, 337, M, 0.06
SANTA ROSA 2.7 ENE, Sonoma, CA01, -122.659, 38.470, 281, M, 0.07
BOYES HOT SPRINGS 0.5 ENE, Sonoma, CA01, -122.473, 38.316, 295, M, 0.05
SEBASTOPOL 3.3 WSW, Sonoma, CA01, -122.885, 38.384, 362, M, 0.15
OCCIDENTAL 2.8 SW, Sonoma, CA01, -122.974, 38.365, 614, M, 0.22
HEALDSBURG 12.6 NNW, Sonoma, CA01, -122.963, 38.784, 1026, M, 0.15
BENICIA 0.2 SSW, Solano, CA01, -122.155, 38.070, 403, M, 0.14
WRIGHTWOOD 1.2 WNW, San Bernardino, CA07, -117.651, 34.365, 6148, M, 0.00
JOSHUA TREE 2.0 S, San Bernardino, CA07, -116.318, 34.097, 3409, M, 0.05
LANDERS 1.6 NE, San Bernardino, CA07, -116.375, 34.283, 2954, M, 0.00
HESPERIA 3.9 SW, San Bernardino, CA07, -117.340, 34.373, 3578, M, 0.00
PINON HILLS 3.5 N, San Bernardino, CA07, -117.644, 34.485, 3495, M, 0.00
KNIGHTS FERRY 5.2 WSW, Stanislaus, CA05, -120.752, 37.789, 144, M, 0.10
SAN JUAN BAUTISTA 0.5 S, San Benito, CA04, -121.537, 36.839, 252, M, 0.25
HOLLISTER 5.4 NNE, San Benito, CA04, -121.370, 36.931, 247, M, 0.04
HOLLISTER 2.1 ESE, San Benito, CA04, -121.365, 36.842, 389, M, 0.24
DAVENPORT 4.2 NW, Santa Cruz, CA04, -122.218, 37.065, 495, M, 0.15
BOULDER CREEK 3.6 NE, Santa Cruz, CA04, -122.091, 37.181, 1724, M, 0.14
SOQUEL 1.8 N, Santa Cruz, CA04, -121.950, 37.019, 152, M, 0.12
BOULDER CREEK 3.0 NW, Santa Cruz, CA04, -122.164, 37.169, 875, M, 0.12
FELTON 4.5 NNE, Santa Cruz, CA04, -122.047, 37.105, 838, M, 0.08
TERRA BELLA 6.3 W, Tulare, CA05, -119.149, 35.950, 374, M, 0.10
VISALIA 0.7 SSE, Tulare, CA05, -119.318, 36.315, 318, M, 0.09
DOUGLAS CITY 2.4 SW, Trinity, CA01, -122.978, 40.633, 1689, M, 0.35
HAWKINS BAR 0.6 NW, Trinity, CA01, -123.530, 40.877, 674, M, 1.80
MAD RIVER 7.4 SE, Trinity, CA01, -123.376, 40.321, 2762, M, 0.98
TRINITY CENTER 0.6 ESE, Trinity, CA01, -122.696, 40.983, 2427, M, 0.38
THOUSAND OAKS 2.1 WSW, Ventura, CA06, -118.898, 34.177, 692, M, 0.00
FRAZIER PARK 10.7 WSW, Ventura, CA06, -119.110, 34.746, 5274, M, 0.00
SIMI VALLEY 3.8 SW, Ventura, CA06, -118.805, 34.231, 1081, M, 0.01
CHALLENGE-BROWNSVILLE 1.3 WSW, Yuba, CA02, -121.280, 39.452, 2049, M, 0.99
DAVIS 1.2 SE, Yolo, CA02, -121.721, 38.543, 36, M, 0.07
DAVIS 0.8 NE, Yolo, CA02, -121.724, 38.562, 41, M, 0.05
DAVIS 2.7 W, Yolo, CA02, -121.786, 38.552, 57, M, 0.03
WOODLAND 2.8 SE, Yolo, CA02, -121.732, 38.647, 38, M, 0.05
PLACERVILLE 3 ENE, El Dorado, CA02, -120.742, 38.785, 2658, 50.1, 0.95
TAHOMA, El Dorado, CA03, -120.129, 39.060, 6315, 32.1, 0.69
ORCHARD SUNFLOWER VALLEY, Kings, CA05, -120.103, 35.803, 753, M, 0.00
HURON - WOOLF FARM, Fresno, CA05, -120.122, 36.183, 404, M, 0.00
JAWBONE CANYON, Kern, CA07, -118.001, 35.302, 2161, M, 0.00
CORONA MUNICIPAL AIRPORT, Riverside, -, -117.602, 33.898, 533, 56.3, T
OAKLAND 4.4 NNW, Alameda, CA04, -122.250, 37.832, 191, M, 0.14
SAN LORENZO 0.5 NNW, Alameda, CA04, -122.133, 37.682, 30, M, 0.00
OROVILLE 4.8 E, Butte, CA02, -121.477, 39.493, 668, M, 0.28
MCKINLEYVILLE 4.3 E, Humboldt, CA01, -124.034, 40.953, 173, M, 3.27
KNEELAND 0.4 NNW, Humboldt, CA01, -123.999, 40.766, 2008, M, 2.46
BISHOP 8.8 WNW, Inyo, CA07, -118.547, 37.411, 4537, M, M
LANCASTER 6.5 ENE, Los Angeles, CA07, -118.066, 34.718, 2366, M, 0.00
DESCANSO 0.3 WNW, San Diego, CA06, -116.621, 32.854, 3442, M, 0.10
SAN DIEGO 5.2WNW, San Diego, CA06, -117.245, 32.735, 251, M, T
FORESTVILLE 0.7 SW, Sonoma, CA01, -122.897, 38.473, 201, M, 0.13
RIALTO 2.1 N, San Bernardino, CA06, -117.381, 34.144, 1482, M, 0.05
THREE RIVERS 1.7 NE, Tulare, CA05, -118.886, 36.458, 1010, M, 0.11
TRINITY CENTER 0.2 ENE, Trinity, CA01, -122.704, 40.986, 2481, M, 0.25
VERDI 2W, Sierra, CA03, -120.027, 39.521, 5429, 34.2, 0.50
PASADENA 2.0 SE, Los Angeles, CA06, -118.116, 34.139, 739, M, 0.00
RAYMOND 6.8 NE, Madera, CA05, -119.802, 37.272, 1802, M, 0.22
SUNNYVALE 3.6 S (W6NW), Santa Clara, CA04, -122.018, 37.334, 170, M, 0.13
PIONEER 6.4 NE, Amador, CA05, -120.499, 38.505, 4073, M, 0.47
CRESCENT CITY 4.2 NE, Del Norte, CA01, -124.143, 41.800, 98, M, 3.61
POLLOCK PINES 0.5 NW, El Dorado, CA02, -120.578, 38.757, 3895, M, 1.20
EUREKA 3.0 SSW, Humboldt, CA01, -124.181, 40.757, 100, M, 2.28
TEHACHAPI 2.2 W, Kern, CA05, -118.480, 35.132, 3945, M, 0.02
DIAMOND BAR 1.9 NNE, Los Angeles, CA06, -117.796, 34.023, 935, M, 0.00
YOSEMITE LAKES 4.7 S, Madera, CA05, -119.761, 37.124, 1598, M, 0.10
MARIPOSA 12.5 E, Mariposa, CA05, -119.740, 37.462, 2940, M, 0.24
BIG SUR 7.2 NNW, Monterey, CA04, -121.818, 36.353, 2434, M, 0.00
IRVINE 2.9 WSW, Orange, CA06, -117.838, 33.640, 193, M, 0.08
MISSION VIEJO 3.5 SSE(K6WTA), Orange, CA06, -117.639, 33.563, 613, M, 0.04
IRVINE 4.1 NNE, Orange, CA06, -117.772, 33.718, 152, M, T
LOS ALTOS HILLS 1.3 N, Santa Clara, CA04, -122.135, 37.387, 194, M, 0.14
CHULA VISTA 3.1SE, San Diego, CA06, -117.051, 32.604, 200, M, 0.06
HEARST CASTLE, San Luis Obispo, CA04, -121.168, 35.684, 1526, 59.8, 0.52
HESPERIA 2E, San Bernardino, CA07, -117.266, 34.421, 3055, 51.6, 0.00
RANCHO BERNARDO, San Diego, CA06, -117.081, 33.022, 690, 59.8, 0.01
OCOTILLO WELLS 2W, San Diego, CA07, -116.169, 33.155, 390, 61.0, 0.00
IRVINE RANCH, Orange, CA06, -117.723, 33.720, 540, 62.7, 0.00
MT. LAGUNA #3, San Diego, CA07, -116.419, 32.867, 5920, 47.3, 0.02
AVALON INLAND, Los Angeles, CA06, -118.330, 33.338, 90, 54.9, M
TORRANCE AP, Los Angeles, CA06, -118.342, 33.802, 90, 59.5, 0.00
MERCED 23 WSW, Merced, CA05, -120.882, 37.238, 78, 44.3, 0.02
REDDING 12 WNW, Shasta, CA02, -122.607, 40.651, 1418, 48.4, 0.05
STOVEPIPE WELLS 1 SW, Inyo, CA07, -117.145, 36.602, 84, 54.6, 0.00
RED BLUFF 2.8 N, Tehama, CA02, -122.243, 40.215, 406, M, 0.00
LOS ANGELES DOWNTOWN/USC, Los Angeles, CA06, -118.291, 34.024, 179, 61.0, 0.01
FRESNO YOSEMITE INT'L, Fresno, CA05, -119.720, 36.780, 334, 48.0, 0.04
MONTEREY PENINSUL AP, Monterey, CA04, -121.849, 36.590, 160, 54.3, 0.03
PASO ROBLES MUNICIPAL AP, San Luis Obispo, CA04, -120.629, 35.669, 820, 47.7, 0.02
MONTAGUE SISKIYOU AIRPORT, Siskiyou, CA01, -122.468, 41.774, 2645, 32.3, 0.26
SAN JOSE, Santa Clara, CA04, -121.924, 37.359, 49, 51.8, 0.07
PALM SPRINGS ASOS, Riverside, CA07, -116.504, 33.822, 409, 62.6, 0.00
SAN DIEGO BROWN FIELD, San Diego, CA06, -116.994, 32.576, 521, 59.3, 0.09
Bakersfield Area, -, -, -, -, -, 50.0, 0.04
Bishop Area, -, -, -, -, -, 42.0, T
Los Angeles Downtown Area, -, -, -, -, -, 61.0, 0.01
Eureka Area, -, -, -, -, -, 47.3, 1.94
Fresno Area, -, -, -, -, -, 48.0, 0.04
Los Angeles Airport Area, -, -, -, -, -, 61.4, 0.01
Long Beach Area, -, -, -, -, -, 60.8, T
Redding Area, -, -, -, -, -, 48.7, 0.11
Sacramento Area, -, -, -, -, -, 47.1, 0.14
San Diego Area, -, -, -, -, -, 60.2, 0.07
Stockton Area, -, -, -, -, -, 47.6, 0.05
San Francisco Airport Area, -, -, -, -, -, 51.9, 0.07
Santa Maria Area, -, -, -, -, -, 55.1, 0.03
CAMP PENDLETON MCAS, San Diego, CA06, -117.355, 33.304, 70, 54.9, 0.00
LEMOORE REEVES NAS, Fresno, CA05, -119.950, 36.333, 232, 45.1, 0.04
COTTONWOOD 3.9 SW, Tehama, CA02, -122.342, 40.358, 447, M, 0.00
ARVIN, Kern, CA05, -118.834, 35.211, 450, 47.6, 0.00
CHIRIACO SUMMIT, Riverside, CA07, -115.721, 33.662, 1706, 56.4, 0.00
FALLBROOK 5 NE, San Diego, CA06, -117.190, 33.439, 1140, 63.7, 0.02
SANTA BARBARA 11 W, Santa Barbara, CA06, -119.880, 34.414, 18, 52.5, 0.00
BODEGA 6 WSW, Sonoma, CA01, -123.075, 38.321, 63, 51.9, 0.17
YOSEMITE VILLAGE 12 W, Mariposa, CA05, -119.821, 37.759, 6620, 47.7, 0.37
YUCCA MESA, San Bernardino, CA07, -116.407, 34.218, 3445, 54.1, 0.05
YUCCA VALLEY, San Bernardino, CA07, -116.388, 34.129, 3249, 51.6, 0.12
JOHNSON VALLEY, San Bernardino, CA07, -116.538, 34.359, 3167, 49.8, 0.00
SAN DIEGO 9.5 NNW, San Diego, CA06, -117.221, 32.843, 284, M, 0.08
LOS OSOS 0.5 N, San Luis Obispo, CA04, -120.832, 35.329, 77, M, 0.08
MENLO PARK 2.4 W, San Mateo, CA04, -122.187, 37.477, 25, M, 0.04
BURLINGAME 2.0 WSW, San Mateo, CA04, -122.398, 37.584, 447, M, 0.26
BODEGA BAY 1.0 SE, Sonoma, CA01, -123.018, 38.312, 226, M, 0.11
TWENTYNINE PALMS 1.5 SW, San Bernardino, CA07, -116.085, 34.124, 2162, M, T
MARYSVILLE 5.0 N, Yuba, CA02, -121.594, 39.224, 73, M, 0.20
WHEATLAND 0.1 ENE, Yuba, CA02, -121.424, 39.013, 85, M, 0.00
CHICO 1.7 SW, Butte, CA02, -121.832, 39.739, 210, M, 0.30
BLUE LAKE 0.6 NNW, Humboldt, CA01, -123.994, 40.888, 179, M, 2.02
REDWAY 1.8 WSW, Humboldt, CA01, -123.852, 40.109, 955, M, 0.99
UPPER LAKE 3.6 W, Lake, CA02, -122.978, 39.168, 1440, M, 0.29
MORGAN HILL 1.4 SW, Santa Clara, CA04, -121.659, 37.117, 433, M, 0.08
REDDING 3.8 S, Shasta, CA02, -122.369, 40.518, 444, M, 0.03
FORKS OF SALMON 1.0 NW, Siskiyou, CA01, -123.334, 41.269, 1664, M, 1.87
SAN MATEO 3.4 SSW, San Mateo, CA04, -122.343, 37.518, 585, M, 0.34
ACTON CALIFORNIA, Los Angeles, CA06, -118.200, 34.446, 2600, 54.4, M
ARROYO GRANDE CALIFORNIA, San Luis Obispo, CA04, -120.392, 35.179, 1048, 59.3, M
ALDER SPRINGS CALIFORNIA, Glenn, CA02, -122.724, 39.651, 4300, 50.0, M
ALPINE CALIFORNIA, San Diego, CA06, -116.739, 32.834, 2041, 60.6, M
LOS ALTOS CALIFORNIA, Santa Clara, CA04, -122.147, 37.358, 645, 52.5, M
ANZA CALIFORNIA, Riverside, CA06, -116.673, 33.555, 3920, 51.3, M
ALDER POINT CALIFORNIA, Humboldt, CA01, -123.590, 40.187, 923, 43.3, M
ARROYO SECO (MT. DIABLO) CALIF, Monterey, CA04, -121.492, 36.230, 980, 53.0, M
ASH CREEK CALIFORNIA, Siskiyou, CA02, -121.979, 41.277, 3200, 37.0, M
BACKBONE CALIFORNIA, Trinity, CA01, -123.142, 40.889, 4700, 45.8, M
BALD MTN LOC CALIFORNIA, El Dorado, CA02, -120.697, 38.906, 4680, 51.1, M
BARNABY CALIFORNIA, Marin, CA01, -122.702, 38.028, 1240, 53.7, M
BATTERSON CALIFORNIA, Madera, CA05, -119.508, 37.232, 3160, 52.4, M
BIG BAR CALIFORNIA, Trinity, CA01, -123.233, 40.733, 1500, 41.5, M
BELL CANYON CALIFORNIA, Orange, CA06, -117.592, 33.542, 700, 65.1, M
BRADLEY CALIFORNIA, Monterey, CA04, -120.803, 35.864, 537, 47.7, M
BEAR PEAK CALIFORNIA, Tulare, CA05, -118.052, 35.884, 8228, 43.7, M
BENTON CALIFORNIA, Mono, CA07, -118.478, 37.843, 5450, 39.5, M
BEAUMONT CALIFORNIA, Riverside, CA06, -116.950, 33.931, 2604, 57.2, M
BEVERLY HILLS CALIFORNIA, Los Angeles, CA06, -118.412, 34.125, 1260, 66.2, M
BANGOR CALIFORNIA, Butte, CA02, -121.386, 39.398, 803, 50.2, M
BIG PINES CALIFORNIA, Los Angeles, CA07, -117.692, 34.379, 6917, 45.4, M
BIG ROCK CALIFORNIA, Marin, CA01, -122.570, 38.039, 1500, 52.2, M
BLACK DIAMOND CALIFORNIA, Contra Costa, CA04, -121.884, 37.950, 1600, 50.2, M
BLUE DOOR CALIFORNIA, Lassen, CA02, -120.337, 41.055, 5615, 34.0, M
BLUE RIDGE (KNF) CALIFORNIA, Siskiyou, CA01, -123.187, 41.269, 5956, 43.7, M
BEN BOLT CALIFORNIA, El Dorado, CA05, -120.934, 38.591, 905, 49.4, M
BEN LOMOND CALIFORNIA, Santa Cruz, CA04, -122.170, 37.132, 2630, 55.5, M
BOGARD R.S. CALIFORNIA, Lassen, CA02, -121.083, 40.598, 5650, 29.6, M
BOONVILLE CALIFORNIA, Mendocino, CA01, -123.349, 38.988, 644, 48.7, M
BIG PINE FLAT CALIFORNIA, San Bernardino, CA07, -117.013, 34.319, 6861, 42.5, M
BRIDGEPORT 4NW CALIFORNIA, Mono, CA03, -119.289, 38.272, 6650, 36.8, M
BRANCH MOUNTAIN CALIFORNIA, San Luis Obispo, CA04, -120.083, 35.189, 3770, 53.9, M
BEAR FLAT CALIFORNIA, Modoc, CA02, -120.313, 41.295, 6200, 36.3, M
BRIONES CALIFORNIA, Contra Costa, CA04, -122.118, 37.944, 1450, 51.1, M
BLACKROCK CALIFORNIA, Tulare, CA05, -118.260, 36.093, 8200, 39.9, M
BROOKS CALIFORNIA, Yolo, CA02, -122.145, 38.738, 354, 50.5, M
BIG SUR CALIFORNIA, Monterey, CA04, -121.785, 36.236, 450, 57.5, M
BULL FLAT CALIFORNIA, Lassen, CA03, -120.114, 40.481, 4395, 30.3, M
BURNS CANYON CALIFORNIA, San Bernardino, CA07, -116.634, 34.210, 6000, 48.7, M
BUTTERCUP CALIFORNIA, Imperial, CA07, -114.884, 32.740, 217, 61.5, M
BEAVER CAMP LOC CALIFORNIA, Amador, CA05, -120.325, 38.488, 5000, 52.1, M
BRAZIE RANCH CALIFORNIA, Siskiyou, CA01, -122.594, 41.685, 3000, 36.4, M
CAHUILLA CALIFORNIA, Imperial, CA07, -115.174, 32.974, 278, 62.7, M
CALLAHAN CALIFORNIA, Siskiyou, CA01, -122.796, 41.308, 3136, 36.8, M
CAMERON FIRE STATION CALIFORNI, San Diego, CA06, -116.463, 32.721, 3443, 51.7, M
CARRIZO CALIFORNIA, San Luis Obispo, CA05, -119.773, 35.096, 2490, 56.3, M
CASE SPRINGS CALIFORNIA, San Diego, CA06, -117.418, 33.445, 2320, 61.9, M
CATHEYS VALLEY CALIFORNIA, Mariposa, CA05, -120.111, 37.468, 1200, 50.3, M
CEDAR GROVE CALIFORNIA, Fresno, CA05, -118.656, 36.788, 4720, 43.7, M
CHEESEBORO CALIFORNIA, Ventura, CA06, -118.717, 34.185, 1650, 64.5, M
CHILAO CALIFORNIA, Los Angeles, CA06, -118.030, 34.332, 5450, 53.6, M
CHUCHUPATE CALIFORNIA, Ventura, CA05, -119.012, 34.808, 4900, 41.5, M
CLAREMONT CALIFORNIA, Los Angeles, CA06, -117.707, 34.137, 1645, 60.0, M
CLEAR CREEK CALIFORNIA, Los Angeles, CA06, -118.152, 34.271, 3000, 59.3, M
CLARK CALIFORNIA, Riverside, CA06, -117.309, 33.877, 1720, 61.0, M
CALAVERAS ROAD CALIFORNIA, Alameda, CA04, -121.844, 37.553, 1230, 51.9, M
CASE MOUNTAIN CALIFORNIA, Tulare, CA05, -118.809, 36.411, 6450, 48.0, M
COHASSET CALIFORNIA, Butte, CA02, -121.769, 39.872, 1733, 53.3, M
COLLINS BALDY CALIFORNIA, Siskiyou, CA01, -122.950, 41.775, 5493, 40.7, M
CONVERSE CALIFORNIA, San Bernardino, CA06, -116.913, 34.194, 5618, 49.4, M
COOSKIE MOUNTAIN CALIFORNIA, Humboldt, CA01, -124.266, 40.257, 2950, 48.8, M
CORRALITOS CALIFORNIA, Santa Cruz, CA04, -121.798, 36.991, 450, 53.0, M
COUNTY LINE CALIFORNIA, Lake, CA02, -122.412, 39.019, 2085, 52.0, M
CAMP 9 CALIFORNIA, Los Angeles, CA06, -118.422, 34.362, 4000, 55.2, M
CRANE FLAT LOOKOUT CALIFORNIA, Mariposa, CA05, -119.825, 37.762, 6644, 49.8, M
CRESTVIEW CALIFORNIA, Mono, CA07, -118.983, 37.745, 7600, 33.6, M
CORNING CALIFORNIA, Tehama, CA02, -122.170, 39.939, 294, 48.8, M
CARPENTER RIDGE CALIFORNIA, Butte, CA02, -121.582, 40.069, 4812, 46.3, M
CRANSTON CALIFORNIA, Riverside, CA06, -116.841, 33.740, 1950, 60.6, M
CRAZY PEAK CALIFORNIA, Del Norte, CA01, -123.604, 41.992, 3970, 45.2, M
CASHMAN CALIFORNIA, Plumas, CA02, -120.915, 40.002, 4520, 39.3, M
DESCANSO CALIFORNIA, San Diego, CA06, -116.622, 32.857, 3480, 54.5, M
DEVILS GARDEN CALIFORNIA, Modoc, CA02, -120.671, 41.530, 5022, 35.2, M
DIABLO GRANDE CALIFORNIA, Stanislaus, CA05, -121.294, 37.329, 1850, 52.5, M
DEMOCRAT CALIFORNIA, Kern, CA05, -118.630, 35.532, 2356, 50.5, M
DINKEY CALIFORNIA, Fresno, CA05, -119.039, 37.066, 5668, 40.5, M
DOG VALLEY CALIFORNIA, Sierra, CA03, -120.048, 39.562, 5976, 33.2, M
DOYLE CALIFORNIA, Lassen, CA03, -120.106, 40.022, 4240, 33.1, M
DUNCAN CALIFORNIA, Placer, CA02, -120.509, 39.144, 7100, 43.6, M
DEL VALLE CALIFORNIA, Los Angeles, CA06, -118.683, 34.431, 1278, 61.4, M
EAGLE PEAK CALIFORNIA, Tehama, CA02, -122.657, 39.928, 3713, 49.6, M
EEL RIVER CAMP CALIFORNIA, Humboldt, CA01, -123.824, 40.138, 446, 45.7, M
EEL RIVER CALIFORNIA, Mendocino, CA01, -123.083, 39.833, 1500, 43.1, M
EL CARISO CALIFORNIA, Riverside, CA06, -117.411, 33.647, 3038, 61.9, M
MOUNT ELIZABETH CALIFORNIA, Tuolumne, CA05, -120.247, 38.063, 4933, 52.2, M
EL MIRAGE CALIFORNIA, San Bernardino, CA07, -117.550, 34.634, 2880, 47.0, M
FANCHER CREEK CALIFORNIA, Fresno, CA05, -119.466, 36.884, 920, 53.6, M
FAWNSKIN CALIFORNIA, San Bernardino, CA06, -116.899, 34.266, 6900, 41.3, M
FENCE MEADOW CALIFORNIA, Fresno, CA05, -119.175, 36.961, 5048, 52.5, M
FORT HUNTER LIGGET CALIFORNIA, Monterey, CA04, -121.242, 36.012, 1100, 50.9, M
FIGUEROA CALIFORNIA, Santa Barbara, CA06, -120.007, 34.733, 3200, 60.5, M
FISH CREEK MTN CALIFORNIA, Imperial, CA07, -116.067, 32.990, 760, 66.5, M
FIVE MILE CALIFORNIA, Inyo, CA07, -117.918, 35.872, 4150, 53.4, M
FORESTHILL CALIFORNIA, Placer, CA02, -120.732, 39.091, 4355, 50.7, M
FOUNTAIN SPRINGS CALIFORNIA, Tulare, CA05, -118.915, 35.892, 210, 48.3, M
FREMONT CANYON CALIFORNIA, Orange, CA06, -117.711, 33.808, 1781, 64.5, M
FRIEND MOUNTAIN CALIFORNIA, Trinity, CA01, -123.342, 40.505, 4000, 45.2, M
GRASSHOPPER CALIFORNIA, Lassen, CA03, -120.784, 40.782, 6158, 36.1, M
GOOSE VALLEY CALIFORNIA, San Diego, CA06, -116.846, 33.074, 1530, 63.6, M
GORDON CALIFORNIA, Lassen, CA03, -120.896, 40.759, 6200, 33.4, M
GREEN SPRING CALIFORNIA, Tuolumne, CA05, -120.500, 37.833, 1020, 49.0, M
HASTINGS CALIFORNIA, Monterey, CA04, -121.552, 36.389, 1885, 56.9, M
HAWKEYE CALIFORNIA, Sonoma, CA01, -122.917, 38.782, 2000, 54.9, M
HAYFORK CALIFORNIA, Trinity, CA01, -123.165, 40.550, 2323, 38.4, M
HELL HOLE CALIFORNIA, Placer, CA02, -120.422, 39.072, 5240, 48.1, M
HERNANDEZ CALIFORNIA, San Benito, CA04, -120.856, 36.383, 3733, 55.5, M
HIGH GLADE LOOKOUT CALIFORNIA, Lake, CA02, -122.808, 39.208, 4840, 49.9, M
HIGH SIERRA CALIFORNIA, Fresno, CA05, -119.038, 37.315, 7403, 38.9, M
HOPLAND CALIFORNIA, Mendocino, CA01, -123.081, 39.031, 2682, 52.4, M
HOLLISTER CALIFORNIA, San Benito, CA04, -121.362, 36.842, 404, 50.9, M
HUNTER MOUNTAIN CALIFORNIA, Inyo, CA07, -117.474, 36.563, 6880, 40.8, M
HORSE LAKE CALIFORNIA, Lassen, CA03, -120.503, 40.631, 5100, 30.6, M
HOOPA CALIFORNIA, Humboldt, CA01, -123.671, 41.048, 375, 44.2, M
HORSE THIEF SPRINGS CALIFORNIA, San Bernardino, CA07, -115.909, 35.771, 5000, 49.5, M
HURLEY CALIFORNIA, Fresno, CA05, -119.568, 37.015, 1201, 44.3, M
INDIAN WELL CALIFORNIA, Siskiyou, CA01, -121.538, 41.742, 4770, 34.7, M
JARBO GAP CALIFORNIA, Butte, CA02, -121.489, 39.736, 2490, 48.5, M
JERSEYDALE CALIFORNIA, Mariposa, CA05, -119.839, 37.544, 3900, 51.0, M
JOHNSONDALE CALIFORNIA, Tulare, CA05, -118.545, 35.972, 4700, 41.5, M
JUANITA LAKE CALIFORNIA, Siskiyou, CA01, -122.006, 41.786, 5400, 37.0, M
JULIAN CALIFORNIA, San Diego, CA07, -116.591, 33.076, 4240, 52.5, M
JUNIPER CREEK CALIFORNIA, Modoc, CA02, -120.472, 41.332, 4372, 34.4, M
KEENWILD CALIFORNIA, Riverside, CA06, -116.767, 33.667, 4920, 53.5, M
KETTLEMAN HILLS CALIFORNIA, Kings, CA05, -120.057, 36.033, 810, 52.2, M
KNOXVILLE CREEK CALIFORNIA, Lake, CA02, -122.417, 38.862, 2200, 51.1, M
KONOCTI CALIFORNIA, Lake, CA02, -122.706, 38.912, 2163, 52.6, M
LOS BANOS CALIFORNIA, Merced, CA05, -121.053, 37.055, 350, 51.3, M
MT. LAGUNA CALIFORNIA, San Diego, CA07, -116.420, 32.880, 5760, 46.3, M
LA HONDA CALIFORNIA, San Mateo, CA04, -122.255, 37.305, 872, 54.5, M
LA PANZA CALIFORNIA, San Luis Obispo, CA04, -120.187, 35.381, 1630, 46.5, M
LAURAL MOUNTAIN CALIFORNIA, Kern, CA07, -117.699, 35.478, 4390, 51.2, M
LASSEN LODGE CALIFORNIA, Tehama, CA02, -121.714, 40.344, 4159, 49.3, M
LAUFMAN CALIFORNIA, Lassen, CA03, -120.353, 40.142, 5800, 33.4, M
LAYTONVILLE CALIFORNIA, Mendocino, CA01, -123.485, 39.702, 1820, 45.0, M
LADDER BUTTE CALIFORNIA, Lassen, CA02, -121.297, 40.807, 5750, 40.8, M
LEO CARRILLO CALIFORNIA, Los Angeles, CA06, -118.936, 34.046, 50, 62.8, M
LOS GATOS CALIFORNIA, Santa Clara, CA04, -121.943, 37.203, 2000, 53.9, M
LOST HORSE CALIFORNIA, Riverside, CA07, -116.188, 34.018, 4200, 48.3, M
LINCOLN CALIFORNIA, Placer, CA02, -121.268, 38.883, 200, 46.9, M
LOWER KLAMATH CALIFORNIA, Siskiyou, CA01, -121.700, 41.999, 4098, 30.0, M
LOS PRIETOS CALIFORNIA, Santa Barbara, CA06, -119.783, 34.536, 1020, 59.1, M
LAS TABLAS CALIFORNIA, San Luis Obispo, CA04, -120.924, 35.656, 994, 47.5, M
LITTLE TUJUNGA CALIFORNIA, Los Angeles, CA06, -118.361, 34.294, 1390, 63.0, M
SANTA ROSA ISLAND CALIFORNIA, Santa Barbara, CA06, -120.078, 33.978, 1298, 61.4, M
SANTA ROSA PLATEAU CALIFORNIA, Riverside, CA06, -117.231, 33.529, 1980, 61.9, M
SANTA ROSA CALIFORNIA, Sonoma, CA01, -122.712, 38.479, 576, 52.3, M
STAMPEDE CALIFORNIA, Sierra, CA03, -120.075, 39.483, 6867, 34.5, M
STONYFORD CALIFORNIA, Colusa, CA02, -122.575, 39.367, 1200, 48.6, M
SUGARLOAF (SHF) CALIFORNIA, Shasta, CA02, -122.438, 40.917, 4200, 46.2, M
SPRING VALLEY CALIFORNIA, San Mateo, CA04, -122.436, 37.563, 1075, 52.4, M
TANBARK CALIFORNIA, Los Angeles, CA06, -117.761, 34.207, 2600, 61.2, M
TEMESCAL (LPF) CALIFORNIA, Ventura, CA06, -118.756, 34.481, 1140, 59.6, M
THOMES CREEK CALIFORNIA, Tehama, CA02, -122.610, 39.864, 1040, 53.5, M
TIMBER MOUNTAIN CALIFORNIA, Modoc, CA01, -121.298, 41.629, 4960, 36.5, M
MOUNT TOM CALIFORNIA, Fresno, CA05, -119.178, 37.376, 9018, 40.8, M
LAS TRAMPAS CALIFORNIA, Contra Costa, CA04, -122.067, 37.834, 1760, 51.1, M
TRINITY CAMP CALIFORNIA, Trinity, CA01, -122.804, 40.786, 3308, 40.5, M
TRIMMER CALIFORNIA, Fresno, CA05, -119.305, 36.911, 1540, 50.0, M
UHL / HOT SPRINGS, Tulare, CA05, -118.633, 35.889, 3720, 50.7, M
UNDERWOOD CALIFORNIA, Trinity, CA01, -123.495, 40.722, 2600, 42.3, M
VALLEY CENTER CALIFORNIA, San Diego, CA06, -117.009, 33.237, 1483, 60.7, M
VAN BREMMER CALIFORNIA, Siskiyou, CA01, -121.794, 41.643, 4928, 37.6, M
VALYERMO CALIFORNIA, Los Angeles, CA07, -117.851, 34.446, 3780, 49.0, M
VANDENBERG CALIFORNIA, Santa Barbara, CA06, -120.486, 34.759, 1050, 61.0, M
WALKER CALIFORNIA, Mono, CA03, -119.459, 38.565, 5440, 40.0, M
WALKER PASS CALIFORNIA, Kern, CA05, -118.057, 35.665, 5572, 50.7, M
WARM SPRINGS CALIFORNIA, Los Angeles, CA06, -118.579, 34.596, 4930, 54.1, M
WEED AIRPORT CALIFORNIA, Siskiyou, CA01, -122.454, 41.479, 2930, 34.1, M
WESTWOOD CALIFORNIA, Lassen, CA02, -120.900, 40.307, 5800, 38.8, M
WHITE CLOUD CALIFORNIA, Nevada, CA02, -120.837, 39.317, 4320, 51.1, M
WHITTIER HILLS CALIFORNIA, Los Angeles, CA06, -118.010, 33.984, 950, 65.6, M
WHITMORE CALIFORNIA, Shasta, CA02, -121.899, 40.619, 2417, 48.8, M
WILEY RIDGE CALIFORNIA, Ventura, CA06, -118.841, 34.372, 1645, 61.8, M
WOFFORD HEIGHTS CALIFORNIA, Kern, CA05, -118.499, 35.722, 3150, 51.8, M
WOLVERTON CALIFORNIA, Tulare, CA05, -118.703, 36.445, 5240, 52.0, M
WOODACRE CALIFORNIA, Marin, CA01, -122.645, 37.991, 1400, 51.9, M
WHITAKER PEAK CALIFORNIA, Los Angeles, CA06, -118.740, 34.569, 4120, 55.2, M
WHITE WOLF CALIFORNIA, Tuolumne, CA05, -119.650, 37.851, 8025, 39.7, M
YOLLA BOLLA CALIFORNIA, Trinity, CA01, -123.066, 40.338, 4524, 46.2, M
YUCCA VALLEY CALIFORNIA, San Bernardino, CA07, -116.408, 34.123, 3260, 51.2, M
YUROK CALIFORNIA, Humboldt, CA01, -123.857, 41.290, 495, 46.4, M
HAGAN'S MEADOW, El Dorado, CA03, -119.940, 38.850, 7776, 35.4, 0.70
BLUE LAKES, Alpine, CA05, -119.920, 38.610, 8057, 33.9, 0.70
POISON FLAT, Alpine, CA03, -119.630, 38.510, 7736, 33.3, 0.80
SONORA PASS, Mono, CA03, -119.600, 38.310, 8827, 34.7, 0.60
LEAVITT MEADOWS, Mono, CA03, -119.550, 38.300, 7198, 36.7, 0.50
VIRGINIA LAKES RIDGE, Mono, CA03, -119.230, 38.070, 9445, 35.6, 0.30
LOBDELL LAKE, Mono, CA03, -119.370, 38.440, 9233, 34.0, 0.30
EBBETTS PASS, Alpine, CA03, -119.800, 38.550, 8765, 36.5, 1.10
HEAVENLY VALLEY, El Dorado, CA03, -119.920, 38.920, 8582, 36.3, 0.80
LEAVITT LAKE, Mono, CA03, -119.610, 38.280, 9617, 34.8, 0.80
SPRATT CREEK, Alpine, CA03, -119.820, 38.670, 6115, 37.1, 0.40
MONITOR PASS, Alpine, CA03, -119.610, 38.670, 8310, 37.5, 0.40
BURNSIDE LAKE, Alpine, CA03, -119.890, 38.720, 8129, 31.6, 0.70
SUMMIT MEADOW, Mono, CA03, -119.540, 38.400, 9313, 35.7, 0.60
FORESTDALE CREEK, Alpine, CA03, -119.960, 38.680, 8017, 37.9, 0.80
HORSE MEADOW, Alpine, CA03, -119.890, 38.840, 8557, 37.6, 0.60
CARSON PASS, Alpine, CA02, -119.990, 38.690, 8353, 35.4, 0.90
CROWDER FLAT, Modoc, CA01, -120.750, 41.890, 5170, 35.3, 0.60
CEDAR PASS, Modoc, CA02, -120.300, 41.580, 7030, 36.9, 1.10
DISMAL SWAMP, Modoc, CA03, -120.180, 41.990, 7360, 31.9, 2.20
ADIN MTN, Modoc, CA02, -120.790, 41.240, 6190, 32.9, 1.00
INDEPENDENCE CREEK, Sierra, CA03, -120.280, 39.490, 6456, 33.7, 0.70
INDEPENDENCE CAMP, Sierra, CA03, -120.290, 39.450, 7003, 36.6, 0.60
INDEPENDENCE LAKE, Nevada, CA03, -120.310, 39.430, 8352, 36.5, 1.20
TRUCKEE #2, Placer, CA03, -120.180, 39.300, 6509, 36.6, 1.00
WARD CREEK #3, Placer, CA03, -120.220, 39.140, 6655, 35.4, 0.90
TAHOE CITY CROSS, Placer, CA03, -120.150, 39.170, 6797, 38.6, 1.20
SQUAW VALLEY G.C., Placer, CA03, -120.260, 39.190, 8029, 38.3, 1.00
CSS LAB, Nevada, CA02, -120.370, 39.330, 6855, 37.8, 1.10
RUBICON #2, El Dorado, CA03, -120.130, 39.000, 7689, 38.6, 1.00
ECHO PEAK, El Dorado, CA03, -120.080, 38.850, 7670, 39.8, 1.20
FALLEN LEAF, El Dorado, CA03, -120.050, 38.930, 6236, 35.5, 1.30
BEAR VALLEY F.D., Kern, CA01, -118.644, 35.166, 4100, 45.1, 0.53
WASCO 0.8 SSW, Kern, CA05, -119.348, 35.583, 325, M, 0.00
NEVADA CITY 1.7 SSE, Nevada, CA02, -121.006, 39.238, 3168, M, 0.73
LA MESA 2.6E, San Diego, CA06, -116.979, 32.770, 1014, M, 0.11
BERKELEY 4.0 E, Alameda, CA04, -122.226, 37.857, 1148, M, 0.15
CARLSBAD 1.3ENE, San Diego, CA06, -117.331, 33.166, 194, M, 0.08
RED BLUFF 4.9 SE, Tehama, CA02, -122.175, 40.124, 265, M, 0.08
CHICO 0.2 ESE, Butte, CA02, -121.803, 39.753, 257, M, 0.28
CRESCENT CITY 7.8 NNE, Del Norte, CA01, -124.144, 41.862, 95, M, 3.71
MISSION VIEJO 3.9 NNE, Orange, CA06, -117.626, 33.665, 1051, M, 0.01
STOCKTON 2.5 NE, San Joaquin, CA05, -121.366, 38.001, 1, M, 0.09
HALF MOON BAY 1.0 S, San Mateo, CA04, -122.438, 37.455, 65, M, 0.14
MOUNT SHASTA 1.7 SSE, Siskiyou, CA02, -122.303, 41.299, 3593, M, 0.41
RED BLUFF 5.7 W, Tehama, CA02, -122.346, 40.161, 490, M, 0.00
VOLCANO 3.2 N, Amador, CA05, -120.631, 38.488, 2426, M, 0.85
CAMINO 2.0 WSW, El Dorado, CA02, -120.711, 38.734, 2910, M, 0.94
TRINIDAD 1.0 ENE, Humboldt, CA01, -124.124, 41.061, 287, M, 2.53
HYDESVILLE 11.4 NE, Humboldt, CA01, -123.924, 40.658, 2446, M, 1.92
BENICIA 1.0 N, Solano, CA01, -122.157, 38.086, 246, M, 0.03
LOS MOLINOS 4.5 N, Tehama, CA02, -122.111, 40.092, 235, M, 0.00
RED BLUFF 19.0 SW, Tehama, CA02, -122.535, 40.016, 773, M, 0.00
WILLOW CREEK 4.9 NNE, Humboldt, CA01, -123.628, 40.947, 501, M, 1.94
PASADENA 1.8 E, Los Angeles, CA06, -118.107, 34.162, 911, M, 0.00
TORRANCE 0.7 E, Los Angeles, CA06, -118.328, 33.834, 92, M, 0.00
NORCO 1.7 W, Riverside, CA06, -117.582, 33.925, 626, M, 0.00
DESCANSO 3.7 NNW, San Diego, CA06, -116.626, 32.906, 3278, M, 0.00
ESCONDIDO 0.8 NNE, San Diego, CA06, -117.066, 33.147, 734, M, 0.00
EL CAJON 2.8SE, San Diego, CA06, -116.920, 32.772, 686, M, 0.00
OCEANSIDE 8.1ENE, San Diego, CA06, -117.256, 33.250, 189, M, 0.00
SAN MARCOS 2.6W, San Diego, CA06, -117.211, 33.147, 657, M, M
CARLSBAD 8.3SE, San Diego, CA06, -117.242, 33.079, 222, M, 0.17
OROVILLE 4.6 ENE, Butte, CA02, -121.489, 39.531, 394, M, 0.15
SALINAS 3.2 NNW, Monterey, CA04, -121.656, 36.728, 105, M, 0.10
MEADOW VALLEY 5.6 WSW, Plumas, CA02, -121.100, 39.919, 4438, M, 1.49
MORGAN HILL 6.4 NE, Santa Clara, CA04, -121.546, 37.186, 2624, M, 0.06
SAN JOSE 1.9 SW, Santa Clara, CA04, -121.877, 37.288, 141, M, 0.11
EL CAJON 3.2ESE, San Diego, CA06, -116.910, 32.780, 783, M, 0.04
VALLEY CENTER 6.4N, San Diego, CA06, -117.041, 33.311, 1357, M, 0.00
HOLLISTER 0.3 WSW, San Benito, CA04, -121.403, 36.854, 326, M, 0.23
KNEELAND 3.5 SSE, Humboldt, CA01, -123.976, 40.711, 2050, M, 2.42
DESCANSO 0.8 N, San Diego, CA06, -116.618, 32.865, 3487, M, 0.11
BOULEVARD 4.4 WSW, San Diego, CA06, -116.348, 32.645, 3521, M, 0.07
WOODSIDE 3.4 S, San Mateo, CA04, -122.264, 37.375, 1592, M, 0.12
YUCAIPA 1.5 NNE, San Bernardino, CA06, -117.038, 34.054, 2776, M, 0.00
LA CRESCENTA-MONTROSE 1.6 WNW, Los Angeles, CA06, -118.261, 34.241, 1872, M, 0.00
SANTA MONICA 1.3 NNE, Los Angeles, CA06, -118.485, 34.032, 186, M, 0.00
CASPAR 1.4 ESE, Mendocino, CA01, -123.789, 39.361, 323, M, 1.02
LAKESIDE 4.1NNE, San Diego, CA06, -116.888, 32.909, 1679, M, 0.14
JOSHUA TREE 0.0 ESE, San Bernardino, CA07, -116.318, 34.127, 2883, M, 0.09
GERBER 3.5 SW, Tehama, CA02, -122.190, 40.021, 268, M, 0.06
CRESCENT CITY 2.1 N, Del Norte, CA01, -124.200, 41.785, 31, M, 3.49
SILVERADO 0.9 E, Orange, CA06, -117.622, 33.746, 1439, M, 0.00
CHULA VISTA 3.1ESE, San Diego, CA06, -117.031, 32.631, 330, M, 0.00
EL CERRITO 1.3 NW, Contra Costa, CA04, -122.316, 37.936, 258, M, 0.07
MCKINLEYVILLE 2.1 NE, Humboldt, CA01, -124.088, 40.975, 270, M, 2.64
SAN ANSELMO 2.0 NNW, Marin, CA01, -122.580, 38.010, 204, M, 0.10
ANAHEIM 7.3 E, Orange, CA06, -117.747, 33.852, 755, M, 0.00
LOS GATOS 9.6 SSE, Santa Clara, CA04, -121.890, 37.104, 2199, M, 0.17
CHICO 1.3 E, Butte, CA02, -121.782, 39.755, 362, M, 0.32
REDDING 7.3 NE, Shasta, CA02, -122.255, 40.637, 682, M, 0.05
SAUSALITO 0.3 WNW, Marin, CA01, -122.497, 37.859, 159, M, 0.31
NOVATO 1.2 SW, Marin, CA01, -122.570, 38.079, 228, M, 0.04
SAN RAFAEL 4.6 NNW, Marin, CA01, -122.543, 38.041, 195, M, 0.06
SALINAS 2.7 WSW, Monterey, CA04, -121.681, 36.670, 38, M, 0.10
GRASS VALLEY 8.3 SSE, Nevada, CA02, -121.008, 39.107, 2182, M, 0.78
PERRIS 10.6 W, Riverside, CA06, -117.405, 33.821, 1586, M, 0.00
GILROY 0.1 SE, Santa Clara, CA04, -121.577, 37.009, 211, M, 0.06
BENICIA 1.3 W, Solano, CA01, -122.178, 38.075, 304, M, 0.09
RED BLUFF 2.4 NE, Tehama, CA02, -122.205, 40.194, 275, M, 0.06
SPRINGVILLE 1.4 SSW, Tulare, CA05, -118.825, 36.111, 937, M, 0.11
DAVIS 2.3 W, Yolo, CA02, -121.778, 38.559, 55, M, 0.03
GRIDLEY 3.3 SE, Butte, CA02, -121.646, 39.335, 92, M, 0.07
SOUTH LAKE TAHOE 4.9 SW, El Dorado, CA03, -120.034, 38.882, 6325, M, 0.31
EL DORADO HILLS 0.7 NNE, El Dorado, CA02, -121.074, 38.695, 709, M, 0.92
EL DORADO HILLS 0.9 NNW, El Dorado, CA02, -121.087, 38.698, 771, M, 0.54
ARCATA 1.9 SE, Humboldt, CA01, -124.052, 40.851, 210, M, 2.15
INDEPENDENCE 0.2 NNW, Inyo, CA07, -118.201, 36.806, 3914, M, T
CALABASAS 1.9 E, Los Angeles, CA06, -118.628, 34.141, 1080, M, T
COARSEGOLD 1.4 SE, Madera, CA05, -119.686, 37.247, 2674, M, 0.19
CHOWCHILLA 0.3 E, Madera, CA05, -120.252, 37.116, 238, M, 0.09
SAN RAFAEL 4.6 NW, Marin, CA01, -122.574, 38.020, 166, M, 0.08
BOLINAS 0.2 W, Marin, CA01, -122.701, 37.906, 190, M, 0.14
LAGUNITAS-FOREST KNOLLS 0.2 SSE, Marin, CA01, -122.686, 38.013, 269, M, 0.25
SAN RAFAEL 1.9 NNW, Marin, CA01, -122.524, 38.005, 15, M, 0.01
NOVATO 0.7 WNW, Marin, CA01, -122.568, 38.098, 12, M, 0.03
NOVATO 2.7 WNW, Marin, CA01, -122.600, 38.110, 76, M, 0.07
AUBURN 5.3 NNW, Placer, CA02, -121.115, 38.963, 1236, M, 0.88
SUNNYSLOPE 1.6 W, Riverside, CA06, -117.450, 34.016, 946, M, 0.00
FAIR OAKS 3.0 WNW, Sacramento, CA02, -121.300, 38.662, 173, M, 0.09
BUELLTON 0.7 S, Santa Barbara, CA06, -120.199, 34.617, 363, M, T
MORGAN HILL 4.5 NW, Santa Clara, CA04, -121.703, 37.173, 310, M, 0.09
BOULDER CREEK 4.1 N, Santa Cruz, CA04, -122.141, 37.195, 984, M, 0.20
PORTERVILLE 2.4 NNW, Tulare, CA05, -119.051, 36.093, 422, M, 0.07
CAMARILLO 0.6 N, Ventura, CA06, -119.030, 34.231, 178, M, 0.00
DAVIS 1.1 ENE, Yolo, CA02, -121.716, 38.559, 56, M, 0.06
DAVIS 6.3 W, Yolo, CA02, -121.852, 38.561, 86, M, 0.04
DAVIS 1.6 NNW, Yolo, CA02, -121.751, 38.574, 57, M, 0.05
ALBANY 1.7 E, Alameda, CA04, -122.296, 37.895, 55, M, 0.09
WALNUT CREEK 2.3 WSW, Contra Costa, CA04, -122.081, 37.891, 252, M, 0.12
TRINIDAD 0.2 NE, Humboldt, CA01, -124.140, 41.059, 180, M, 2.21
RIVERSIDE 5.8 E, Riverside, CA06, -117.296, 33.941, 1536, M, 0.00
LA MESA 0.9 SW, San Diego, CA06, -117.028, 32.760, 528, M, 0.15
JACUMBA 0.3 NNW, San Diego, CA07, -116.190, 32.621, 2821, M, 0.03
MILLVILLE 3.6 SW, Shasta, CA02, -122.173, 40.545, 506, M, 0.15
SANTA ROSA 2.3 NW, Sonoma, CA01, -122.733, 38.470, 137, M, 0.08
HEALDSBURG 2.9 N, Sonoma, CA01, -122.864, 38.661, 177, M, 0.10
SANTA ROSA 1.7 E, Sonoma, CA01, -122.669, 38.449, 220, M, 0.09
FAIRFIELD 5.9 WSW, Solano, CA01, -122.143, 38.222, 3303, M, 0.04
LUCERNE VALLEY 2.7 SSE, San Bernardino, CA07, -116.949, 34.407, 3387, M, 0.00
THOUSAND OAKS 2.7 NW, Ventura, CA06, -118.897, 34.222, 681, M, M
STATE LINE, Modoc, CA01, -120.720, 41.990, 5680, 35.9, 0.70
BIG PINE 0.5 ENE, Inyo, CA07, -118.288, 37.169, 3972, M, 0.00
SANTA ANA 2.0 N, Orange, CA06, -117.888, 33.766, 110, M, 0.00
POWAY 3.9 NNW, San Diego, CA06, -117.046, 33.036, 648, M, 0.04
SAN DIEGO 7.8 SW, San Diego, CA06, -117.246, 32.750, 24, M, 0.08
BISHOP 1.8 NW, Inyo, CA07, -118.423, 37.384, 4206, M, 0.00
NAPA 2.0 E, Napa, CA01, -122.263, 38.301, 219, M, T
HUNTINGTON BEACH 2.0 ESE, Orange, CA06, -117.974, 33.685, 13, M, 0.09
RANCHO CORDOVA 1.5 SE, Sacramento, CA02, -121.281, 38.580, 104, M, 0.23
N CLAIREMONT 0.6SSE, San Diego, CA06, -117.199, 32.826, 341, M, 0.12
ATASCADERO 3.1 WNW, San Luis Obispo, CA04, -120.738, 35.503, 1403, M, 0.07
REDWOOD CITY 3.3 SSW, San Mateo, CA04, -122.234, 37.474, 31, M, 0.11
CAZADERO 6.6 WNW, Sonoma, CA01, -123.200, 38.562, 919, M, 0.52
TWAIN HARTE 1.6 SW, Tuolumne, CA05, -120.253, 38.024, 3231, M, 0.57
TUOLUMNE CITY 2.0 N, Tuolumne, CA05, -120.237, 37.992, 2915, M, 0.49
THOUSAND OAKS 2.3 NE, Ventura, CA06, -118.837, 34.215, 1093, M, 0.00
PLEASANT HILL 1.1 ENE, Contra Costa, CA04, -122.056, 37.959, 43, M, 0.09
WHITMORE 4.1 NNE, Shasta, CA02, -121.873, 40.680, 2693, M, 0.55
COLUMBIA 1.6 NW, Tuolumne, CA05, -120.425, 38.042, 2326, M, 0.37
BAKERSFIELD 6.1 WSW, Kern, CA05, -119.108, 35.331, 370, M, 0.02
WALKER BASIN 0.9 E, Kern, CA05, -118.507, 35.409, 3435, M, 0.01
SALYER 1.1 E, Trinity, CA01, -123.561, 40.890, 762, M, 2.00
LOS GATOS 5.6 S, Santa Clara, CA04, -121.978, 37.151, 1439, M, 0.16
SEBASTOPOL 1.4 WSW, Sonoma, CA01, -122.850, 38.392, 178, M, 0.13
OAKLAND 1.2 ENE, Alameda, CA04, -122.203, 37.778, 116, M, 0.10
BANGOR 0.4 N, Butte, CA02, -121.405, 39.395, 820, M, 0.25
ARNOLD 3.2 ENE, Calaveras, CA05, -120.312, 38.242, 4036, M, 0.56
GARBERVILLE 1.1 WSW, Humboldt, CA01, -123.810, 40.089, 510, M, 0.35
ARCATA 0.9 WNW, Humboldt, CA01, -124.097, 40.872, 15, M, 2.16
WHITETHORN 1.7 NNW, Humboldt, CA01, -123.959, 40.045, 967, M, 1.50
BISHOP 1.7 SW, Inyo, CA07, -118.415, 37.347, 4221, M, 0.00
FORT BRAGG 4.0 NNE, Mendocino, CA01, -123.785, 39.499, 85, M, 0.41
MARINA 0.8 SSE, Monterey, CA04, -121.784, 36.673, 136, M, 0.09
CARMEL VALLEY VILLAGE 12.2 SE, Monterey, CA04, -121.577, 36.354, 3084, M, 0.18
ROCKLIN 2.5 W, Placer, CA02, -121.286, 38.809, 130, M, 0.28
MURRIETA 3.6 NNE, Riverside, CA06, -117.188, 33.608, 1723, M, 0.00
SACRAMENTO 4.3 ENE, Sacramento, CA02, -121.394, 38.591, 52, M, 0.14
SANTA BARBARA 4.7 WNW, Santa Barbara, CA06, -119.799, 34.453, 129, M, 0.00
BORREGO SPRINGS 7.1SE, San Diego, CA07, -116.279, 33.193, 574, M, 0.00
SHINGLETOWN 2.5 E, Shasta, CA02, -121.843, 40.499, 3643, M, 0.72
SAN MATEO 0.8 NE, San Mateo, CA04, -122.301, 37.568, 5, M, 0.17
PACIFICA 1.9 S, San Mateo, CA04, -122.479, 37.584, 297, M, 0.34
CAZADERO 1.3 SSE, Sonoma, CA01, -123.078, 38.515, 179, M, 0.35
KENWOOD 1.4 NNW, Sonoma, CA01, -122.551, 38.435, 490, M, 0.14
SEBASTOPOL 4.7 W, Sonoma, CA01, -122.912, 38.390, 599, M, 0.16
SONOMA 0.4 SSE, Sonoma, CA01, -122.456, 38.286, 79, M, 0.05
SANTA ROSA 2.1 NNE, Sonoma, CA01, -122.690, 38.478, 643, M, 0.14
SAN BERNARDINO 5.1 NW, San Bernardino, CA06, -117.350, 34.195, 1735, M, 0.02
MODESTO 4.1 NW, Stanislaus, CA05, -121.057, 37.693, 78, M, 0.08
APTOS 1.4 N, Santa Cruz, CA04, -121.901, 37.012, 601, M, 0.18
SANTA CRUZ 5.7 N, Santa Cruz, CA04, -122.033, 37.056, 353, M, 0.16
WATSONVILLE 1.0 N, Santa Cruz, CA04, -121.766, 36.934, 106, M, 0.25
SONORA 3.4 E, Tuolumne, CA05, -120.319, 37.985, 2538, M, 0.37
DAVIS 1.7 SE, Yolo, CA02, -121.711, 38.541, 54, M, 0.07
SOUTH LAKE F.S, Kern, CA05, -118.361, 35.647, 2654, 46.1, 0.00
CAMPO ASOS, San Diego, CA07, -116.468, 32.626, 2641, 52.1, 0.01
Burbank Glendale Pasadena Area, -, -, -, -, -, 61.1, T
Camarillo Area, -, -, -, -, -, 59.8, 0.00
Needles Area, -, -, -, -, -, 58.6, 0.00
Oxnard Area, -, -, -, -, -, 60.3, 0.00
Palm Springs Area, -, -, -, -, -, 62.6, 0.00
Riverside Area, -, -, -, -, -, 60.0, T
Ramona Area, -, -, -, -, -, 54.7, 0.04
LONG VALLEY 2, Riverside, CA07, -116.642, 33.813, 8380, 39.5, 0.00
VALLEY CENTER 1N, San Diego, CA06, -117.038, 33.222, 1290, 56.2, 0.00
Northern CA 8 Station Index, -, -, -, -, -, M, 0.65
San Joaquin 5 Station Index, -, -, -, -, -, M, 0.25
Tulare 6 Station Index, -, -, -, -, -, M, 0.09
MERCED 1.2 NW, Merced, CA05, -120.497, 37.310, 168, M, 0.14
HOLLISTER 5.3 NNE, San Benito, CA04, -121.346, 36.920, 325, M, 0.08
EAST PALO ALTO 0.3 WSW, San Mateo, CA04, -122.137, 37.464, 15, M, 0.07
LAKE ARROWHEAD 1.5 SE, San Bernardino, CA07, -117.171, 34.247, 5519, M, 0.01
SANTA ROSA 5.3 E, Sonoma, CA01, -122.603, 38.439, 424, M, 0.13
ALTURAS 9.5 E, Modoc, CA02, -120.365, 41.514, 5336, M, 0.73
DESCANSO 3.7N, San Diego, CA06, -116.623, 32.908, 3327, M, 0.11
CASTRO VALLEY 2.0 SW, Alameda, CA04, -122.086, 37.689, 154, M, 0.10
BECKWOURTH 3.3 E, Plumas, CA02, -120.316, 39.818, 4959, M, 0.19
PACIFIC GROVE 1.6 SSW, Monterey, CA04, -121.941, 36.603, 137, M, 0.13
O'BRIEN 5.6 SSW, Del Norte, CA01, -123.719, 41.987, 1717, M, 3.37
LEMON GROVE 2.9 SSE, San Diego, CA06, -117.024, 32.701, 396, M, 0.09
ESCONDIDO 1.4 ENE, San Diego, CA06, -117.050, 33.147, 703, M, 0.00
LOS ANGELES 2.6 NW, Los Angeles, CA06, -118.273, 34.081, 405, M, 0.00
HONEYDEW 3.2 SSE, Humboldt, CA01, -124.105, 40.200, 1395, M, 1.39
SQUAW VALLEY 0.6 SE, Fresno, CA05, -119.187, 36.689, 1309, M, 0.14
SAN DIEGO 1.8NE, San Diego, CA06, -117.133, 32.722, 220, M, 0.16
BODEGA BAY 1.3 NW, Sonoma, CA01, -123.047, 38.335, 87, M, 0.10
DAVIS 0.7 NNE, Yolo, CA02, -121.729, 38.563, 44, M, 0.05
LAKEPORT 0.6 N, Lake, CA02, -122.922, 39.051, 1406, M, 0.08
PLACERVILLE 6.6 ESE, El Dorado, CA05, -120.691, 38.680, 2587, M, 1.06
MENDOCINO 2.7 NNE, Mendocino, CA01, -123.776, 39.342, 421, M, 1.03
ROHNERT PARK 3.1 ENE, Sonoma, CA01, -122.650, 38.372, 668, M, 0.24
HOLLISTER 5.6 NE, San Benito, CA04, -121.340, 36.922, 385, M, 0.06
MCARTHUR 16.0 SE, Lassen, CA02, -121.178, 40.890, 4178, M, 0.35
CORNING 1.3 ESE, Tehama, CA02, -122.159, 39.921, 303, M, 0.02
RICHMOND 3.6 SE, Contra Costa, CA04, -122.316, 37.913, 98, M, 0.11
SANTEE 2.4NNE, San Diego, CA06, -116.976, 32.874, 509, M, 0.11
FRESNO 7.2 NNE, Fresno, CA05, -119.744, 36.877, 386, M, 0.06
MID-CITY SAN DIEGO 0.5W, San Diego, CA06, -117.069, 32.765, 462, M, 0.07
BENICIA 1.3 SW, Solano, CA01, -122.169, 38.056, 9, M, 0.08
WINCHESTER 6.5 S, Riverside, CA06, -117.091, 33.615, 1422, M, 0.00
LAKE MADERA 1.3 NNE, Madera, CA05, -119.984, 37.037, 359, M, 0.11
GILROY 2.0 S, Santa Clara, CA04, -121.572, 36.981, 221, M, 0.20
FELTON 4.0 NNE, Santa Cruz, CA04, -122.049, 37.098, 1071, M, 0.08
MARIPOSA 3.6 E, Mariposa, CA05, -119.902, 37.482, 2474, M, 0.18
PETROLIA 0.6 SSE, Humboldt, CA01, -124.282, 40.317, 92, M, 1.17
WHITETHORN 1.4 NW, Humboldt, CA01, -123.960, 40.039, 1005, M, 1.51
FORT BRAGG 3.5 S, Mendocino, CA01, -123.802, 39.391, 211, M, 0.84
LAGUNA HILLS 1.8 E, Orange, CA06, -117.679, 33.598, 448, M, 0.04
CLAIREMONT 3.7SSE, San Diego, CA06, -117.187, 32.781, 307, M, 0.07
FAIRFAX 0.7 N, Marin, CA01, -122.594, 37.999, 196, M, 0.11
RIVERSIDE 0.0 W, Riverside, CA06, -117.398, 33.940, 869, M, 0.00
JACKSON 0.8 SSE, Amador, CA05, -120.769, 38.339, 1355, M, 0.72
SQUAW VALLEY 3.1 ESE, Fresno, CA05, -119.139, 36.686, 2492, M, 0.14
ARTESIA 0.5 W, Los Angeles, CA06, -118.089, 33.868, 59, M, 0.04
GUERNEVILLE 0.8 N, Sonoma, CA01, -122.999, 38.513, 58, M, 0.29
BEAUMONT 2.2 NNW, Riverside, CA06, -116.992, 33.961, 2644, M, 0.00
BISHOP 1.4 WNW, Inyo, CA07, -118.418, 37.379, 4203, M, 0.00
NEWARK 1.2 ENE, Alameda, CA04, -122.010, 37.527, 30, M, 0.10
LOS ALTOS 1.8 SSE, Santa Clara, CA04, -122.084, 37.345, 277, M, 0.14
SAN MARCOS 3.3 WSW, San Diego, CA06, -117.228, 33.123, 587, M, 0.13
TRACY 1.1 SSW, San Joaquin, CA05, -121.440, 37.723, 78, M, 0.05
DEL MAR 0.5 NNW, San Diego, CA06, -117.265, 32.973, 9, M, 0.31
PALERMO 2.7 SE, Butte, CA02, -121.500, 39.406, 276, M, 0.19
LAGUNA BEACH 0.8 SSE, Orange, CA06, -117.757, 33.529, 770, M, 0.29
SONOMA 1.6 WNW, Sonoma, CA01, -122.488, 38.296, 103, M, 0.06
TEMPLETON 0.4 ENE, San Luis Obispo, CA04, -120.701, 35.555, 786, M, 0.06
LAKE OF THE WOODS 0.2 NNE, Kern, CA05, -118.996, 34.820, 5183, M, 0.00
ESCONDIDO 2.2 W, San Diego, CA06, -117.108, 33.131, 726, M, T
KNEELAND 3.4 WNW, Humboldt, CA01, -124.038, 40.799, 1375, M, 2.28
SACRAMENTO 6.5 NE, Sacramento, CA02, -121.374, 38.627, 80, M, 0.18
PAYNES CREEK 7.9 NNW, Shasta, CA02, -121.996, 40.432, 973, M, 0.21
Crescent City Area, -, -, -, -, -, 49.5, 2.74
Escondido Area, -, -, -, -, -, 59.7, 0.00
Sacramento Downtown Area, -, -, -, -, -, 49.6, 0.13
Tahoe City Area, -, -, -, -, -, 34.3, 0.48
Ukiah Area, -, -, -, -, -, 46.2, 0.15
SHELL BEACH 0.2 ENE, San Luis Obispo, CA04, -120.669, 35.155, 74, M, 0.01
WEST BISHOP 14.4 NW, Mono, CA07, -118.636, 37.510, 6395, M, 0.00
VACAVILLE 2.4 NW, Solano, CA02, -122.003, 38.383, 280, M, 0.05
REDONDO BEACH 2.0 SSW, Los Angeles, CA06, -118.388, 33.830, 82, M, 0.00
PETALUMA 1.4 W, Sonoma, CA01, -122.651, 38.240, 92, M, 0.11
MOUNTAIN VIEW 1.1 S, Santa Clara, CA04, -122.077, 37.387, 100, M, 0.10
LANCASTER 5.5 E, Los Angeles, CA07, -118.080, 34.683, 2408, M, 0.00
SAN JACINTO 4.2 W, Riverside, CA06, -117.037, 33.798, 1525, M, 0.00
TRUCKEE 5.9 ENE, Nevada, CA03, -120.104, 39.365, 5948, M, 0.35
MARIPOSA 7.1 E, Mariposa, CA05, -119.839, 37.507, 3210, M, 0.28
TEHACHAPI 3.4 WNW, Kern, CA05, -118.499, 35.146, 3887, M, 0.01
KLAMATH 0.8 SE, Del Norte, CA01, -123.987, 41.513, 146, M, 3.31
OCCIDENTAL 1.6 NW, Sonoma, CA01, -122.956, 38.413, 801, M, 0.20
CONCORD 2.1 SE, Contra Costa, CA04, -121.971, 37.953, 267, M, 0.15
REDDING 8.8 NE, Shasta, CA02, -122.256, 40.670, 738, M, 0.06
MILL VALLEY 2.1 S, Marin, CA01, -122.541, 37.877, 240, M, 0.10
OAKDALE 2.4 NE, Stanislaus, CA05, -120.824, 37.794, 200, M, 0.14
SAN PEDRO 1.4 W, Los Angeles, CA06, -118.317, 33.739, 441, M, 0.03
HEALDSBURG 7.7 S, Sonoma, CA01, -122.886, 38.508, 79, M, 0.16
EL CERRITO 0.3 WNW, Contra Costa, CA04, -122.307, 37.923, 137, M, 0.10
CAMBRIA 0.5 WSW, San Luis Obispo, CA04, -121.087, 35.543, 214, M, 0.07
COOL 2.0 ENE, El Dorado, CA02, -120.982, 38.896, 1666, M, 1.08
SANTA CRUZ 8.9 NW, Santa Cruz, CA04, -122.151, 37.064, 1739, M, 0.23
SIERRAVILLE 1.2 SW, Sierra, CA02, -120.383, 39.578, 5112, M, 0.59
BERKELEY 0.9 SSE, Alameda, CA04, -122.289, 37.855, 45, M, 0.13
CRESTLINE 0.6 W, San Bernardino, CA07, -117.306, 34.248, 4437, M, T
ANDERSON 6.0 W, Shasta, CA02, -122.409, 40.447, 765, M, 0.02
BRENTWOOD 2.5 SSW, Contra Costa, CA05, -121.723, 37.899, 182, M, 0.06
SANTA CRUZ 10.6 NW, Santa Cruz, CA04, -122.144, 37.099, 2440, M, 0.27
LEMON GROVE 0.7 W, San Diego, CA06, -117.045, 32.735, 466, M, 0.00
Alturas Area, -, -, -, -, -, 30.9, 0.38
Mount Shasta Area, -, -, -, -, -, 37.2, 0.29
Palmdale Area, -, -, -, -, -, 47.6, T
Lancaster Area, -, -, -, -, -, 44.1, T
FALLBROOK 2.7 SSE, San Diego, CA06, -117.225, 33.331, 599, M, 0.00
SANTA CRUZ 8.8 NW, Santa Cruz, CA04, -122.136, 37.072, 1878, M, 0.25
MADERA 11.4 E, Madera, CA05, -119.873, 36.937, 354, M, 0.10
SQUAW VALLEY 9.4 NW, Fresno, CA05, -119.301, 36.802, 830, M, 0.04
CLOVIS 5.6 ESE, Fresno, CA05, -119.598, 36.796, 392, M, 0.01
SAN RAFAEL 3.7 WNW, Marin, CA01, -122.563, 38.011, 112, M, 0.04
SHELTER COVE 0.6 NNE, Humboldt, CA01, -124.067, 40.038, 394, M, 1.20
San Jose Area, -, -, -, -, -, 51.8, 0.07
MODESTO IRRIGATION DISTRICT, Stanislaus, CA05, -120.003, 37.644, 88, 52.0, 0.00
GRASS VALLEY 1.3 N, Nevada, CA02, -121.058, 39.241, 2761, M, M
HEALDSBURG 0.7 NE, Sonoma, CA01, -122.855, 38.626, 338, M, 0.11
RANCHO SANTA MARGARITA 0.8 NE, Orange, CA06, -117.594, 33.650, 1070, M, 0.02
El Cajon Area, -, -, -, -, -, 58.7, 0.05
Hanford Area, -, -, -, -, -, 46.6, 0.04
El Centro Area, -, -, -, -, -, 57.4, T
Madera Area, -, -, -, -, -, 46.7, 0.09
Merced Area, -, -, -, -, -, 46.5, 0.08
AUBERRY 1.9 WSW, Fresno, CA05, -119.525, 37.067, 2011, M, 0.14
OCCIDENTAL 0.3 NNW, Sonoma, CA01, -122.940, 38.400, 440, M, 0.20
LYONS VALLEY CALIFORNIA, Lake, CA01, -123.074, 39.126, 3200, 51.9, M
LYTLE CREEK CALIFORNIA, San Bernardino, CA06, -117.480, 34.234, 2792, 57.8, M
MAD RIVER CALIFORNIA, Trinity, CA01, -123.524, 40.463, 2775, 44.2, M
MALIBU HILLS CALIFORNIA, Los Angeles, CA06, -118.633, 34.058, 1575, 64.3, M
MANZANITA LAKE CALIFORNIA, Shasta, CA02, -121.580, 40.540, 5660, 38.6, M
MILL CREEK (BDF) CALIFORNIA, San Bernardino, CA06, -117.035, 34.084, 2950, 59.2, M
MCGUIRES CALIFORNIA, Mendocino, CA01, -123.601, 39.353, 593, 46.2, M
MEANS LAKE CALIFORNIA, San Bernardino, CA07, -116.517, 34.391, 2900, 50.6, M
MENDOCINO PASS CALIFORNIA, Mendocino, CA01, -122.945, 39.808, 5420, 45.9, M
METCALF GAP CALIFORNIA, Madera, CA05, -119.768, 37.409, 3077, 52.7, M
MID HILLS CALIFORNIA, San Bernardino, CA07, -115.411, 35.123, 5413, 47.8, M
MILL CREEK (ANF) CALIFORNIA, Los Angeles, CA06, -118.082, 34.390, 5021, 52.5, M
MILO CALIFORNIA, Tulare, CA05, -118.869, 36.231, 1923, 54.2, M
MALLORY RIDGE CALIFORNIA, Contra Costa, CA05, -121.779, 37.817, 2040, 51.6, M
MONTECITO CALIFORNIA, Santa Barbara, CA06, -119.648, 34.461, 1500, 67.3, M
MORMON ROCK CALIFORNIA, San Bernardino, CA06, -117.502, 34.318, 3300, 53.9, M
MOUNTAIN REST CALIFORNIA, Fresno, CA05, -119.371, 37.054, 4100, 53.1, M
MARKLEEVILLE CALIFORNIA, Alpine, CA03, -119.767, 38.683, 5501, 37.2, M
MT. SHASTA CALIFORNIA, Siskiyou, CA02, -122.316, 41.316, -, 37.7, M
MARIPOSA CALIFORNIA, Mariposa, CA05, -119.987, 37.504, 2231, 49.6, M
MOUNT ZION CALIFORNIA, Amador, CA05, -120.651, 38.389, 2960, 52.7, M
NORTH FORK CALIFORNIA, Madera, CA05, -119.505, 37.233, 2720, 50.8, M
OAK KNOLL CALIFORNIA, Siskiyou, CA01, -122.850, 41.839, 1940, 38.5, M
OAK MOUNTAIN CALIFORNIA, Shasta, CA02, -121.983, 41.006, 1700, 46.6, M
OAK CREEK CALIFORNIA, Inyo, CA07, -118.259, 36.843, 4855, 47.8, M
OAK GROVE CALIFORNIA, San Diego, CA06, -116.795, 33.393, 2752, 56.1, M
OAKLAND NORTH CALIFORNIA, Contra Costa, CA04, -122.221, 37.865, 1403, 51.5, M
OAK OPENING CALIFORNIA, Tulare, CA05, -118.702, 36.175, 3240, 52.1, M
OAKLAND SOUTH CALIFORNIA, Alameda, CA04, -122.145, 37.786, 1095, 51.3, M
OPAL MOUNTAIN CALIFORNIA, San Bernardino, CA07, -117.176, 35.154, 3240, 54.7, M
OWENS CAMP LOC CALIFORNIA, El Dorado, CA02, -120.245, 38.733, 5240, 44.7, M
OWENS VALLEY CALIFORNIA, Inyo, CA07, -118.551, 37.390, 4640, 46.7, M
OZENA CALIFORNIA, Ventura, CA06, -119.354, 34.682, 3670, 50.7, M
PARKFIELD CALIFORNIA, Monterey, CA04, -120.432, 35.899, 1535, 48.7, M
PINE HILLS CALIFORNIA, San Diego, CA06, -116.634, 33.016, -, 55.2, M
PIERCE CALIFORNIA, Plumas, CA02, -120.642, 40.246, 5700, 38.6, M
PINEHURST CALIFORNIA, Fresno, CA05, -119.000, 36.685, 4060, 51.5, M
PIKE COUNTY LOOKOUT CALIFORNIA, Yuba, CA02, -121.202, 39.475, 3714, 51.4, M
PILOT HILL CALIFORNIA, El Dorado, CA02, -121.009, 38.833, 1200, 48.0, M
PARK RIDGE CALIFORNIA, Tulare, CA05, -118.942, 36.724, 7540, 47.4, M
PINNACLES CALIFORNIA, San Benito, CA04, -121.147, 36.471, 1322, 54.5, M
POPPY PARK CALIFORNIA, Los Angeles, CA07, -118.383, 34.733, 2760, 49.4, M
POTRERO CALIFORNIA, San Diego, CA06, -116.609, 32.606, 2345, 55.7, M
POVERTY CALIFORNIA, Santa Clara, CA04, -121.771, 37.443, 2066, 54.5, M
PANOCHE ROAD CALIFORNIA, Fresno, CA05, -120.766, 36.727, 2032, 52.6, M
PULGAS CALIFORNIA, San Mateo, CA04, -122.298, 37.475, 644, 53.9, M
QUARTZ HILL CALIFORNIA, Siskiyou, CA01, -122.934, 41.599, 4225, 37.0, M
QUINCY RD CALIFORNIA, Plumas, CA02, -120.942, 39.973, 3500, 36.6, M
RAVENDALE CALIFORNIA, Lassen, CA03, -120.316, 40.731, 5298, 31.7, M
RANCHITA CALIFORNIA, San Diego, CA07, -116.497, 33.222, 4415, 54.3, M
READER RANCH CALIFORNIA, Nevada, CA02, -121.117, 39.304, 1968, 50.8, M
REDDING AIRPORT CALIFORNIA, Shasta, CA02, -122.291, 40.516, 500, 48.2, M
RICE VALLEY CALIFORNIA, Riverside, CA07, -114.732, 34.061, 820, 56.3, M
ROCK CREEK, Mono, CA07, -118.667, 37.551, 7040, 37.2, M
RODEO VALLEY, Mendocino, CA01, -123.321, 39.668, 2428, 47.5, M
ROSE VALLEY CALIFORNIA, Ventura, CA06, -119.184, 34.543, 3331, 46.0, M
ROUND MOUNTAIN, Siskiyou, CA02, -121.464, 41.427, 5258, 37.5, M
ROSE PEAK CALIFORNIA, Alameda, CA04, -121.735, 37.502, 3060, 53.6, M
RUSH CREEK CALIFORNIA, Modoc, CA02, -120.864, 41.294, 4800, 39.7, M
RUTH CALIFORNIA, Trinity, CA01, -123.316, 40.251, 2732, 40.7, M
SACRAMENTO NWR CALIFORNIA, Glenn, CA02, -122.182, 39.417, 120, 50.0, M
SADDLEBACK BUTTE CALIFORNIA, Los Angeles, CA07, -117.821, 34.685, 2590, 45.9, M
SAUGUS CALIFORNIA, Los Angeles, CA06, -118.525, 34.425, 1450, 61.0, M
SAWYERS BAR CALIFORNIA, Siskiyou, CA01, -123.132, 41.300, 2192, 39.9, M
SANTA BARBARA ISLAND CALIFORNI, Santa Barbara, CA06, -119.033, 33.483, 176, 62.0, M
SANTA CRUZ ISLAND CALIFORNIA, Santa Barbara, CA06, -119.722, 33.996, 250, 60.1, M
SCORPION CALIFORNIA, Trinity, CA01, -122.697, 41.112, 4400, 43.2, M
SODA CREEK CALIFORNIA, Lake, CA01, -122.977, 39.425, 1773, 38.5, M
SADDLEBACK CALIFORNIA, Sierra, CA02, -120.865, 39.638, 6670, 43.0, M
SECRET TOWN CALIFORNIA, Nevada, CA02, -120.885, 39.184, 2826, 49.3, M
SANTA FE DAM CALIFORNIA, Los Angeles, CA06, -117.946, 34.121, 500, 63.2, M
SHAVER CALIFORNIA, Fresno, CA05, -119.256, 37.135, 5746, 41.7, M
SCHOOL HOUSE CALIFORNIA, Humboldt, CA01, -123.906, 41.138, 2640, 50.6, M
SHIP MTN. CALIFORNIA, Del Norte, CA01, -123.792, 41.736, 5300, 44.9, M
SHADEQUARTER CALIFORNIA, Tulare, CA05, -118.956, 36.567, 4069, 53.0, M
SIMS CALIFORNIA, Shasta, CA02, -122.373, 41.075, 2400, 45.3, M
SLATER BUTTE CALIFORNIA, Siskiyou, CA01, -123.352, 41.859, 4670, 38.8, M
SAN MIGUEL CALIFORNIA, San Diego, CA06, -116.974, 32.685, 425, 63.8, M
SAN LUIS NWR CALIFORNIA, Merced, CA05, -120.794, 37.182, 65, 47.1, M
SANTA RITA CALIFORNIA, San Benito, CA05, -120.598, 36.348, 5000, 52.0, M
SOLDIER MOUNTAIN CALIFORNIA, Shasta, CA02, -121.586, 40.926, 3710, 39.1, M
SOMES BAR CALIFORNIA, Siskiyou, CA01, -123.496, 41.390, 920, 43.2, M
SQUAW SPRINGS CALIFORNIA, San Bernardino, CA07, -117.568, 35.370, 3620, 54.2, M
SQUAW LAKE CALIFORNIA, Imperial, CA07, -114.494, 32.908, 300, 63.5, M