Name, County, ClimateDivision, Longitude, Latitude, Elevation, MeanAvgTemperature, TotalPrecipitation
IMPERIAL, Imperial, CA07, -115.567, 32.849, -64, 76.3, 0.00
DESCANSO RANGER STN, San Diego, CA06, -116.617, 32.850, 3500, M, 0.68
EL CAPITAN DAM, San Diego, CA06, -116.815, 32.886, 600, M, 0.00
LAKESIDE 2 E, San Diego, CA06, -116.895, 32.854, 690, M, 0.00
POWAY VALLEY, San Diego, CA06, -117.031, 33.020, 648, M, 0.00
JULIAN CDF, San Diego, CA06, -116.592, 33.076, 4215, 55.5, 0.04
CARLSBAD MCCLELLAN PALOMAR AP, San Diego, CA06, -117.277, 33.130, 313, 62.4, 0.03
HENSHAW DAM, San Diego, CA06, -116.761, 33.237, 2700, 56.5, 0.00
VISTA, San Diego, CA06, -117.232, 33.235, 430, 62.1, 0.03
OCEANSIDE MARINA, San Diego, CA06, -117.395, 33.210, 10, 59.7, 0.11
NILAND, Imperial, CA07, -115.524, 33.278, -60, M, 0.00
BORREGO DESERT PARK, San Diego, CA07, -116.404, 33.256, 810, 73.8, 0.00
PALOMAR MTN OBSERVATORY, San Diego, CA06, -116.840, 33.378, 5550, 55.2, 0.00
MECCA FIRE STATION, Riverside, CA07, -116.073, 33.570, -183, 76.0, 0.00
LAGUNA BEACH, Orange, CA06, -117.781, 33.545, 44, M, 0.00
BLYTHE ASOS, Riverside, CA07, -114.715, 33.619, 395, 74.6, 0.00
DESERT RESORTS REGIONAL AP, Riverside, CA07, -116.164, 33.632, -118, 74.6, 0.00
BARSTOW-DAGGETT AIRPORT, San Bernardino, CA07, -116.787, 34.854, 1919, 66.8, T
MERCED, Merced, CA05, -120.516, 37.289, 154, 58.8, 1.13
SAN DIEGO MONTGOMERY FIELD, San Diego, CA06, -117.137, 32.815, 418, 64.1, 0.02
SAN DIEGO INTERNATIONAL AP, San Diego, CA06, -117.183, 32.734, 15, 65.3, 0.01
SAN DIEGO MIRAMAR NAS, San Diego, CA06, -117.133, 32.867, 477, 66.1, T
NORTH ISLAND NAS, San Diego, CA06, -117.210, 32.692, 14, 63.5, T
SAN FRANCISCO INTERNATIONAL AP, San Mateo, CA04, -122.366, 37.620, 10, 58.5, 2.20
SAN LUIS OBISPO MCCHESNEY FIELD, San Luis Obispo, CA04, -120.644, 35.238, 183, 61.2, 1.31
CEDARVILLE, Modoc, CA03, -120.179, 41.530, 4688, 43.6, 2.20
CHICO UNIVERSITY FARM, Butte, CA02, -121.821, 39.691, 185, 59.9, 1.09
CHULA VISTA, San Diego, CA06, -117.086, 32.640, 56, 62.6, 0.00
COLFAX, Placer, CA02, -120.947, 39.090, 2373, 53.1, 8.37
CUYAMACA, San Diego, CA06, -116.587, 32.990, 4640, 52.5, 0.09
DAVIS 2 WSW EXP FARM, Yolo, CA02, -121.776, 38.535, 60, 59.2, 2.70
DEATH VALLEY NATIONAL PARK, Inyo, CA07, -116.867, 36.463, -194, 79.5, 0.00
FAIRMONT, Los Angeles, CA07, -118.430, 34.705, 3060, 60.5, 0.07
FORT BRAGG 5 N, Mendocino, CA01, -123.756, 39.510, 123, 50.3, 5.28
HANFORD 1 S, Kings, CA05, -119.637, 36.316, 237, 62.6, 1.02
HAPPY CAMP RANGER STATION, Siskiyou, CA01, -123.375, 41.796, 1142, 50.8, 5.02
INDIO FIRE STATION, Riverside, CA07, -116.215, 33.709, -21, 77.7, 0.00
LEMON COVE, Tulare, CA05, -119.026, 36.382, 513, 61.8, 1.32
LIVERMORE, Alameda, CA04, -121.751, 37.682, 529, 58.3, 1.93
MERCED MUNICIPAL AP, Merced, CA05, -120.518, 37.286, 152, 59.0, 1.15
NAPA STATE HOSPITAL, Napa, CA01, -122.265, 38.278, 35, 59.3, 3.54
OJAI, Ventura, CA06, -119.227, 34.448, 745, 60.9, 0.37
ORLAND, Glenn, CA02, -122.200, 39.746, 254, 58.2, 1.94
ORLEANS, Humboldt, CA01, -123.532, 41.309, 403, 49.8, 1.21
PASADENA, Los Angeles, CA06, -118.145, 34.148, 864, 65.9, 0.05
PASO ROBLES, San Luis Obispo, CA04, -120.685, 35.628, 730, 58.7, 1.46
PETALUMA AIRPORT, Sonoma, CA01, -122.608, 38.258, 20, 55.9, 2.76
QUINCY, Plumas, CA02, -120.947, 39.937, 3420, 46.5, 9.74
REDLANDS, San Bernardino, CA06, -117.195, 34.037, 1410, M, 0.01
SANTA BARBARA, Santa Barbara, CA06, -119.684, 34.417, 16, 64.6, 0.35
SANTA CRUZ, Santa Cruz, CA04, -122.000, 36.988, 70, 57.7, 2.16
TAHOE CITY, Placer, CA03, -120.143, 39.168, 6230, 38.1, 4.71
WASCO, Kern, CA05, -119.352, 35.589, 291, 63.2, 0.21
WEAVERVILLE, Trinity, CA01, -122.940, 40.737, 2058, 51.7, 4.84
WILLOWS 6 W, Glenn, CA02, -122.305, 39.523, 234, 59.5, 1.85
YOSEMITE PARK HEADQUARTERS, Mariposa, CA05, -119.590, 37.750, 4018, 50.1, 6.31
YREKA, Siskiyou, CA01, -122.641, 41.703, 2709, 48.5, 0.99
BERKELEY, Alameda, CA04, -122.260, 37.874, 310, 57.9, 4.13
BLYTHE, Riverside, CA07, -114.597, 33.613, 268, M, 0.00
EUREKA WFO WOODLEY ISLAND, Humboldt, CA01, -124.160, 40.810, 20, 52.0, 5.46
INDEPENDENCE, Inyo, CA07, -118.204, 36.798, 3950, 61.5, 0.63
SAN LUIS OBISPO POLY, San Luis Obispo, CA04, -120.662, 35.306, 308, 61.3, 2.29
IMPERIAL BEACH REAM FIELD NAS, San Diego, CA06, -117.117, 32.568, 24, 60.7, T
CAMPO, San Diego, CA06, -116.470, 32.626, 2630, 56.9, 0.00
EL CENTRO 2 SSW, Imperial, CA07, -115.562, 32.767, -30, 74.3, 0.00
IMPERIAL COUNTY AP, Imperial, CA07, -115.577, 32.835, -55, 74.6, 0.00
EL CENTRO NAF, Imperial, CA07, -115.664, 32.832, -46, 75.7, T
ALPINE, San Diego, CA06, -116.777, 32.836, 1695, 62.8, 0.00
SAN GABRIEL DAM FC425B-E, Los Angeles, CA06, -117.861, 34.205, 1481, M, 0.06
MT WILSON CBS, Los Angeles, CA06, -118.071, 34.231, 5710, 54.4, 0.00
VAN NUYS AP, Los Angeles, CA06, -118.491, 34.212, 785, 67.1, 0.11
CAMARILLO AP, Ventura, CA06, -119.088, 34.211, 71, 62.0, 0.13
OXNARD VENTURA COUNTY AP, Ventura, CA06, -119.204, 34.200, 39, 60.8, 0.17
PARKER RESRVOIR, San Bernardino, CA07, -114.171, 34.290, 738, 71.3, 0.00
TWENTYNINE PALMS MC, San Bernardino, CA07, -116.147, 34.294, 2003, M, 0.00
BIG BEAR LAKE, San Bernardino, CA06, -116.917, 34.243, 6753, 47.3, 0.14
BIG TUJUNGA DAM FC46, Los Angeles, CA06, -118.188, 34.295, 2326, M, 0.24
PACOIMA DAM FC33A-E, Los Angeles, CA06, -118.400, 34.329, 1550, M, 0.17
PIRU 2 ESE, Ventura, CA06, -118.757, 34.406, 712, M, 0.00
SANTA BARBARA MUNI AP, Santa Barbara, CA06, -119.842, 34.424, 8, 60.9, 0.41
JUNCAL DAM, Santa Barbara, CA06, -119.507, 34.491, 2260, M, 0.35
CULVER CITY, Los Angeles, CA06, -118.414, 34.005, 92, 64.3, 0.00
SANTA MONICA MUNICIPAL AP, Los Angeles, CA06, -118.447, 34.021, 175, 63.2, 0.22
SANTA MONICA PIER, Los Angeles, CA06, -118.500, 34.008, 14, M, 0.00
ONTARIO INTL AP, San Bernardino, CA06, -117.577, 34.053, 924, 66.3, 0.04
POMONA/FAIRPLEX, Los Angeles, CA06, -117.766, 34.082, 999, 66.4, 0.07
COVINA CITY YARD FC387B, Los Angeles, CA06, -117.880, 34.092, 607, M, 0.05
U C L A, Los Angeles, CA06, -118.443, 34.070, 430, 64.8, 0.20
IRON MOUNTAIN, San Bernardino, CA07, -115.122, 34.147, 922, 72.5, 0.00
TWENTYNINE PALMS, San Bernardino, CA07, -116.037, 34.128, 1975, 70.0, 0.00
JOSHUA TREE, San Bernardino, CA07, -116.275, 34.147, 2563, 63.2, 0.00
SAN GABRIEL FIRE DEPT, Los Angeles, CA06, -118.100, 34.084, 363, M, 0.02
POINT MUGU NF, Ventura, CA06, -119.123, 34.124, 12, 59.2, 0.15
ALTADENA, Los Angeles, CA06, -118.138, 34.182, 1127, M, 0.11
SAN GABRIEL CANYON PH, Los Angeles, CA06, -117.908, 34.155, 744, M, 0.04
WOODLAND HILLS PIERCE COLLEGE, Los Angeles, CA06, -118.574, 34.182, 790, 66.1, 0.14
DEEP CANYON LAB, Riverside, CA07, -116.376, 33.651, 1200, M, 0.00
ELSINORE, Riverside, CA06, -117.346, 33.686, 1268, 64.9, 0.02
SANTA ANA JOHN WAYNE AP, Orange, CA06, -117.867, 33.680, 43, 65.5, 0.04
HAYFIELD PUMPING PLANT, Riverside, CA07, -115.629, 33.704, 1370, 70.2, 0.00
IDYLLWILD FIRE DEPT, Riverside, CA06, -116.707, 33.757, 5380, 52.4, 0.00
SAN JACINTO, Riverside, CA06, -116.975, 33.797, 1525, 64.9, 0.00
HEMET, Riverside, CA06, -116.894, 33.738, 1811, 64.2, 0.00
SANTA ANA FIRE STATION, Orange, CA06, -117.867, 33.744, 135, 67.4, 0.08
EAGLE MOUNTAIN, Riverside, CA07, -115.451, 33.809, 973, 73.3, 0.00
PALM SPRINGS, Riverside, CA07, -116.510, 33.828, 425, M, 0.00
LONG BEACH DAUGHERTY AP, Los Angeles, CA06, -118.147, 33.812, 34, 66.0, 0.18
PALOS VERDES ES FC43D, Los Angeles, CA06, -118.391, 33.800, 220, M, 0.34
FULLERTON MUNICIPAL AP, Orange, CA06, -117.986, 33.872, 86, 67.6, 0.03
BEAUMONT #2, Riverside, CA07, -116.990, 33.926, 2591, M, 0.00
MARCH AFB, Riverside, CA06, -117.250, 33.900, 1536, 61.4, T
HAWTHORNE MUNICIPAL AP, Los Angeles, CA06, -118.333, 33.924, 55, 65.1, 0.30
LOS ANGELES INTL AP, Los Angeles, CA06, -118.387, 33.938, 97, 63.6, 0.38
RIVERSIDE FIRE STATION 3, Riverside, CA06, -117.388, 33.951, 840, M, 0.08
RIVERSIDE MUNICIPAL AP, Riverside, CA06, -117.435, 33.953, 845, 66.4, 0.10
CHINO AP, San Bernardino, CA06, -117.625, 33.976, 636, 65.0, 0.12
VICTORVILLE, San Bernardino, CA07, -117.293, 34.529, 2880, 60.0, 0.00
GIBRALTAR DAM NO. 2, Santa Barbara, CA06, -119.682, 34.523, 1558, 60.0, 0.22
AMBOY, San Bernardino, CA07, -115.744, 34.559, 648, 74.4, 0.00
PALMDALE, Los Angeles, CA07, -118.094, 34.588, 2612, 62.5, 0.10
SAUGUS POWER PLANT 1, Los Angeles, CA06, -118.454, 34.590, 2161, M, 0.21
LOS PRIETOS RS, Santa Barbara, CA06, -119.791, 34.544, 1024, M, 0.27
CACHUMA LAKE, Santa Barbara, CA06, -119.982, 34.582, 789, 61.4, 0.20
SALSIPUEDES GAGING STATION, Santa Barbara, CA06, -120.408, 34.585, 254, M, 0.46
PALMDALE AP, Los Angeles, CA07, -118.083, 34.629, 2509, 61.3, T
LOMPOC, Santa Barbara, CA06, -120.451, 34.654, 75, 60.4, 0.36
LOMPOC AP, Santa Barbara, CA06, -120.467, 34.667, 88, 57.9, 0.32
LANCASTER, Los Angeles, CA06, -118.213, 34.741, 2338, 60.6, T
SANDBERG, Los Angeles, CA06, -118.724, 34.744, 4510, 55.9, 0.16
LEBEC, Kern, CA05, -118.865, 34.833, 3575, 52.9, 0.08
NEW CUYAMA FIRE STATION, Santa Barbara, CA06, -119.683, 34.946, 2160, 56.7, 0.18
TWITCHELL DAM, Santa Barbara, CA06, -120.321, 34.988, 582, 59.8, 1.49
BORON, Kern, CA07, -117.650, 35.004, 2450, M, 0.00
PISMO BEACH, San Luis Obispo, CA04, -120.683, 35.160, 39, 59.9, 0.88
TAFT, Kern, CA05, -119.430, 35.150, 773, M, 0.40
SALINAS DAM, San Luis Obispo, CA04, -120.504, 35.337, 1392, M, 1.81
RANDSBURG, Kern, CA07, -117.652, 35.369, 3570, 61.5, 0.00
SANTA MARGARITA BOOST, San Luis Obispo, CA04, -120.637, 35.374, 1148, M, 2.79
MORRO BAY FIRE DEPT, San Luis Obispo, CA04, -120.845, 35.367, 118, M, 1.47
BAKERSFIELD AP, Kern, CA05, -119.055, 35.434, 490, 64.8, 0.35
BUTTONWILLOW, Kern, CA05, -119.470, 35.403, 225, 62.2, 0.03
GLENNVILLE, Kern, CA05, -118.701, 35.727, 3140, 51.6, 0.95
TRONA, San Bernardino, CA07, -117.391, 35.764, 1695, 67.2, 0.00
DELANO, Kern, CA05, -119.260, 35.768, 302, 61.0, 0.47
BRADLEY TELEMETERING, Monterey, CA04, -120.868, 35.930, 443, M, 0.72
KETTLEMAN CITY, Kings, CA05, -119.960, 36.007, 240, 60.6, 0.55
HAIWEE, Inyo, CA07, -117.953, 36.139, 3825, 54.9, 0.02
CORCORAN IRRIGATION DIST., Kings, CA05, -119.582, 36.098, 200, 63.4, 0.73
COALINGA, Fresno, CA05, -120.361, 36.136, 670, 62.0, 0.45
KING CITY, Monterey, CA04, -121.138, 36.207, 320, 60.0, 0.60
LINDSAY, Tulare, CA05, -119.054, 36.203, 435, 61.6, 1.35
WESTHAVEN, Fresno, CA05, -119.997, 36.227, 285, M, 0.95
BIG SUR STATION, Monterey, CA04, -121.780, 36.247, 200, 56.4, 5.33
VISALIA, Tulare, CA05, -119.300, 36.328, 303, 61.0, 1.39
FIVE POINTS 5 SSW, Fresno, CA05, -120.156, 36.364, 285, 62.3, 0.41
SAN CLEMENTE DAM, Monterey, CA04, -121.709, 36.438, 600, M, 1.91
ASH MOUNTAIN, Tulare, CA05, -118.825, 36.491, 1708, 58.1, 2.57
THREE RIVERS EDISON PH 1, Tulare, CA05, -118.862, 36.465, 1140, 61.1, 2.14
PINNACLES NATIONAL PARK, San Benito, CA04, -121.182, 36.482, 1307, 56.4, 0.93
CARMEL VALLEY, Monterey, CA04, -121.724, 36.481, 480, 57.1, 1.41
LODGEPOLE, Tulare, CA05, -118.732, 36.604, 6735, 38.6, 5.01
PANOCHE 2 W, San Benito, CA05, -120.884, 36.607, 1400, M, 0.52
SALINAS NO. 2, Monterey, CA04, -121.666, 36.659, 45, 57.8, 1.46
SALINAS AP, Monterey, CA04, -121.609, 36.664, 73, 58.7, 0.84
GRANT GROVE, Tulare, CA05, -118.962, 36.738, 6580, 42.9, 6.17
LOS BANOS ARBURUA RANCH, Merced, CA05, -120.939, 36.875, 843, M, 0.70
HOLLISTER 2, San Benito, CA04, -121.421, 36.848, 275, 57.5, 2.79
BALCH POWER HOUSE, Fresno, CA05, -119.088, 36.909, 1735, 56.1, 5.06
WATSONVILLE WATERWORKS, Santa Cruz, CA04, -121.769, 36.931, 95, 57.3, 3.00
FRIANT GOVERNMENT CAMP, Fresno, CA05, -119.707, 36.997, 410, 58.4, 0.90
MADERA, Madera, CA05, -120.038, 36.954, 270, 60.3, 0.46
WISHON DAM, Fresno, CA05, -118.984, 37.007, 6550, M, 4.62
GILROY, Santa Clara, CA04, -121.561, 37.003, 194, 56.7, 1.39
AUBERRY 2 NW, Fresno, CA05, -119.513, 37.092, 2090, 56.7, 4.30
LOS BANOS, Merced, CA05, -120.867, 37.056, 120, 60.8, 0.84
BEN LOMOND NO. 4, Santa Cruz, CA04, -122.080, 37.086, 420, 59.1, 5.79
MORGAN HILL, Santa Clara, CA04, -121.602, 37.136, 375, M, M
ASPENDELL, Inyo, CA01, -118.599, 37.232, 8470, 39.0, 4.51
HUNTINGTON LAKE, Fresno, CA05, -119.221, 37.228, 7020, M, 5.84
NORTH FORK RS, Madera, CA05, -119.510, 37.233, 2645, 52.6, 5.01
RAYMOND, Madera, CA05, -119.909, 37.210, 919, M, 1.66
LOS GATOS, Santa Clara, CA04, -121.959, 37.232, 365, 56.2, 2.09
NEWMAN, Stanislaus, CA05, -121.018, 37.281, 90, 62.5, 0.76
MOUNT HAMILTON, Santa Clara, CA04, -121.635, 37.343, 4220, 47.0, 3.34
BISHOP AIRPORT, Inyo, CA07, -118.359, 37.371, 4110, 55.6, 0.92
MOFFETT FEDERAL AIRFIELD, Santa Clara, CA04, -122.048, 37.406, 39, 59.4, 1.33
TURLOCK #2, Stanislaus, CA05, -120.846, 37.502, 103, 62.2, 1.30
PALO ALTO, Santa Clara, CA04, -122.140, 37.444, 25, 57.3, 1.27
REDWOOD CITY, San Mateo, CA04, -122.239, 37.477, 31, 58.6, 2.18
HALF MOON BAY, San Mateo, CA04, -122.443, 37.473, 27, 54.3, 3.27
SO ENTRANCE YOSEMITE N.P., Mariposa, CA05, -119.633, 37.512, 5047, 44.1, 4.67
MARIPOSA R S, Mariposa, CA05, -119.986, 37.495, 2100, M, 3.16
NEWARK, Alameda, CA04, -122.032, 37.515, 10, 59.7, 1.11
EXCHEQUER DAM, Mariposa, CA05, -120.267, 37.585, 442, M, 2.36
MODESTO AP, Stanislaus, CA05, -120.955, 37.625, 87, 62.2, 1.48
HAYWARD AIR TERMINAL, Alameda, CA04, -122.121, 37.659, 31, 59.7, 1.83
TRACY CARBONA, San Joaquin, CA05, -121.347, 37.682, 135, 57.6, 1.14
LIVERMORE MUNICIPAL AP, Alameda, CA04, -121.815, 37.693, 393, 57.5, 2.02
OAKLAND INTERNATIONAL AIRPORT, Alameda, CA04, -122.233, 37.718, 5, 59.7, 2.46
UPPER SAN LEANDRO FILTERS, Alameda, CA04, -122.167, 37.772, 394, M, 3.33
SAN FRANCISCO DOWNTOWN, San Francisco, CA04, -122.427, 37.771, 150, 57.7, 2.25
SAN FRANCISCO OCEANSIDE, San Francisco, CA04, -122.505, 37.728, 8, 54.8, 2.31
GROVELAND 2, Tuolumne, CA05, -120.226, 37.844, 2800, 51.3, 5.09
TRACY PUMPING PLANT, Alameda, CA05, -121.583, 37.796, 61, 61.6, 1.80
OAKLAND MUSEUM, Alameda, CA04, -122.264, 37.798, 30, M, 0.00
TUOLUMNE MEADOWS R.S., Tuolumne, CA05, -119.344, 37.877, 8694, 31.2, 5.71
MOUNT DIABLO JUNCTION, Contra Costa, CA04, -121.930, 37.879, 2170, 53.7, 2.97
STOCKTON AP, San Joaquin, CA05, -121.226, 37.890, 27, 59.9, 1.86
RICHMOND, Contra Costa, CA04, -122.377, 37.919, 20, 59.3, 3.80
MUIR WOODS, Marin, CA01, -122.569, 37.898, 220, 59.0, 4.36
HETCH HETCHY, Tuolumne, CA05, -119.783, 37.961, 3870, 50.6, 5.62
CHERRY VALLEY DAM, Tuolumne, CA05, -119.916, 37.975, 4765, 49.0, 8.34
SONORA, Tuolumne, CA05, -120.387, 37.967, 1675, 53.2, 6.71
STOCKTON FIRE STA 4, San Joaquin, CA05, -121.318, 37.999, 12, M, 1.90
ANTIOCH PUMPING PLANT #3, Contra Costa, CA05, -121.752, 37.983, 60, 60.7, 0.00
CONCORD BUCHANAN FIELD, Contra Costa, CA04, -122.053, 37.992, 23, 60.1, 2.53
CONCORD WASTEWATER PLANT, Contra Costa, CA04, -122.069, 37.983, 40, 60.2, 2.91
SAN RAFAEL-CIVIC CENTER, Marin, CA01, -122.537, 37.998, 120, 57.8, 5.16
KENTFIELD, Marin, CA01, -122.545, 37.957, 145, 57.7, 5.72
MARTINEZ WATER PLANT, Contra Costa, CA04, -122.114, 38.013, 40, 56.6, 2.82
SAN ANDREAS 2, Calaveras, CA05, -120.671, 38.191, 1100, 57.2, 3.06
NAPA COUNTY AIRPORT, Napa, CA04, -122.280, 38.208, 16, 57.7, 3.11
BRIDGEPORT, Mono, CA03, -119.229, 38.258, 6470, 42.0, 2.06
CALAVERAS BIG TREES, Calaveras, CA05, -120.311, 38.277, 4695, 44.2, 9.96
CAMP PARDEE, Calaveras, CA05, -120.843, 38.249, 658, M, 3.91
TRAVIS FIELD AFB, Solano, CA02, -121.933, 38.267, 62, 58.4, 2.70
FAIRFIELD, Solano, CA02, -122.068, 38.274, 40, 59.7, 3.40
SONOMA, Sonoma, CA01, -122.462, 38.299, 97, 56.7, 2.10
SUTTER HILL CDF, Amador, CA05, -120.801, 38.377, 1586, 54.9, 4.09
WEST POINT, Calaveras, CA05, -120.545, 38.378, 2775, M, 4.65
ATLAS ROAD BROWN, Napa, CA01, -122.248, 38.427, 1680, M, 4.23
GRATON, Sonoma, CA01, -122.865, 38.431, 200, 57.1, 6.39
OCCIDENTAL, Sonoma, CA01, -122.966, 38.386, 865, 54.9, 5.10
FIDDLETOWN DEXTER RCH, Amador, CA05, -120.698, 38.525, 2170, M, 6.05
SACRAMENTO AP ASOS, Sacramento, CA02, -121.496, 38.507, 19, 58.8, 2.93
WINTERS, Yolo, CA02, -121.978, 38.525, 135, 60.3, 2.87
LAKE SOLANO, Solano, CA02, -122.004, 38.492, 187, 60.3, 2.72
SAINT HELENA, Napa, CA01, -122.471, 38.507, 225, 58.8, 1.62
SAINT HELENA 4 WSW, Napa, CA01, -122.538, 38.493, 1780, M, 5.94
FORT ROSS, Sonoma, CA01, -123.245, 38.515, 112, 52.2, 4.98
SACRAMENTO 5 ESE, Sacramento, CA02, -121.418, 38.555, 38, 61.0, 3.36
ANGWIN PACIFIC UNION COLLEGE, Napa, CA01, -122.440, 38.573, 1715, 54.3, 4.31
CALISTOGA, Napa, CA01, -122.578, 38.577, 350, 55.9, 4.20
VENADO, Sonoma, CA01, -123.018, 38.609, 1260, M, 10.37
WOODLAND 1 WNW, Yolo, CA02, -121.794, 38.683, 67, 61.7, 2.94
PLACERVILLE, El Dorado, CA02, -120.824, 38.696, 1850, M, 5.38
SACRAMENTO METROPOLITAN AP, Sacramento, CA02, -121.595, 38.701, 24, 58.7, 3.11
PACIFIC HOUSE, El Dorado, CA02, -120.503, 38.758, 3450, 48.4, 8.17
MIDDLETOWN, Lake, CA02, -122.626, 38.748, 1121, M, 7.51
CLOVERDALE, Sonoma, CA01, -123.026, 38.793, 400, 58.5, 5.17
KELSEY 1 N, El Dorado, CA02, -120.821, 38.809, 2000, M, 5.44
SOUTH LAKE TAHOE AP, El Dorado, CA03, -119.996, 38.898, 6257, 40.1, 3.85
GEORGETOWN RS, El Dorado, CA02, -120.801, 38.933, 3001, 50.6, 8.62
AUBURN, Placer, CA02, -121.084, 38.907, 1292, 55.0, 4.09
NICOLAUS #2, Sutter, CA02, -121.545, 38.926, 43, M, 2.93
YORKVILLE, Mendocino, CA01, -123.231, 38.905, 1100, M, 6.14
CLEARLAKE 4 SE, Lake, CA02, -122.567, 38.924, 1349, 54.0, 3.32
FORESTHILL RANGER STATION, Placer, CA02, -120.845, 39.010, 3015, M, 8.78
HELL HOLE, Placer, CA02, -120.415, 39.058, 4850, M, 4.66
MARYSVILLE AIRPORT (ASOS), Yuba, CA02, -121.569, 39.102, 62, 59.0, 2.71
UKIAH MUNICIPAL AP, Mendocino, CA01, -123.200, 39.128, 603, 55.4, 3.74
UKIAH 4 WSW, Mendocino, CA01, -123.272, 39.127, 1328, M, 5.02
GOLD RUN 4 SW, Placer, CA02, -120.900, 39.150, 3220, M, 9.65
WILLIAMS, Colusa, CA02, -122.150, 39.150, 85, M, 5.96
GRASS VALLEY NO. 2, Nevada, CA02, -121.068, 39.204, 2400, 50.3, 8.86
HARRY L. ENGLEBRIGHT DAM, Nevada, CA02, -121.267, 39.237, 800, M, 5.46
COLUSA 2 SSW, Colusa, CA02, -122.027, 39.188, 50, 60.0, 1.56
BLUE CANYON NYACK AP, Placer, CA02, -120.709, 39.276, 5286, 43.5, 11.97
NEVADA CITY, Nevada, CA02, -121.001, 39.247, 2781, 49.6, 11.40
TRUCKEE AIRPORT, Nevada, CA03, -120.139, 39.320, 5900, 37.6, 4.12
TRUCKEE RS, Nevada, CA03, -120.173, 39.333, 5823, M, 0.40
COLGATE POWERHOUSE, Yuba, CA02, -121.192, 39.331, 595, M, 6.34
MOULTON WEIR, Colusa, CA02, -122.017, 39.333, 76, M, 1.75
BOCA, Nevada, CA03, -120.094, 39.389, 5575, 40.0, 3.73
POTTER VALLEY POWERHOUSE, Mendocino, CA01, -123.129, 39.362, 1018, 54.5, 4.77
FARAD, Nevada, CA03, -120.033, 39.428, 5153, M, 3.71
BOWMAN DAM, Nevada, CA02, -120.656, 39.454, 5385, 44.5, 15.26
OROVILLE, Butte, CA02, -121.553, 39.518, 171, 59.1, 4.01
OROVILLE MUNICIPAL AP, Butte, CA02, -121.622, 39.494, 187, 59.6, 3.05
SIERRAVILLE RS, Sierra, CA02, -120.370, 39.583, 4975, 43.5, 5.83
DOWNIEVILLE, Sierra, CA02, -120.824, 39.563, 2915, 49.1, 14.80
STRAWBERRY VALLEY, Yuba, CA02, -121.108, 39.563, 3808, 46.4, 13.70
STONY GORGE RESERVOIR, Glenn, CA02, -122.534, 39.586, 800, 54.0, 1.83
BRUSH CREEK RANGER STATION, Butte, CA02, -121.345, 39.695, 3560, M, 11.70
PARADISE, Butte, CA02, -121.624, 39.754, 1750, 54.1, 7.89
VINTON, Plumas, CA02, -120.186, 39.806, 4950, 49.5, 3.69
PORTOLA, Plumas, CA02, -120.472, 39.805, 4850, 42.3, 5.76
DE SABLA, Butte, CA02, -121.611, 39.872, 2710, 51.5, 9.43
BUCKS CREEK, Plumas, CA02, -121.315, 39.937, 1891, M, 12.48
DOYLE, Lassen, CA03, -120.105, 40.027, 4293, M, 1.73
CANYON DAM, Plumas, CA02, -121.089, 40.171, 4560, 44.4, 6.70
MIRANDA 4 SE, Humboldt, CA01, -123.776, 40.182, 266, M, 8.52
FORT SEWARD, Humboldt, CA01, -123.632, 40.218, 220, M, 7.34
HONEYDEW 1 SW, Humboldt, CA01, -124.132, 40.238, 373, M, 11.99
CHESTER, Plumas, CA02, -121.242, 40.303, 4530, 42.1, 5.37
MINERAL, Tehama, CA02, -121.609, 40.346, 4875, 36.0, 10.19
COLEMAN FISHERIES STATION, Shasta, CA02, -122.143, 40.400, 420, M, 4.26
VOLTA PH, Shasta, CA02, -121.866, 40.458, 2220, M, 5.26
SCOTIA, Humboldt, CA01, -124.104, 40.483, 136, 54.1, 6.84
MANZANITA LAKE, Shasta, CA02, -121.577, 40.541, 5750, 39.3, 7.88
WHISKEYTOWN RESERVOIR, Shasta, CA02, -122.528, 40.612, 1295, 54.9, 9.60
SHASTA DAM, Shasta, CA02, -122.416, 40.714, 1075, 57.5, 10.29
TRINITY RIVER HATCHERY, Trinity, CA01, -122.795, 40.726, 1861, 50.4, 3.94
BIG BAR 4 E, Trinity, CA01, -123.208, 40.741, 1253, 52.8, 6.14
BUCKHORN, Shasta, CA02, -121.932, 40.880, 3700, M, 13.24
HAT CREEK, Shasta, CA02, -121.543, 40.932, 3015, 47.1, 2.91
PIT RIVER PH 5, Shasta, CA02, -121.977, 40.987, 1458, M, 5.71
WILLOW CREEK 1 NW, Humboldt, CA01, -123.636, 40.947, 464, 54.3, 6.02
FALL RIVER MILLS, Shasta, CA02, -121.435, 41.008, 3300, M, 2.72
ADIN RANGER STATION, Modoc, CA02, -120.945, 41.193, 4202, M, 1.94
DUNSMUIR TREATMENT PL, Siskiyou, CA02, -122.282, 41.183, 2169, 48.4, 11.85
JESS VALLEY, Modoc, CA02, -120.295, 41.268, 5400, 40.1, 2.50
MCCLOUD, Siskiyou, CA02, -122.138, 41.252, 3233, 44.7, 11.27
ORICK, Humboldt, CA01, -124.067, 41.283, 5, M, 4.66
CALLAHAN, Siskiyou, CA01, -122.825, 41.338, 3085, 48.1, 2.53
SAWYERS BAR RS, Siskiyou, CA01, -123.133, 41.301, 2255, 64.0, 5.05
ORLEANS RS, Humboldt, CA01, -123.534, 41.303, 433, M, 6.33
ALTURAS, Modoc, CA02, -120.544, 41.490, 4378, 43.2, 0.80
FORT JONES RS, Siskiyou, CA01, -122.848, 41.601, 2729, 45.8, 1.86
LAVA BEDS NAT MON, Siskiyou, CA01, -121.501, 41.702, 4770, 42.9, 2.88
MOUNT HEBRON RS, Siskiyou, CA01, -122.045, 41.783, 4265, M, 0.95
CRESCENT CITY MCNAMARA AP, Del Norte, CA01, -124.238, 41.784, 56, 50.6, 8.76
OAK KNOLL W. C., Siskiyou, CA01, -122.850, 41.839, 1980, M, 1.72
FORT BIDWELL, Modoc, CA03, -120.157, 41.872, 4739, 43.8, 3.06
GASQUET RS, Del Norte, CA01, -123.965, 41.845, 387, M, 14.60
FORT DICK RIVER, Del Norte, CA01, -124.135, 41.881, -, M, 11.48
TULELAKE, Siskiyou, CA01, -121.474, 41.960, 4038, 42.8, 1.44
COPCO NO 1 DAM, Siskiyou, CA01, -122.338, 41.980, 2665, 47.4, 2.42
ELK VALLEY, Del Norte, CA01, -123.718, 41.988, 1708, M, 11.47
BARSTOW, San Bernardino, CA07, -117.022, 34.893, 2220, 64.0, 0.00
PEARBLOSSOM, Los Angeles, CA07, -117.897, 34.503, 3101, 61.5, 0.00
EL CAJON, San Diego, CA06, -116.928, 32.801, 495, 65.8, 0.00
MARKLEY COVE, Napa, CA02, -122.124, 38.492, 480, 56.8, 2.75
LORAINE 5 NNE, Kern, CA05, -118.412, 35.384, 4235, 51.4, 0.41
LEMON GROVE FIRE DEPARTMENT, San Diego, CA06, -117.030, 32.738, 427, M, 0.01
LEE VINING, Mono, CA07, -119.119, 37.957, 6797, 45.8, 1.88
ANAHEIM, Orange, CA06, -117.842, 33.865, 235, 68.2, 0.04
NEW MELONES DAM HQ, Tuolumne, CA05, -120.486, 38.005, 960, 57.0, 5.09
MAMMOTH LAKES RS, Mono, CA07, -118.962, 37.648, 7804, M, 0.00
FRAZIER PARK 9 SW, Ventura, CA05, -119.104, 34.733, 5169, M, 0.20
MONTEREY WFO, Monterey, CA04, -121.855, 36.593, 122, 56.1, 1.24
SKYLINE RIDGE PRESERVE, San Mateo, CA04, -122.185, 37.313, 2270, 52.7, 3.69
FREMONT, Alameda, CA04, -122.016, 37.542, 38, 59.0, 1.73
MAD RIVER 12 SE, Trinity, CA01, -123.374, 40.319, 2763, M, 9.89
TEHACHAPI 4 SE, Kern, CA05, -118.422, 35.101, 4220, 49.9, 0.32
REDDING CDF, Shasta, CA02, -122.299, 40.519, 502, M, 3.88
VALLEJO, Solano, CA01, -122.187, 38.100, 341, 60.2, 2.53
NORTHRIDGE CAL STATE, Los Angeles, CA06, -118.525, 34.245, 904, M, 0.14
OXNARD WFO, Ventura, CA06, -119.137, 34.207, 52, 61.4, 0.24
HANFORD MUNICIPAL AP, Kings, CA05, -119.623, 36.311, 249, 61.4, 1.03
RAMONA AIRPORT, San Diego, CA06, -116.916, 33.038, 1385, 60.2, T
VACAVILLE/NUT TREE AP ASOS, Solano, CA02, -121.959, 38.378, 104, 59.6, 3.36
ALTURAS MUNICIPAL AP, Modoc, CA02, -120.561, 41.484, 4383, 44.1, 1.51
MADERA MUNICIPAL AP, Madera, CA05, -120.111, 36.985, 251, 60.9, 0.47
BAKERSFIELD 5 NW, Kern, CA05, -119.051, 35.419, 470, 62.7, 0.35
FRESNO 5 NE, Fresno, CA05, -119.709, 36.767, 338, 62.5, 4.04
OCEANSIDE MUNICIPAL AP, San Diego, CA06, -117.350, 33.219, 30, 61.3, 0.02
SAN DIEGO SEAWORLD, San Diego, CA06, -117.231, 32.765, 14, M, 0.00
ARCATA EUREKA AP, Humboldt, CA01, -124.105, 40.978, 211, 50.9, 5.32
NEWPORT BEACH HARBOR, Orange, CA06, -117.884, 33.603, 10, 62.4, 0.02
ESCONDIDO NO. 2, San Diego, CA06, -117.090, 33.121, 600, 66.4, 0.00
REDDING AP, Shasta, CA02, -122.298, 40.515, 501, 57.7, 3.89
AVALON CATALINA AP, Los Angeles, CA06, -118.415, 33.404, 1565, 62.7, 0.02
SANTA MARIA PUBLIC AP, Santa Barbara, CA06, -120.452, 34.894, 243, 58.1, 1.18
MOUNT SHASTA, Siskiyou, CA02, -122.333, 41.333, 3535, 46.4, 8.48
RED BLUFF MUNI AP, Tehama, CA02, -122.255, 40.152, 354, 58.5, 2.27
NEEDLES AIRPORT, San Bernardino, CA07, -114.618, 34.768, 888, 76.2, 0.00
CHINA LAKE NAF, Kern, CA07, -117.693, 35.688, 2230, 65.0, T
SUSANVILLE 2SW, Lassen, CA03, -120.663, 40.417, 4212, 46.5, 2.51
TEJON RANCHO, Kern, CA05, -118.750, 35.023, 1425, 63.5, 0.21
BURBANK GLENDALE PASADENA AP, Los Angeles, CA06, -118.365, 34.200, 731, 66.2, 0.09
SUTTER CREEK 0.1 WSW, Amador, CA05, -120.805, 38.390, 1266, M, 4.86
CHICO 2.9 W, Butte, CA02, -121.861, 39.749, 190, M, 3.69
CHICO 1.8 SW, Butte, CA02, -121.832, 39.737, 209, M, 3.75
MAGALIA 2.3 SE, Butte, CA02, -121.582, 39.804, 2327, M, 9.64
CHICO 5.5 NW, Butte, CA02, -121.891, 39.800, 191, M, 3.84
MORAGA 2.4 NNW, Contra Costa, CA04, -122.138, 37.870, 748, M, 2.28
SMITH RIVER 1.1 SSE, Del Norte, CA01, -124.136, 41.915, 120, M, 13.36
FORT DICK 0.2 SSW, Del Norte, CA01, -124.151, 41.865, 49, M, 13.20
CAMINO 2.6 ESE, El Dorado, CA02, -120.634, 38.719, 3108, M, 6.46
TOLLHOUSE 2.8 SSE, Fresno, CA05, -119.396, 36.978, 2111, M, 4.11
CLOVIS 1.3 NE, Fresno, CA05, -119.681, 36.833, 375, M, 1.50
FRESNO 2.4 NW, Fresno, CA05, -119.822, 36.805, 319, M, 0.90
SUSANVILLE 3.5 SSW, Lassen, CA03, -120.674, 40.363, 4347, M, 4.33
SUSANVILLE 0.6 WSW, Lassen, CA03, -120.660, 40.407, 4220, M, 2.83
AHWAHNEE 2.5 NNW, Madera, CA05, -119.738, 37.400, 2840, M, 4.29
WESTPORT 1.6 NNE, Mendocino, CA01, -123.770, 39.657, 722, M, 5.08
ALBION 4.0 SE, Mendocino, CA01, -123.710, 39.188, 636, M, 5.43
LAYTONVILLE 9.8 NNW, Mendocino, CA01, -123.534, 39.814, 2078, M, 8.30
LUCAS VALLEY 0.7 SSW, Marin, CA01, -122.571, 38.027, 185, M, 4.66
FAIRFAX 0.6 SSE, Marin, CA01, -122.591, 37.981, 146, M, 4.91
MONTEREY 1.5 WSW, Monterey, CA04, -121.905, 36.590, 235, M, 1.74
ALTA SIERRA 2.3 WSW, Nevada, CA02, -121.089, 39.106, 1677, M, 7.59
GRASS VALLEY 4.2 SE, Nevada, CA02, -120.993, 39.186, 2784, M, 8.86
GRASS VALLEY 1.3 NNE, Nevada, CA02, -121.046, 39.238, 2782, M, 8.79
GRASS VALLEY 2.7 SW, Nevada, CA02, -121.092, 39.194, 2334, M, 8.36
ORANGE 3.0 ENE, Orange, CA06, -117.778, 33.826, 649, M, 0.05
ROCKLIN 1.1 N, Placer, CA02, -121.244, 38.818, 550, M, 5.03
ROSEVILLE 2.4 SE, Placer, CA02, -121.257, 38.740, 156, M, 4.62
APPLEGATE 0.5 SE, Placer, CA02, -120.986, 38.996, 1983, M, 8.14
MURRIETA 4.3 ENE, Riverside, CA06, -117.140, 33.584, 1312, M, T
FAIR OAKS 1.9 N, Sacramento, CA02, -121.252, 38.676, 199, M, 4.71
SAN JOSE 5.8 NNE, Santa Clara, CA04, -121.824, 37.386, 293, M, 1.11
ENCINITAS 2.7N, San Diego, CA06, -117.292, 33.076, 188, M, 0.00
ESCONDIDO 7.2 SE, San Diego, CA06, -116.992, 33.056, 1585, M, 0.03
RAMONA 3ENE, San Diego, CA06, -116.828, 33.051, 2034, M, 0.00
RANCHO BERNARDO 1.9WSW, San Diego, CA06, -117.106, 33.014, 687, M, T
SAN DIEGO 13.9N, San Diego, CA06, -117.163, 32.917, 406, M, 0.03
REDDING 2.8 NW, Shasta, CA02, -122.401, 40.602, 661, M, 6.34
SHINGLETOWN 3.5 ENE, Shasta, CA02, -121.834, 40.519, 3796, M, 7.43
REDDING 1.6 W, Shasta, CA02, -122.395, 40.575, 635, M, 5.23
MOUNT SHASTA 5.1 NW, Siskiyou, CA02, -122.397, 41.364, 3911, M, 8.33
DORRIS 0.2 SW, Siskiyou, CA01, -121.923, 41.963, 4249, M, 1.27
TEMPLETON 5.5 WSW, San Luis Obispo, CA04, -120.804, 35.535, 1469, M, 3.90
HALF MOON BAY 0.7 NW, San Mateo, CA04, -122.445, 37.478, 36, M, 3.37
EL GRANADA 0.7 W, San Mateo, CA04, -122.479, 37.509, 78, M, 3.27
CAZADERO 6.9 WNW, Sonoma, CA01, -123.206, 38.565, 645, M, 5.59
CAZADERO 5.6 W, Sonoma, CA01, -123.189, 38.532, 1211, M, 7.67
GUERNEVILLE 2.0 SSW, Sonoma, CA01, -123.005, 38.485, 69, M, 5.60
GLEN ELLEN 1.9 NNW, Sonoma, CA01, -122.551, 38.382, 365, M, 4.18
RANCHO CUCAMONGA 1.6 W, San Bernardino, CA06, -117.598, 34.122, 1379, M, 0.09
FAWNSKIN 0.3 NE, San Bernardino, CA06, -116.938, 34.271, 7030, M, 0.08
SOQUEL 0.8 NE, Santa Cruz, CA04, -121.936, 37.002, 414, M, 4.24
RED BLUFF 6.0 W, Tehama, CA02, -122.352, 40.159, 418, M, 2.30
COTTONWOOD 7.7 SSW, Tehama, CA02, -122.333, 40.287, 635, M, 1.93
RED BLUFF 7.2 WNW, Tehama, CA02, -122.360, 40.224, 557, M, 2.55
RED BLUFF 1.1 S, Tehama, CA02, -122.236, 40.158, 323, M, 2.69
COTTONWOOD 4.4 ESE, Tehama, CA02, -122.201, 40.369, 567, M, 3.72
RED BLUFF 5.1 NNW, Tehama, CA02, -122.281, 40.242, 497, M, 2.93
COTTONWOOD 9.1 SW, Tehama, CA02, -122.378, 40.282, 639, M, 3.47
RED BLUFF 4.5 W, Tehama, CA02, -122.326, 40.171, 501, M, 2.29
COTTONWOOD 3.6 SSW, Tehama, CA02, -122.302, 40.341, 554, M, 2.48
MOUNT SHASTA, Siskiyou, CA02, -122.317, 41.322, 3613, 40.8, 2.73
WATSONVILLE MUNICIPAL AIRPORT, Santa Cruz, CA04, -121.790, 36.939, 162, 56.2, 3.00
SANTA ROSA SONOMA CO AP, Sonoma, CA04, -122.811, 38.504, 119, 56.5, 4.56
COARSEGOLD 4SE, Madera, CA05, -119.690, 37.212, 2218, M, 2.92
TWENTYNINE PALMS 12E - WONDER VALLEY, San Bernardino, CA07, -115.850, 34.121, 1376, 69.1, 0.00
MORONGO VALLEY NORTH, San Bernardino, CA07, -116.562, 34.086, 3145, 65.1, 0.00
SHAFTER 6E, Kern, CA05, -119.146, 35.487, 404, 61.2, 0.43
TRUCKEE-TAHOE AP, Nevada, CA03, -120.145, 39.318, 5900, 37.6, 4.12
HEARST CASTLE, San Luis Obispo, CA04, -121.168, 35.684, 1526, 58.0, 3.61
GETTY CENTER, Los Angeles, CA06, -118.479, 34.087, 1117, M, 0.21
HESPERIA 2E, San Bernardino, CA07, -117.266, 34.421, 3055, 61.4, 0.01
RANCHO BERNARDO, San Diego, CA06, -117.081, 33.022, 690, 63.5, 0.00
APPLE VALLEY #2, San Bernardino, CA07, -117.279, 34.536, 2780, M, 0.00
OCOTILLO WELLS 2W, San Diego, CA07, -116.169, 33.155, 390, 77.0, 0.00
IRVINE RANCH, Orange, CA06, -117.723, 33.720, 540, 66.0, 0.00
MT. LAGUNA #3, San Diego, CA07, -116.419, 32.867, 5920, 54.2, 0.02
AVALON INLAND, Los Angeles, CA06, -118.330, 33.338, 90, 55.4, 0.02
TORRANCE AP, Los Angeles, CA06, -118.342, 33.802, 90, 63.4, 0.26
MERCED 23 WSW, Merced, CA05, -120.882, 37.238, 78, 57.4, 1.08
REDDING 12 WNW, Shasta, CA02, -122.607, 40.651, 1418, 54.2, 8.47
STOVEPIPE WELLS 1 SW, Inyo, CA07, -117.145, 36.602, 84, 78.5, 0.00
RED BLUFF 2.8 N, Tehama, CA02, -122.243, 40.215, 406, M, 3.41
LOS ANGELES DOWNTOWN/USC, Los Angeles, CA06, -118.291, 34.024, 179, 67.8, 0.08
FRESNO YOSEMITE INT'L, Fresno, CA05, -119.720, 36.780, 334, 62.1, 3.42
MONTEREY PENINSUL AP, Monterey, CA04, -121.849, 36.590, 160, 56.4, 1.29
PASO ROBLES MUNICIPAL AP, San Luis Obispo, CA04, -120.629, 35.669, 820, 59.3, 0.95
MONTAGUE SISKIYOU AIRPORT, Siskiyou, CA01, -122.468, 41.774, 2645, 45.9, 1.03
SAN JOSE, Santa Clara, CA04, -121.924, 37.359, 49, 60.1, 1.68
PALM SPRINGS ASOS, Riverside, CA07, -116.504, 33.822, 409, 76.4, 0.00
FILLMORE 2 W, Ventura, CA06, -118.945, 34.409, 495, M, 0.00
SAN DIEGO BROWN FIELD, San Diego, CA06, -116.994, 32.576, 521, 62.3, 0.00
Bakersfield Area, -, -, -, -, -, 64.8, 0.35
Bishop Area, -, -, -, -, -, 55.6, 0.92
Los Angeles Downtown Area, -, -, -, -, -, 67.8, 0.08
Eureka Area, -, -, -, -, -, 52.0, 5.46
Fresno Area, -, -, -, -, -, 62.1, 3.42
Los Angeles Airport Area, -, -, -, -, -, 63.6, 0.38
Long Beach Area, -, -, -, -, -, 66.0, 0.18
Redding Area, -, -, -, -, -, 57.7, 3.89
Sacramento Area, -, -, -, -, -, 58.8, 2.93
San Diego Area, -, -, -, -, -, 65.3, 0.01
Stockton Area, -, -, -, -, -, 59.9, 1.86
San Francisco Airport Area, -, -, -, -, -, 58.5, 2.20
Santa Maria Area, -, -, -, -, -, 58.1, 1.18
CAMP PENDLETON MCAS, San Diego, CA06, -117.355, 33.304, 70, 61.8, T
LEMOORE REEVES NAS, Fresno, CA05, -119.950, 36.333, 232, 60.6, 0.67
COTTONWOOD 3.9 SW, Tehama, CA02, -122.342, 40.358, 447, M, 4.70
ARVIN, Kern, CA05, -118.834, 35.211, 450, 64.9, 0.28
CHIRIACO SUMMIT, Riverside, CA07, -115.721, 33.662, 1706, 69.2, 0.00
MOJAVE NTPS, Kern, CA07, -118.173, 35.056, 2827, M, 0.40
FALLBROOK 5 NE, San Diego, CA06, -117.190, 33.439, 1140, 64.7, 0.00
SANTA BARBARA 11 W, Santa Barbara, CA06, -119.880, 34.414, 18, 58.8, 0.48
BODEGA 6 WSW, Sonoma, CA01, -123.075, 38.321, 63, 52.2, 3.37
YOSEMITE VILLAGE 12 W, Mariposa, CA05, -119.821, 37.759, 6620, 43.0, 7.65
YUCCA MESA, San Bernardino, CA07, -116.407, 34.218, 3445, 63.0, 0.00
YUCCA VALLEY, San Bernardino, CA07, -116.388, 34.129, 3249, 62.9, 0.00
JOHNSON VALLEY, San Bernardino, CA07, -116.538, 34.359, 3167, 63.7, 0.00
REDONDO BEACH, Los Angeles, CA06, -118.376, 33.834, 142, 61.6, 0.34
GRAPEVINE CHP, Kern, CA05, -118.938, 34.961, 1358, M, 0.10
THREE RIVERS MUSEUM, Tulare, CA05, -118.896, 36.451, 856, M, 1.70
PACHECO PASS WIND FARM, Merced, CA05, -121.183, 37.033, 1448, M, 0.30
AVENAL T.E.S., Kings, CA05, -120.118, 35.998, 787, M, 0.40
OAKHURST MADERA SHERIFF STATION, Madera, CA05, -119.668, 37.341, 2363, M, 3.20
FRESNO 3NW, Madera, CA05, -119.801, 36.909, 380, M, 0.73
BURBANK VALLEY PUMP PLANT, Los Angeles, CA06, -118.348, 34.187, 655, 64.9, 0.14
PIEDMONT 1.0 SE, Alameda, CA04, -122.216, 37.812, 372, M, 3.63
CASTRO VALLEY 0.4 NNE, Alameda, CA04, -122.059, 37.717, 536, M, 2.83
PLEASANTON 1.8 SSE, Alameda, CA04, -121.875, 37.648, 351, M, 2.81
FREMONT 2.6 ESE, Alameda, CA04, -121.952, 37.515, 30, M, 1.80
PLEASANTON 0.4 ESE, Alameda, CA04, -121.881, 37.670, 344, M, 2.72
VOLCANO 5.4 NE, Amador, CA05, -120.560, 38.497, 3488, M, 4.53
VOLCANO 6.4 NE, Amador, CA05, -120.536, 38.499, 3659, M, 8.49
OROVILLE 2.7 ENE, Butte, CA02, -121.518, 39.514, 535, M, 4.78
MARTINEZ 0.8 SSE, Contra Costa, CA04, -122.108, 37.990, 252, M, 3.10
WALNUT CREEK 1.7 SSE, Contra Costa, CA04, -122.034, 37.878, 243, M, 2.88
LAFAYETTE 0.7 E, Contra Costa, CA04, -122.104, 37.894, 248, M, 3.63
LAFAYETTE 1.9 WSW, Contra Costa, CA04, -122.153, 37.888, 518, M, 4.28
MARTINEZ 2.2 SW, Contra Costa, CA04, -122.138, 37.974, 692, M, 3.53
ANTIOCH 2.2 WSW, Contra Costa, CA05, -121.838, 37.979, 178, M, 1.87
CONCORD 0.8 WNW, Contra Costa, CA04, -122.013, 37.978, 124, M, 2.81
WALNUT CREEK 1.4 SSE, Contra Costa, CA04, -122.028, 37.885, 277, M, 2.59
CRESCENT CITY 5.5 NNE, Del Norte, CA01, -124.148, 41.824, 65, M, 13.11
PLACERVILLE 3.7 SW, El Dorado, CA02, -120.849, 38.695, 1755, M, 3.66
PLACERVILLE 0.9 NE, El Dorado, CA02, -120.785, 38.739, 2036, M, 5.44
CLOVIS 2.9 N, Fresno, CA05, -119.693, 36.861, 382, M, 1.92
TOLLHOUSE 6.2 SSE, Fresno, CA05, -119.359, 36.934, 1397, M, 4.23
SANGER 6.8 N, Fresno, CA05, -119.553, 36.798, 418, M, 2.77
HELM 2.7 NNE, Fresno, CA05, -120.089, 36.570, 183, M, 0.46
ARCATA 1.1 NE, Humboldt, CA01, -124.069, 40.881, 420, M, 6.05
MCKINLEYVILLE 2.7 SE, Humboldt, CA01, -124.084, 40.923, 325, M, 6.75
TRINIDAD 1.5 NNW, Humboldt, CA01, -124.152, 41.078, 201, M, 6.42
HONEYDEW 3.1 WNW, Humboldt, CA01, -124.182, 40.252, 316, M, 11.72
MCKINLEYVILLE 2.3 NE, Humboldt, CA01, -124.086, 40.978, 270, M, 6.33
FORTUNA 1.5 NW, Humboldt, CA01, -124.161, 40.600, 98, M, 6.47
REDWAY 4.8 WNW, Humboldt, CA01, -123.906, 40.139, 1820, M, 1.56
MIRANDA 4.1 SW, Humboldt, CA01, -123.894, 40.209, 539, M, 10.51
BAYVIEW 0.8 SE, Humboldt, CA01, -124.166, 40.756, 176, M, 5.01
FORTUNA 1.3 S, Humboldt, CA01, -124.136, 40.567, 195, M, 5.46
WILLOW CREEK 4.5 NNE, Humboldt, CA01, -123.624, 40.939, 655, M, 5.96
BRIDGEVILLE 5.2 ENE, Humboldt, CA01, -123.701, 40.473, 2675, M, 10.07
FORTUNA 0.1 NW, Humboldt, CA01, -124.141, 40.587, 65, M, 6.28
GARBERVILLE 2.2 SW, Humboldt, CA01, -123.824, 40.077, 415, M, 9.38
GARBERVILLE 2.9 SW, Humboldt, CA01, -123.830, 40.068, 389, M, 9.19
KNEELAND 4.8 WNW, Humboldt, CA01, -124.080, 40.790, 106, M, 6.30
EUREKA 2.2 S, Humboldt, CA01, -124.148, 40.764, 194, M, 5.72
BISHOP 8.5 WSW, Inyo, CA07, -118.540, 37.323, 6002, M, 2.42
BISHOP 1.7 NW, Inyo, CA07, -118.414, 37.388, 4181, M, 1.04
LEMOORE 0.9 ESE, Kings, CA05, -119.772, 36.293, 223, M, 0.98
LEMOORE 0.3 SW, Kings, CA05, -119.791, 36.295, 223, M, 0.86
HANFORD 3.6 N, Kings, CA05, -119.653, 36.377, 258, M, 0.93
HANFORD 1.7 WNW, Kings, CA05, -119.674, 36.335, 245, M, 0.88
INYOKERN 9.4 WSW, Kern, CA07, -117.978, 35.635, 4319, M, 0.06
ONYX 2.8 ENE, Kern, CA05, -118.174, 35.702, 3039, M, 0.22
GLENDALE 2.4 WSW, Los Angeles, CA06, -118.295, 34.169, 511, M, 0.09
TORRANCE 2.8 SW, Los Angeles, CA06, -118.337, 33.790, 200, M, 0.33
ALTADENA 0.7 ESE, Los Angeles, CA06, -118.124, 34.187, 1323, M, 0.11
SHERMAN OAKS 1.7 ENE, Los Angeles, CA06, -118.420, 34.154, 638, M, 0.17
WHITTIER 2.9 WNW, Los Angeles, CA06, -118.066, 33.986, 171, M, 0.08
REDONDO BEACH 2.6 S, Los Angeles, CA06, -118.377, 33.819, 117, M, 0.34
CANYON COUNTRY 2.6 E, Los Angeles, CA06, -118.427, 34.427, 1617, M, 0.11
ARCADIA 2.1 NNE, Los Angeles, CA06, -118.028, 34.162, 652, M, 0.08
LAKEPORT 4.5 N, Lake, CA02, -122.909, 39.107, 1437, M, 4.09
MIDDLETOWN 3.3 SSE, Lake, CA02, -122.603, 38.706, 1273, M, 5.74
LOWER LAKE 4.0 SE, Lake, CA02, -122.564, 38.865, 1585, M, 4.19
SUSANVILLE 3.2 SSW, Lassen, CA03, -120.674, 40.368, 4353, M, 4.09
OAKHURST 7.5 N, Madera, CA05, -119.632, 37.442, 4274, M, 7.31
UKIAH 8.4 NW, Mendocino, CA01, -123.331, 39.221, 2492, M, 5.26
BOONVILLE 2.2 WSW, Mendocino, CA01, -123.408, 39.006, 1061, M, 5.92
ELK 1.8 NNE, Mendocino, CA01, -123.706, 39.105, 147, M, 4.98
UKIAH 1.2 NW, Mendocino, CA01, -123.225, 39.158, 746, M, 4.88
UKIAH 0.6 ESE, Mendocino, CA01, -123.199, 39.141, 601, M, 3.96
REDWOOD VALLEY 1.5 ENE, Mendocino, CA01, -123.178, 39.272, 912, M, 4.12
CARMICHAEL 0.9 S, Sacramento, CA02, -121.319, 38.621, 108, M, 4.26
SACRAMENTO 2.0 SE, Sacramento, CA02, -121.437, 38.550, 34, M, 3.42
FOLSOM 0.6 NE, Sacramento, CA02, -121.138, 38.682, 399, M, 4.57
LA RIVIERA 1.0 NE, Sacramento, CA02, -121.340, 38.575, 64, M, 3.67
GOLETA 3.7 WNW, Santa Barbara, CA06, -119.896, 34.440, 158, M, 0.69
MOUNTAIN VIEW 1.2 S, Santa Clara, CA04, -122.075, 37.385, 109, M, 1.64
SAN JOSE 4.6 S, Santa Clara, CA04, -121.836, 37.238, 158, M, 1.59
SUNNYVALE 1.9 SE, Santa Clara, CA04, -122.004, 37.365, 85, M, 1.45
SAN JOSE 5.4 SW, Santa Clara, CA04, -121.775, 37.305, 223, M, 1.76
MONTE SERENO 0.4 SSW, Santa Clara, CA04, -121.990, 37.232, 467, M, 3.90
SAN JOSE 4.6 NE, Santa Clara, CA04, -121.795, 37.354, 318, M, 1.95
SAN JOSE 2.7 SSW, Santa Clara, CA04, -121.876, 37.271, 162, M, 2.02
CAMBRIAN PARK 2.2 SE, Santa Clara, CA04, -121.897, 37.234, 252, M, 2.00
SAN JOSE 3.5 ENE, Santa Clara, CA04, -121.789, 37.319, 200, M, 1.70
SAN JOSE 2.3 SSW, Santa Clara, CA04, -121.866, 37.273, 161, M, 1.46
SARATOGA 0.5 N, Santa Clara, CA04, -122.023, 37.275, 373, M, 2.77
PALO ALTO 1.2 NE, Santa Clara, CA04, -122.149, 37.452, 32, M, 1.58
SAN JOSE 3.0 WSW, Santa Clara, CA04, -121.927, 37.309, 159, M, 2.00
SAN JOSE 6.2 W, Santa Clara, CA04, -121.961, 37.319, 139, M, 1.84
LOS GATOS 5.4 SSW, Santa Clara, CA04, -121.988, 37.156, 1662, M, 5.52
SAN MARCOS 2.5 ENE, San Diego, CA06, -117.132, 33.147, 666, M, 0.01
IMPERIAL BEACH 3.3 E, San Diego, CA06, -117.062, 32.574, 138, M, T
OCEANSIDE 8.4NE, San Diego, CA06, -117.266, 33.270, 252, M, 0.00
EL CAJON 2.3ENE, San Diego, CA06, -116.925, 32.811, 610, M, 0.00
ENCINITAS 3.34ENE, San Diego, CA06, -117.237, 33.050, 193, M, 0.00
ESCONDIDO 5.2NNW, San Diego, CA06, -117.128, 33.185, 1474, M, 0.06
EL CAJON 1.5WSW, San Diego, CA06, -116.987, 32.791, 727, M, T
ESCONDIDO 2.5 SSE, San Diego, CA06, -117.048, 33.106, 690, M, T
POWAY 3.2NE, San Diego, CA06, -117.004, 32.996, 1206, M, 0.01
LA JOLLA 2.5SE, San Diego, CA06, -117.240, 32.825, 508, M, 0.00
CHULA VISTA 6.3E, San Diego, CA06, -116.975, 32.638, 555, M, 0.00
OCEANSIDE 5.6NE, San Diego, CA06, -117.313, 33.254, 60, M, 0.02
POWAY 1.4SW, San Diego, CA06, -117.059, 32.949, 444, M, 0.00
CARDIFF BY THE SEA 0.2 E, San Diego, CA06, -117.271, 33.027, 266, M, 0.00
CHULA VISTA 2.5SE, San Diego, CA06, -117.052, 32.617, 266, M, 0.00
PAUMA VALLEY 1.7 SE, San Diego, CA06, -116.957, 33.290, 1132, M, T
SAN DIEGO 3.5NE, San Diego, CA06, -117.110, 32.747, 344, M, 0.00
SAN DIEGO 7.9NE, San Diego, CA06, -117.073, 32.806, 242, M, 0.00
LA JOLLA 2.1 SE, San Diego, CA06, -117.250, 32.826, 491, M, 0.14
RANCHO BERNARDO 0.5SE, San Diego, CA06, -117.067, 33.018, 483, M, 0.01
VISTA 1.5NNW, San Diego, CA06, -117.254, 33.219, 417, M, 0.02
EL CAJON 2.3 S, San Diego, CA06, -116.959, 32.770, 738, M, 0.00
SAN DIEGO 9NE, San Diego, CA06, -117.059, 32.817, 292, M, 0.00
POWAY 4.7NNW, San Diego, CA06, -117.047, 33.026, 739, M, T
SAN DIEGO COUNTRY ESTATES 1.5 WNW, San Diego, CA06, -116.807, 33.016, 1474, M, 0.00
SAN FRANCISCO 1.1 SW, San Francisco, CA04, -122.435, 37.765, 194, M, 2.42
COTTONWOOD 0.5 NNE, Shasta, CA02, -122.276, 40.397, 452, M, 4.00
SHINGLETOWN 5.3 ENE, Shasta, CA02, -121.796, 40.524, 3964, M, 8.05
REDDING 2.7 NNW, Shasta, CA02, -122.380, 40.610, 708, M, 5.92
REDDING 7.9 NNE, Shasta, CA02, -122.291, 40.672, 681, M, 6.76
REDDING 3.7 N, Shasta, CA02, -122.358, 40.626, 618, M, 6.46
REDDING 3.6 N, Shasta, CA02, -122.354, 40.623, 604, M, 6.22
REDDING 2.6 NNE, Shasta, CA02, -122.347, 40.607, 590, M, 1.64
REDDING 4.1 N, Shasta, CA02, -122.358, 40.631, 616, M, 4.11
ANDERSON 2.6 NE, Shasta, CA02, -122.261, 40.478, 409, M, 4.38
LINDEN 5.8 ENE, San Joaquin, CA05, -121.008, 38.063, 146, M, 2.83
STOCKTON 5.8 NNE, San Joaquin, CA05, -121.255, 38.038, 35, M, 2.57
LODI 1.0 NNW, San Joaquin, CA05, -121.304, 38.136, 43, M, 2.50
STOCKTON 3.3 SE, San Joaquin, CA05, -121.259, 37.942, 23, M, 2.09
WEED 5.4 N, Siskiyou, CA01, -122.370, 41.495, 3064, M, 3.93
ETNA 3.9 NNW, Siskiyou, CA01, -122.923, 41.511, 2966, M, 2.22
UKIAH 4.3 S, Mendocino, CA01, -123.219, 39.083, 691, M, 4.91
LAYTONVILLE 1.1 SW, Mendocino, CA01, -123.490, 39.672, 1647, M, 6.95
POINT ARENA 4.8 ESE, Mendocino, CA01, -123.610, 38.883, 1048, M, 4.03
MARIPOSA 3.7 NNW, Mariposa, CA05, -119.988, 37.540, 2942, M, 3.48
MARIPOSA 12.5 E, Mariposa, CA05, -119.742, 37.461, 2952, M, 5.10
LA GRANGE 7.8 ESE, Mariposa, CA05, -120.327, 37.635, 1114, M, 2.27
CATHEYS VALLEY 1.2 S, Mariposa, CA05, -120.100, 37.415, 1172, M, 1.94
WOODACRE 0.6 SW, Marin, CA01, -122.635, 38.005, 439, M, 6.16
NOVATO 4.8 WNW, Marin, CA01, -122.644, 38.106, 246, M, 2.79
SAN ANSELMO 0.4 NE, Marin, CA01, -122.564, 37.987, 107, M, 5.50
IGNACIO 0.6 SW, Marin, CA01, -122.546, 38.065, 57, M, 4.05
PETALUMA 10.1 W, Marin, CA01, -122.812, 38.248, 119, M, 3.10
TOMALES 1.3 ENE, Marin, CA01, -122.883, 38.251, 128, M, 1.25
MILL VALLEY 1.5 S, Marin, CA01, -122.544, 37.886, 209, M, 4.19
LOCKWOOD 3.6 NW, Monterey, CA04, -121.117, 35.981, 1181, M, 1.05
KING CITY 13.2 S, Monterey, CA04, -121.174, 36.025, 1104, M, 1.29
CASTROVILLE 1.6 ENE, Monterey, CA04, -121.728, 36.776, 18, M, 1.97
PACIFIC GROVE 1.5 SSW, Monterey, CA04, -121.932, 36.602, 280, M, 1.76
BIG SUR 3.2 SE, Monterey, CA04, -121.769, 36.236, 739, M, 3.69
AROMAS 2.0 SSW, Monterey, CA04, -121.650, 36.850, 344, M, 2.65
CARMEL VALLEY VILLAGE 0.7 SSE, Monterey, CA04, -121.720, 36.476, 446, M, 1.34
CASTROVILLE 1.6 ENE, Monterey, CA04, -121.727, 36.777, 17, M, 1.93
MARINA 0.8 SSE, Monterey, CA04, -121.784, 36.673, 118, M, 1.18
BIG SUR 9.5 NNW, Monterey, CA04, -121.869, 36.398, 1100, M, 4.12
SALINAS 5.9 SSW, Monterey, CA04, -121.671, 36.604, 361, M, 1.40
CALISTOGA 0.4 SSE, Napa, CA01, -122.578, 38.576, 348, M, 4.94
ST. HELENA 1.1 S, Napa, CA01, -122.462, 38.489, 248, M, 3.51
AMERICAN CANYON 0.3 S, Napa, CA01, -122.260, 38.169, 37, M, 3.31
NEVADA CITY 3.4 NNW, Nevada, CA02, -121.040, 39.307, 2390, M, 8.96
KINGVALE 1.3 WSW, Nevada, CA02, -120.452, 39.317, 6035, M, 13.01
ALTA SIERRA 1.3 S, Nevada, CA02, -121.057, 39.104, 2154, M, 7.42
LAKE OF THE PINES 1.0 WSW, Nevada, CA02, -121.077, 39.032, 1576, M, 8.28
ALTA SIERRA 0.4 WSW, Nevada, CA02, -121.060, 39.120, 2303, M, 8.32
NEVADA CITY 5.4 W, Nevada, CA02, -121.121, 39.268, 1982, M, 6.83
ALTA SIERRA 1.4 SSW, Nevada, CA02, -121.058, 39.103, 2057, M, 7.38
ORANGE 3.5 ENE, Orange, CA06, -117.770, 33.829, 811, M, 0.05
LAGUNA NIGUEL 0.9 W, Orange, CA06, -117.720, 33.528, 477, M, 0.10
SILVERADO 1.0 ESE, Orange, CA06, -117.620, 33.746, 1394, M, 0.06
COSTA MESA 1.6 SE, Orange, CA06, -117.892, 33.652, 71, M, 0.05
NEWPORT BEACH 3.1 ESE, Orange, CA06, -117.865, 33.589, 84, M, 0.07
MISSION VIEJO 1.3 SSE, Orange, CA06, -117.644, 33.595, 704, M, 0.02
ANAHEIM 4.9 ENE, Orange, CA06, -117.792, 33.863, 298, M, 0.04
SODA SPRINGS 1.5 SSW, Placer, CA02, -120.384, 39.302, 6887, M, 13.97
ROSEVILLE 4.7 WNW, Placer, CA02, -121.377, 38.780, 96, M, 3.48
PENRYN 0.4 SE, Placer, CA02, -121.158, 38.847, 610, M, 5.89
COLFAX 3.1 SW, Placer, CA02, -120.991, 39.061, 2077, M, 5.58
NEWCASTLE 1.6 SSE, Placer, CA02, -121.123, 38.851, 800, M, 5.74
IDYLLWILD 1.8 NW, Riverside, CA06, -116.735, 33.763, 6325, M, 0.07
HEMET 4.1 ENE, Riverside, CA06, -116.920, 33.753, 1698, M, 0.00
CORONA 12.8 SE, Riverside, CA06, -117.428, 33.731, 1404, M, 0.00
NORCO 1.2 S, Riverside, CA06, -117.548, 33.908, 661, M, 0.13
PERRIS 8.5 WNW, Riverside, CA06, -117.365, 33.826, 1639, M, T
BEAUMONT 2.5 NW, Riverside, CA06, -117.012, 33.954, 2532, M, 0.00
RIVERSIDE 3.8 NW, Riverside, CA06, -117.454, 33.979, 841, M, 0.11
NORCO 2.3 SE, Riverside, CA06, -117.518, 33.906, 1091, M, 0.11
RIVERSIDE 2.6 E, Riverside, CA06, -117.353, 33.935, 1301, M, 0.08
CARMICHAEL 1.6 SW, Sacramento, CA02, -121.340, 38.617, 102, M, 3.87
SACRAMENTO 8.0 NE, Sacramento, CA02, -121.361, 38.635, 95, M, 4.43
CARMICHAEL 0.9 NE, Sacramento, CA02, -121.306, 38.643, 130, M, 4.01
CARMICHAEL 1.4 W, Sacramento, CA02, -121.345, 38.638, 109, M, 4.03
FOLSOM 1.2 SSE, Sacramento, CA02, -121.140, 38.660, 362, M, 4.62
YREKA 0.9 WNW, Siskiyou, CA01, -122.649, 41.733, 2692, M, 1.21
MONTAGUE 1.6 ESE, Siskiyou, CA01, -122.501, 41.718, 2556, M, 1.36
SANTA MARGARITA 8.9 ESE, San Luis Obispo, CA04, -120.453, 35.381, 2005, M, 1.68
PACIFICA 0.3 W, San Mateo, CA04, -122.483, 37.612, 227, M, 3.64
FOSTER CITY 1.3 SW, San Mateo, CA04, -122.259, 37.549, 7, M, 2.07
HALF MOON BAY 0.5 SSW, San Mateo, CA04, -122.441, 37.463, 54, M, 3.46
REDWOOD CITY 2.5 SW, San Mateo, CA04, -122.240, 37.493, 17, M, 2.07
PORTOLA VALLEY 1.3 ENE, San Mateo, CA04, -122.198, 37.382, 531, M, 2.82
GEYSERVILLE 10.6 WNW, Sonoma, CA01, -123.098, 38.737, 1328, M, 5.16
SANTA ROSA 3.1 W, Sonoma, CA01, -122.758, 38.451, 107, M, 2.67
SEBASTOPOL 3.7 WSW, Sonoma, CA01, -122.893, 38.385, 383, M, 4.52
SANTA ROSA 2.7 WSW, Sonoma, CA01, -122.745, 38.432, 123, M, 2.58
SEBASTOPOL 4.5 WSW, Sonoma, CA01, -122.904, 38.375, 423, M, 4.64
WINDSOR 1.5 WNW, Sonoma, CA01, -122.823, 38.555, 123, M, 5.59
WINDSOR 1.4 SE, Sonoma, CA01, -122.780, 38.532, 140, M, 4.84
SANTA ROSA 3.1 NW, Sonoma, CA01, -122.744, 38.479, 140, M, 4.54
CLOVERDALE 3.2 ESE, Sonoma, CA01, -122.963, 38.781, 797, M, 4.80
SEBASTOPOL 2.6 SSE, Sonoma, CA01, -122.804, 38.366, 214, M, 3.41
SANTA ROSA 2.9 ENE, Sonoma, CA01, -122.655, 38.471, 292, M, 5.01
SANTA ROSA 4.4 NNW, Sonoma, CA01, -122.719, 38.511, 392, M, 3.71
SEBASTOPOL 1.1 SSE, Sonoma, CA01, -122.819, 38.384, 168, M, 3.30
WINDSOR 1.2 NNW, Sonoma, CA01, -122.805, 38.562, 155, M, 4.95
HEALDSBURG 7.5 NW, Sonoma, CA01, -122.963, 38.693, 203, M, 5.20
SANTA ROSA 2.6 NE, Sonoma, CA01, -122.664, 38.473, 273, M, 4.97
SANTA ROSA 1.3 NW, Sonoma, CA01, -122.715, 38.464, 173, M, 4.82
WINDSOR 0.6 NNE, Sonoma, CA01, -122.793, 38.553, 157, M, 5.45
GLEN ELLEN 1.9 WNW, Sonoma, CA01, -122.572, 38.365, 956, M, 4.51
ROHNERT PARK 0.9 SW, Sonoma, CA01, -122.711, 38.339, 96, M, 3.23
HEALDSBURG 3.7 WNW, Sonoma, CA01, -122.921, 38.648, 142, M, 5.21
CLOVERDALE 0.6 W, Sonoma, CA01, -123.028, 38.799, 382, M, 4.78
GLEN ELLEN 1.5 N, Sonoma, CA01, -122.534, 38.378, 337, M, 4.00
SANTA ROSA 2.7 ENE, Sonoma, CA01, -122.659, 38.470, 281, M, 4.32
BOYES HOT SPRINGS 0.5 ENE, Sonoma, CA01, -122.473, 38.316, 295, M, 3.45
SEBASTOPOL 3.3 WSW, Sonoma, CA01, -122.885, 38.384, 362, M, 4.20
OCCIDENTAL 2.8 SW, Sonoma, CA01, -122.974, 38.365, 614, M, 4.66
HEALDSBURG 12.6 NNW, Sonoma, CA01, -122.963, 38.784, 1026, M, 4.37
BENICIA 0.2 SSW, Solano, CA01, -122.155, 38.070, 403, M, 2.42
WRIGHTWOOD 1.2 WNW, San Bernardino, CA07, -117.651, 34.365, 6148, M, 0.19
APPLE VALLEY 2.6 SE, San Bernardino, CA07, -117.181, 34.504, 2941, M, 0.00
JOSHUA TREE 2.0 S, San Bernardino, CA07, -116.318, 34.097, 3409, M, 0.00
LANDERS 1.6 NE, San Bernardino, CA07, -116.375, 34.283, 2954, M, 0.00
HESPERIA 3.9 SW, San Bernardino, CA07, -117.340, 34.373, 3578, M, 0.02
PINON HILLS 3.5 N, San Bernardino, CA07, -117.644, 34.485, 3495, M, 0.05
KNIGHTS FERRY 5.2 WSW, Stanislaus, CA05, -120.752, 37.789, 144, M, 2.43
OAKDALE 4.2 ENE, Stanislaus, CA05, -120.777, 37.782, 232, M, 2.13
SAN JUAN BAUTISTA 0.5 S, San Benito, CA04, -121.537, 36.839, 252, M, 1.80
HOLLISTER 5.4 NNE, San Benito, CA04, -121.370, 36.931, 247, M, 1.72
HOLLISTER 2.1 ESE, San Benito, CA04, -121.365, 36.842, 389, M, 1.12
DAVENPORT 4.2 NW, Santa Cruz, CA04, -122.218, 37.065, 495, M, 2.92
BOULDER CREEK 3.6 NE, Santa Cruz, CA04, -122.091, 37.181, 1724, M, 4.82
FELTON 0.1 SE, Santa Cruz, CA04, -122.071, 37.042, 238, M, 4.69
SOQUEL 1.8 N, Santa Cruz, CA04, -121.950, 37.019, 152, M, 3.90
BOULDER CREEK 3.0 NW, Santa Cruz, CA04, -122.164, 37.169, 875, M, 6.44
FELTON 4.5 NNE, Santa Cruz, CA04, -122.047, 37.105, 838, M, 5.59
RED BLUFF 4.3 W, Tehama, CA02, -122.322, 40.179, 396, M, 2.58
TERRA BELLA 6.3 W, Tulare, CA05, -119.149, 35.950, 374, M, 0.94
VISALIA 0.7 SSE, Tulare, CA05, -119.318, 36.315, 318, M, 1.35
DOUGLAS CITY 2.4 SW, Trinity, CA01, -122.978, 40.633, 1689, M, 4.32
HAWKINS BAR 0.6 NW, Trinity, CA01, -123.530, 40.877, 674, M, 5.66
MAD RIVER 7.4 SE, Trinity, CA01, -123.376, 40.321, 2762, M, 9.41
TRINITY CENTER 0.6 ESE, Trinity, CA01, -122.696, 40.983, 2427, M, 7.50
THOUSAND OAKS 2.1 WSW, Ventura, CA06, -118.898, 34.177, 692, M, 0.18
FRAZIER PARK 10.7 WSW, Ventura, CA06, -119.110, 34.746, 5274, M, 0.12
SIMI VALLEY 3.8 SW, Ventura, CA06, -118.805, 34.231, 1081, M, 0.20
VENTURA 0.5 WNW, Ventura, CA06, -119.276, 34.273, 56, M, 0.00
OJAI 0.3 WNW, Ventura, CA06, -119.251, 34.451, 797, M, 0.25
CHALLENGE-BROWNSVILLE 1.3 WSW, Yuba, CA02, -121.280, 39.452, 2049, M, 8.33
DAVIS 1.2 SE, Yolo, CA02, -121.721, 38.543, 36, M, 2.83
DAVIS 0.8 NE, Yolo, CA02, -121.724, 38.562, 41, M, 2.69
DAVIS 1.4 SSE, Yolo, CA02, -121.722, 38.538, 4, M, 2.17
DAVIS 2.7 W, Yolo, CA02, -121.786, 38.552, 57, M, 2.80
WOODLAND 2.8 SE, Yolo, CA02, -121.732, 38.647, 38, M, 2.77
PLACERVILLE 3 ENE, El Dorado, CA02, -120.742, 38.785, 2658, 52.1, 5.49
TAHOMA, El Dorado, CA03, -120.129, 39.060, 6315, 35.7, 6.05
ORCHARD SUNFLOWER VALLEY, Kings, CA05, -120.103, 35.803, 753, M, 0.60
HURON - WOOLF FARM, Fresno, CA05, -120.122, 36.183, 404, M, 0.20
JAWBONE CANYON, Kern, CA07, -118.001, 35.302, 2161, M, 0.00
CORONA MUNICIPAL AIRPORT, Riverside, -, -117.602, 33.898, 533, 61.3, 0.08
OAKLAND 4.4 NNW, Alameda, CA04, -122.250, 37.832, 191, M, 3.74
SAN LORENZO 0.5 NNW, Alameda, CA04, -122.133, 37.682, 30, M, 2.67
OROVILLE 4.8 E, Butte, CA02, -121.477, 39.493, 668, M, 4.95
MCKINLEYVILLE 4.3 E, Humboldt, CA01, -124.034, 40.953, 173, M, 5.78
KNEELAND 0.4 NNW, Humboldt, CA01, -123.999, 40.766, 2008, M, 8.05
BISHOP 8.8 WNW, Inyo, CA07, -118.547, 37.411, 4537, M, 1.52
CLAREMONT 0.5 E, Los Angeles, CA06, -117.707, 34.121, 1465, M, 0.10
LANCASTER 6.5 ENE, Los Angeles, CA07, -118.066, 34.718, 2366, M, 0.00
DESCANSO 0.3 WNW, San Diego, CA06, -116.621, 32.854, 3442, M, 0.02
SAN DIEGO 5.2WNW, San Diego, CA06, -117.245, 32.735, 251, M, 0.00
VISTA 1.2SE, San Diego, CA06, -117.231, 33.186, 505, M, 0.05
FORESTVILLE 0.7 SW, Sonoma, CA01, -122.897, 38.473, 201, M, 5.85
RIALTO 2.1 N, San Bernardino, CA06, -117.381, 34.144, 1482, M, 0.05
THREE RIVERS 1.7 NE, Tulare, CA05, -118.886, 36.458, 1010, M, 2.21
TRINITY CENTER 0.2 ENE, Trinity, CA01, -122.704, 40.986, 2481, M, 5.19
VERDI 2W, Sierra, CA03, -120.027, 39.521, 5429, 43.6, 1.93
PASADENA 2.0 SE, Los Angeles, CA06, -118.116, 34.139, 739, M, 0.06
RAYMOND 6.8 NE, Madera, CA05, -119.802, 37.272, 1802, M, 3.09
SUNNYVALE 3.6 S (W6NW), Santa Clara, CA04, -122.018, 37.334, 170, M, 1.49
PIONEER 6.4 NE, Amador, CA05, -120.499, 38.505, 4073, M, 5.11
CRESCENT CITY 4.2 NE, Del Norte, CA01, -124.143, 41.800, 98, M, 13.17
POLLOCK PINES 0.5 NW, El Dorado, CA02, -120.578, 38.757, 3895, M, 8.97
EUREKA 3.0 SSW, Humboldt, CA01, -124.181, 40.757, 100, M, 5.52
TEHACHAPI 2.2 W, Kern, CA05, -118.480, 35.132, 3945, M, 0.16
DIAMOND BAR 1.9 NNE, Los Angeles, CA06, -117.796, 34.023, 935, M, 0.05
YOSEMITE LAKES 4.7 S, Madera, CA05, -119.761, 37.124, 1598, M, 2.12
MARIPOSA 12.5 E, Mariposa, CA05, -119.740, 37.462, 2940, M, 5.18
BIG SUR 7.2 NNW, Monterey, CA04, -121.818, 36.353, 2434, M, 2.80
IRVINE 2.9 WSW, Orange, CA06, -117.838, 33.640, 193, M, 0.02
MISSION VIEJO 3.5 SSE(K6WTA), Orange, CA06, -117.639, 33.563, 613, M, 0.02
IRVINE 4.1 NNE, Orange, CA06, -117.772, 33.718, 152, M, 0.00
ANAHEIM 4.9 E, Orange, CA06, -117.787, 33.847, 374, M, 0.06
LOS ALTOS HILLS 1.3 N, Santa Clara, CA04, -122.135, 37.387, 194, M, 2.09
CHULA VISTA 3.1SE, San Diego, CA06, -117.051, 32.604, 200, M, T
SAN DIEGO 9.5 NNW, San Diego, CA06, -117.221, 32.843, 284, M, 0.03
LOS OSOS 0.5 N, San Luis Obispo, CA04, -120.832, 35.329, 77, M, 0.76
MENLO PARK 2.4 W, San Mateo, CA04, -122.187, 37.477, 25, M, 1.61
BURLINGAME 2.0 WSW, San Mateo, CA04, -122.398, 37.584, 447, M, 4.42
CAMARILLO 2.4 W, Ventura, CA06, -119.072, 34.228, 114, M, 0.14
MARYSVILLE 5.0 N, Yuba, CA02, -121.594, 39.224, 73, M, 3.14
WHEATLAND 0.1 ENE, Yuba, CA02, -121.424, 39.013, 85, M, 2.72
CHICO 1.7 SW, Butte, CA02, -121.832, 39.739, 210, M, 4.13
BLUE LAKE 0.6 NNW, Humboldt, CA01, -123.994, 40.888, 179, M, 5.89
REDWAY 1.8 WSW, Humboldt, CA01, -123.852, 40.109, 955, M, 9.62
UPPER LAKE 3.6 W, Lake, CA02, -122.978, 39.168, 1440, M, 4.93
MORGAN HILL 1.4 SW, Santa Clara, CA04, -121.659, 37.117, 433, M, 2.76
REDDING 3.8 S, Shasta, CA02, -122.369, 40.518, 444, M, 4.87
FORKS OF SALMON 1.0 NW, Siskiyou, CA01, -123.334, 41.269, 1664, M, 5.47
SAN MATEO 3.4 SSW, San Mateo, CA04, -122.343, 37.518, 585, M, 3.87
ACTON CALIFORNIA, Los Angeles, CA06, -118.200, 34.446, 2600, 60.0, M
ARROYO GRANDE CALIFORNIA, San Luis Obispo, CA04, -120.392, 35.179, 1048, 60.2, M
ALDER SPRINGS CALIFORNIA, Glenn, CA02, -122.724, 39.651, 4300, 46.1, M
ALPINE CALIFORNIA, San Diego, CA06, -116.739, 32.834, 2041, 60.8, M
LOS ALTOS CALIFORNIA, Santa Clara, CA04, -122.147, 37.358, 645, 57.7, M
ANZA CALIFORNIA, Riverside, CA06, -116.673, 33.555, 3920, 55.1, M
ALDER POINT CALIFORNIA, Humboldt, CA01, -123.590, 40.187, 923, 52.9, M
ARROYO SECO (MT. DIABLO) CALIF, Monterey, CA04, -121.492, 36.230, 980, 58.7, M
ASH CREEK CALIFORNIA, Siskiyou, CA02, -121.979, 41.277, 3200, 42.7, M
BACKBONE CALIFORNIA, Trinity, CA01, -123.142, 40.889, 4700, 44.1, M
BALD MTN LOC CALIFORNIA, El Dorado, CA02, -120.697, 38.906, 4680, 48.2, M
BARNABY CALIFORNIA, Marin, CA01, -122.702, 38.028, 1240, 54.8, M
BATTERSON CALIFORNIA, Madera, CA05, -119.508, 37.232, 3160, 54.2, M
BIG BAR CALIFORNIA, Trinity, CA01, -123.233, 40.733, 1500, 52.6, M
BELL CANYON CALIFORNIA, Orange, CA06, -117.592, 33.542, 700, 63.7, M
BRADLEY CALIFORNIA, Monterey, CA04, -120.803, 35.864, 537, 59.3, M
BEAR PEAK CALIFORNIA, Tulare, CA05, -118.052, 35.884, 8228, 43.5, M
BENTON CALIFORNIA, Mono, CA07, -118.478, 37.843, 5450, 49.6, M
BEAUMONT CALIFORNIA, Riverside, CA06, -116.950, 33.931, 2604, 60.9, M
BEVERLY HILLS CALIFORNIA, Los Angeles, CA06, -118.412, 34.125, 1260, 66.8, M
BANGOR CALIFORNIA, Butte, CA02, -121.386, 39.398, 803, 57.3, M
BIG PINES CALIFORNIA, Los Angeles, CA07, -117.692, 34.379, 6917, 49.7, M
BIG ROCK CALIFORNIA, Marin, CA01, -122.570, 38.039, 1500, 55.5, M
BLACK DIAMOND CALIFORNIA, Contra Costa, CA04, -121.884, 37.950, 1600, 55.0, M
BLUE DOOR CALIFORNIA, Lassen, CA02, -120.337, 41.055, 5615, 38.9, M
BEN BOLT CALIFORNIA, El Dorado, CA05, -120.934, 38.591, 905, 56.5, M
BEN LOMOND CALIFORNIA, Santa Cruz, CA04, -122.170, 37.132, 2630, 52.0, M
BOGARD R.S. CALIFORNIA, Lassen, CA02, -121.083, 40.598, 5650, 41.9, M
BOONVILLE CALIFORNIA, Mendocino, CA01, -123.349, 38.988, 644, 53.5, M
BIG PINE FLAT CALIFORNIA, San Bernardino, CA07, -117.013, 34.319, 6861, 47.6, M
BRIDGEPORT 4NW CALIFORNIA, Mono, CA03, -119.289, 38.272, 6650, 43.6, M
BRANCH MOUNTAIN CALIFORNIA, San Luis Obispo, CA04, -120.083, 35.189, 3770, 53.6, M
BEAR FLAT CALIFORNIA, Modoc, CA02, -120.313, 41.295, 6200, 38.9, M
BRIONES CALIFORNIA, Contra Costa, CA04, -122.118, 37.944, 1450, 58.2, M
BLACKROCK CALIFORNIA, Tulare, CA05, -118.260, 36.093, 8200, 41.5, M
BROOKS CALIFORNIA, Yolo, CA02, -122.145, 38.738, 354, 59.2, M
BIG SUR CALIFORNIA, Monterey, CA04, -121.785, 36.236, 450, 58.0, M
BULL FLAT CALIFORNIA, Lassen, CA03, -120.114, 40.481, 4395, 43.9, M
BURNS CANYON CALIFORNIA, San Bernardino, CA07, -116.634, 34.210, 6000, 55.8, M
BUTTERCUP CALIFORNIA, Imperial, CA07, -114.884, 32.740, 217, 76.2, M
BEAVER CAMP LOC CALIFORNIA, Amador, CA05, -120.325, 38.488, 5000, 49.4, M
BRAZIE RANCH CALIFORNIA, Siskiyou, CA01, -122.594, 41.685, 3000, 48.0, M
CAHUILLA CALIFORNIA, Imperial, CA07, -115.174, 32.974, 278, 76.9, M
CALLAHAN CALIFORNIA, Siskiyou, CA01, -122.796, 41.308, 3136, 46.4, M
CAMERON FIRE STATION CALIFORNI, San Diego, CA06, -116.463, 32.721, 3443, 55.1, M
CARRIZO CALIFORNIA, San Luis Obispo, CA05, -119.773, 35.096, 2490, 59.0, M
CASE SPRINGS CALIFORNIA, San Diego, CA06, -117.418, 33.445, 2320, 59.7, M
CONVERSE CALIFORNIA, San Bernardino, CA06, -116.913, 34.194, 5618, 52.0, M
COOSKIE MOUNTAIN CALIFORNIA, Humboldt, CA01, -124.266, 40.257, 2950, 44.1, M
CORRALITOS CALIFORNIA, Santa Cruz, CA04, -121.798, 36.991, 450, 57.4, M
COUNTY LINE CALIFORNIA, Lake, CA02, -122.412, 39.019, 2085, 54.1, M
CAMP 9 CALIFORNIA, Los Angeles, CA06, -118.422, 34.362, 4000, 56.7, M
CRANE FLAT LOOKOUT CALIFORNIA, Mariposa, CA05, -119.825, 37.762, 6644, 44.0, M
CRESTVIEW CALIFORNIA, Mono, CA07, -118.983, 37.745, 7600, 39.0, M
CORNING CALIFORNIA, Tehama, CA02, -122.170, 39.939, 294, 58.5, M
CARPENTER RIDGE CALIFORNIA, Butte, CA02, -121.582, 40.069, 4812, 44.7, M
CRANSTON CALIFORNIA, Riverside, CA06, -116.841, 33.740, 1950, 64.1, M
CRAZY PEAK CALIFORNIA, Del Norte, CA01, -123.604, 41.992, 3970, 42.5, M
CASHMAN CALIFORNIA, Plumas, CA02, -120.915, 40.002, 4520, 47.4, M
DESCANSO CALIFORNIA, San Diego, CA06, -116.622, 32.857, 3480, 55.8, M
DEVILS GARDEN CALIFORNIA, Modoc, CA02, -120.671, 41.530, 5022, 42.6, M
DIABLO GRANDE CALIFORNIA, Stanislaus, CA05, -121.294, 37.329, 1850, 56.7, M
DEMOCRAT CALIFORNIA, Kern, CA05, -118.630, 35.532, 2356, 58.3, M
DINKEY CALIFORNIA, Fresno, CA05, -119.039, 37.066, 5668, 42.2, M
DOG VALLEY CALIFORNIA, Sierra, CA03, -120.048, 39.562, 5976, 41.4, M
DOYLE CALIFORNIA, Lassen, CA03, -120.106, 40.022, 4240, 48.2, M
DUNCAN CALIFORNIA, Placer, CA02, -120.509, 39.144, 7100, 38.2, M
DEL VALLE CALIFORNIA, Los Angeles, CA06, -118.683, 34.431, 1278, 63.8, M
DEVORE CALIFORNIA, San Bernardino, CA06, -117.404, 34.221, 2057, 64.1, M
EAGLE PEAK CALIFORNIA, Tehama, CA02, -122.657, 39.928, 3713, 48.1, M
EEL RIVER CAMP CALIFORNIA, Humboldt, CA01, -123.824, 40.138, 446, 53.4, M
EEL RIVER CALIFORNIA, Mendocino, CA01, -123.083, 39.833, 1500, 53.7, M
EL CARISO CALIFORNIA, Riverside, CA06, -117.411, 33.647, 3038, 62.9, M
MOUNT ELIZABETH CALIFORNIA, Tuolumne, CA05, -120.247, 38.063, 4933, 48.7, M
EL MIRAGE CALIFORNIA, San Bernardino, CA07, -117.550, 34.634, 2880, 59.6, M
FANCHER CREEK CALIFORNIA, Fresno, CA05, -119.466, 36.884, 920, 62.0, M
FAWNSKIN CALIFORNIA, San Bernardino, CA06, -116.899, 34.266, 6900, 46.2, M
FENCE MEADOW CALIFORNIA, Fresno, CA05, -119.175, 36.961, 5048, 49.7, M
FORT HUNTER LIGGET CALIFORNIA, Monterey, CA04, -121.242, 36.012, 1100, 58.0, M
FIGUEROA CALIFORNIA, Santa Barbara, CA06, -120.007, 34.733, 3200, 59.0, M
FISH CREEK MTN CALIFORNIA, Imperial, CA07, -116.067, 32.990, 760, 78.3, M
FIVE MILE CALIFORNIA, Inyo, CA07, -117.918, 35.872, 4150, 63.3, M
FORESTHILL CALIFORNIA, Placer, CA02, -120.732, 39.091, 4355, 48.4, M
FOUNTAIN SPRINGS CALIFORNIA, Tulare, CA05, -118.915, 35.892, 210, 60.2, M
FREMONT CANYON CALIFORNIA, Orange, CA06, -117.711, 33.808, 1781, 64.9, M
FRIEND MOUNTAIN CALIFORNIA, Trinity, CA01, -123.342, 40.505, 4000, 43.3, M
GRASSHOPPER CALIFORNIA, Lassen, CA03, -120.784, 40.782, 6158, 39.0, M
GOOSE VALLEY CALIFORNIA, San Diego, CA06, -116.846, 33.074, 1530, 63.7, M
GORDON CALIFORNIA, Lassen, CA03, -120.896, 40.759, 6200, 38.7, M
GREEN SPRING CALIFORNIA, Tuolumne, CA05, -120.500, 37.833, 1020, 56.8, M
HASTINGS CALIFORNIA, Monterey, CA04, -121.552, 36.389, 1885, 54.6, M
HAWKEYE CALIFORNIA, Sonoma, CA01, -122.917, 38.782, 2000, 53.4, M
HAYFORK CALIFORNIA, Trinity, CA01, -123.165, 40.550, 2323, 48.9, M
HELL HOLE CALIFORNIA, Placer, CA02, -120.422, 39.072, 5240, 44.4, M
HERNANDEZ CALIFORNIA, San Benito, CA04, -120.856, 36.383, 3733, 52.4, M
HIGH GLADE LOOKOUT CALIFORNIA, Lake, CA02, -122.808, 39.208, 4840, 44.3, M
HIGH SIERRA CALIFORNIA, Fresno, CA05, -119.038, 37.315, 7403, 42.5, M
HOPLAND CALIFORNIA, Mendocino, CA01, -123.081, 39.031, 2682, 51.1, M
HOLLISTER CALIFORNIA, San Benito, CA04, -121.362, 36.842, 404, 58.4, M
HUNTER MOUNTAIN CALIFORNIA, Inyo, CA07, -117.474, 36.563, 6880, 48.3, M
HORSE LAKE CALIFORNIA, Lassen, CA03, -120.503, 40.631, 5100, 42.3, M
HOOPA CALIFORNIA, Humboldt, CA01, -123.671, 41.048, 375, 54.0, M
HORSE THIEF SPRINGS CALIFORNIA, San Bernardino, CA07, -115.909, 35.771, 5000, 57.7, M
HURLEY CALIFORNIA, Fresno, CA05, -119.568, 37.015, 1201, 57.0, M
INDIAN WELL CALIFORNIA, Siskiyou, CA01, -121.538, 41.742, 4770, 42.7, M
JARBO GAP CALIFORNIA, Butte, CA02, -121.489, 39.736, 2490, 53.0, M
JERSEYDALE CALIFORNIA, Mariposa, CA05, -119.839, 37.544, 3900, 52.0, M
JOHNSONDALE CALIFORNIA, Tulare, CA05, -118.545, 35.972, 4700, 48.4, M
CATHEYS VALLEY CALIFORNIA, Mariposa, CA05, -120.111, 37.468, 1200, 58.4, M
CEDAR GROVE CALIFORNIA, Fresno, CA05, -118.656, 36.788, 4720, 48.2, M
CHEESEBORO CALIFORNIA, Ventura, CA06, -118.717, 34.185, 1650, 64.7, M
CHILAO CALIFORNIA, Los Angeles, CA06, -118.030, 34.332, 5450, 55.5, M
CHUCHUPATE CALIFORNIA, Ventura, CA05, -119.012, 34.808, 4900, 47.9, M
CLAREMONT CALIFORNIA, Los Angeles, CA06, -117.707, 34.137, 1645, 63.0, M
CLEAR CREEK CALIFORNIA, Los Angeles, CA06, -118.152, 34.271, 3000, 59.3, M
CLARK CALIFORNIA, Riverside, CA06, -117.309, 33.877, 1720, 64.7, M
CALAVERAS ROAD CALIFORNIA, Alameda, CA04, -121.844, 37.553, 1230, 56.5, M
CASE MOUNTAIN CALIFORNIA, Tulare, CA05, -118.809, 36.411, 6450, 45.8, M
COHASSET CALIFORNIA, Butte, CA02, -121.769, 39.872, 1733, 56.3, M
COLLINS BALDY CALIFORNIA, Siskiyou, CA01, -122.950, 41.775, 5493, 38.8, M
JUANITA LAKE CALIFORNIA, Siskiyou, CA01, -122.006, 41.786, 5400, 41.8, M
JULIAN CALIFORNIA, San Diego, CA07, -116.591, 33.076, 4240, 55.0, M
JUNIPER CREEK CALIFORNIA, Modoc, CA02, -120.472, 41.332, 4372, 44.1, M
KEENWILD CALIFORNIA, Riverside, CA06, -116.767, 33.667, 4920, 55.8, M
KETTLEMAN HILLS CALIFORNIA, Kings, CA05, -120.057, 36.033, 810, 63.5, M
KNOXVILLE CREEK CALIFORNIA, Lake, CA02, -122.417, 38.862, 2200, 52.8, M
KONOCTI CALIFORNIA, Lake, CA02, -122.706, 38.912, 2163, 53.4, M
LOS BANOS CALIFORNIA, Merced, CA05, -121.053, 37.055, 350, 61.9, M
MT. LAGUNA CALIFORNIA, San Diego, CA07, -116.420, 32.880, 5760, 50.6, M
LA HONDA CALIFORNIA, San Mateo, CA04, -122.255, 37.305, 872, 54.3, M
LA PANZA CALIFORNIA, San Luis Obispo, CA04, -120.187, 35.381, 1630, 55.6, M
LAURAL MOUNTAIN CALIFORNIA, Kern, CA07, -117.699, 35.478, 4390, 59.1, M
LASSEN LODGE CALIFORNIA, Tehama, CA02, -121.714, 40.344, 4159, 48.0, M
LAUFMAN CALIFORNIA, Lassen, CA03, -120.353, 40.142, 5800, 45.3, M
LAYTONVILLE CALIFORNIA, Mendocino, CA01, -123.485, 39.702, 1820, 50.7, M
LADDER BUTTE CALIFORNIA, Lassen, CA02, -121.297, 40.807, 5750, 41.3, M
LEO CARRILLO CALIFORNIA, Los Angeles, CA06, -118.936, 34.046, 50, 60.7, M
LOS GATOS CALIFORNIA, Santa Clara, CA04, -121.943, 37.203, 2000, 55.9, M
LOST HORSE CALIFORNIA, Riverside, CA07, -116.188, 34.018, 4200, 57.5, M
LINCOLN CALIFORNIA, Placer, CA02, -121.268, 38.883, 200, 58.3, M
LOWER KLAMATH CALIFORNIA, Siskiyou, CA01, -121.700, 41.999, 4098, 43.5, M
LOS PRIETOS CALIFORNIA, Santa Barbara, CA06, -119.783, 34.536, 1020, 62.0, M
LAS TABLAS CALIFORNIA, San Luis Obispo, CA04, -120.924, 35.656, 994, 57.2, M
LITTLE TUJUNGA CALIFORNIA, Los Angeles, CA06, -118.361, 34.294, 1390, 63.3, M
STOCKTON 2.5 NE, San Joaquin, CA05, -121.366, 38.001, 1, M, 1.69
HALF MOON BAY 1.0 S, San Mateo, CA04, -122.438, 37.455, 65, M, 3.76
MOUNT SHASTA 1.7 SSE, Siskiyou, CA02, -122.303, 41.299, 3593, M, 8.35
RED BLUFF 5.7 W, Tehama, CA02, -122.346, 40.161, 490, M, 2.10
VOLCANO 3.2 N, Amador, CA05, -120.631, 38.488, 2426, M, 6.58
CAMINO 2.0 WSW, El Dorado, CA02, -120.711, 38.734, 2910, M, 6.17
TRINIDAD 1.0 ENE, Humboldt, CA01, -124.124, 41.061, 287, M, 7.15
HYDESVILLE 11.4 NE, Humboldt, CA01, -123.924, 40.658, 2446, M, 9.87
BENICIA 1.0 N, Solano, CA01, -122.157, 38.086, 246, M, 2.31
LOS MOLINOS 4.5 N, Tehama, CA02, -122.111, 40.092, 235, M, 3.05
RED BLUFF 19.0 SW, Tehama, CA02, -122.535, 40.016, 773, M, 2.80
WILLOW CREEK 4.9 NNE, Humboldt, CA01, -123.628, 40.947, 501, M, 6.10
PASADENA 1.8 E, Los Angeles, CA06, -118.107, 34.162, 911, M, 0.07
TORRANCE 0.7 E, Los Angeles, CA06, -118.328, 33.834, 92, M, 0.28
NORCO 1.7 W, Riverside, CA06, -117.582, 33.925, 626, M, 0.12
DESCANSO 3.7 NNW, San Diego, CA06, -116.626, 32.906, 3278, M, 0.00
ESCONDIDO 0.8 NNE, San Diego, CA06, -117.066, 33.147, 734, M, 0.00
EL CAJON 2.8SE, San Diego, CA06, -116.920, 32.772, 686, M, 0.00
OCEANSIDE 8.1ENE, San Diego, CA06, -117.256, 33.250, 189, M, T
SAN MARCOS 2.6W, San Diego, CA06, -117.211, 33.147, 657, M, 0.01
CARLSBAD 8.3SE, San Diego, CA06, -117.242, 33.079, 222, M, 0.04
OROVILLE 4.6 ENE, Butte, CA02, -121.489, 39.531, 394, M, 3.90
SALINAS 3.2 NNW, Monterey, CA04, -121.656, 36.728, 105, M, 1.94
MEADOW VALLEY 5.6 WSW, Plumas, CA02, -121.100, 39.919, 4438, M, 17.98
SANTA MARIA 1.8 NE, Santa Barbara, CA06, -120.419, 34.959, 235, M, 0.95
MORGAN HILL 6.4 NE, Santa Clara, CA04, -121.546, 37.186, 2624, M, 2.85
SAN JOSE 1.9 SW, Santa Clara, CA04, -121.877, 37.288, 141, M, 0.61
EL CAJON 3.2ESE, San Diego, CA06, -116.910, 32.780, 783, M, 0.00
VALLEY CENTER 6.4N, San Diego, CA06, -117.041, 33.311, 1357, M, 0.01
JOSHUA TREE 2.6 SE, San Bernardino, CA07, -116.289, 34.098, 3247, M, 0.00
HOLLISTER 0.3 WSW, San Benito, CA04, -121.403, 36.854, 326, M, 1.22
LOS MOLINOS 5.8 N, Tehama, CA02, -122.084, 40.111, 259, M, 1.48
KNEELAND 3.5 SSE, Humboldt, CA01, -123.976, 40.711, 2050, M, 8.07
DESCANSO 0.8 N, San Diego, CA06, -116.618, 32.865, 3487, M, 0.02
BOULEVARD 4.4 WSW, San Diego, CA06, -116.348, 32.645, 3521, M, T
WOODSIDE 3.4 S, San Mateo, CA04, -122.264, 37.375, 1592, M, 2.83
YUCAIPA 1.5 NNE, San Bernardino, CA06, -117.038, 34.054, 2776, M, T
LA CRESCENTA-MONTROSE 1.6 WNW, Los Angeles, CA06, -118.261, 34.241, 1872, M, 0.16
SANTA MONICA 1.3 NNE, Los Angeles, CA06, -118.485, 34.032, 186, M, 0.21
CASPAR 1.4 ESE, Mendocino, CA01, -123.789, 39.361, 323, M, 5.41
LAKESIDE 4.1NNE, San Diego, CA06, -116.888, 32.909, 1679, M, 0.00
GERBER 3.5 SW, Tehama, CA02, -122.190, 40.021, 268, M, 3.06
CRESCENT CITY 2.1 N, Del Norte, CA01, -124.200, 41.785, 31, M, 12.31
SILVERADO 0.9 E, Orange, CA06, -117.622, 33.746, 1439, M, 0.06
CHULA VISTA 3.1ESE, San Diego, CA06, -117.031, 32.631, 330, M, 0.00
EL CERRITO 1.3 NW, Contra Costa, CA04, -122.316, 37.936, 258, M, 2.97
MCKINLEYVILLE 2.1 NE, Humboldt, CA01, -124.088, 40.975, 270, M, 5.23
SAN ANSELMO 2.0 NNW, Marin, CA01, -122.580, 38.010, 204, M, 4.86
ANAHEIM 7.3 E, Orange, CA06, -117.747, 33.852, 755, M, 0.05
LOS GATOS 9.6 SSE, Santa Clara, CA04, -121.890, 37.104, 2199, M, 5.05
COTTONWOOD 3.2 WSW, Shasta, CA02, -122.339, 40.378, 460, M, 4.44
SAN LUIS OBISPO 2.2 NNW, San Luis Obispo, CA04, -120.681, 35.302, 324, M, 0.72
CHICO 1.3 E, Butte, CA02, -121.782, 39.755, 362, M, 4.58
MOJAVE 6.9 SSW, Kern, CA07, -118.234, 34.962, 2900, M, 0.15
RIO VISTA 8.5 S, Sacramento, CA05, -121.703, 38.050, 5, M, M
REDDING 7.3 NE, Shasta, CA02, -122.255, 40.637, 682, M, 5.68
LANCASTER 3.9 ESE, Los Angeles, CA07, -118.110, 34.680, 2429, M, 0.00
SAUSALITO 0.3 WNW, Marin, CA01, -122.497, 37.859, 159, M, 3.85
NOVATO 1.2 SW, Marin, CA01, -122.570, 38.079, 228, M, 3.98
SAN RAFAEL 4.6 NNW, Marin, CA01, -122.543, 38.041, 195, M, 4.18
SALINAS 2.7 WSW, Monterey, CA04, -121.681, 36.670, 38, M, 1.40
LYONS VALLEY CALIFORNIA, Lake, CA01, -123.074, 39.126, 3200, 47.6, M
LYTLE CREEK CALIFORNIA, San Bernardino, CA06, -117.480, 34.234, 2792, 60.6, M
MAD RIVER CALIFORNIA, Trinity, CA01, -123.524, 40.463, 2775, 46.7, M
MALIBU HILLS CALIFORNIA, Los Angeles, CA06, -118.633, 34.058, 1575, 64.0, M
MANZANITA LAKE CALIFORNIA, Shasta, CA02, -121.580, 40.540, 5660, 39.6, M
MILL CREEK (BDF) CALIFORNIA, San Bernardino, CA06, -117.035, 34.084, 2950, 61.5, M
MCGUIRES CALIFORNIA, Mendocino, CA01, -123.601, 39.353, 593, 51.8, M
MEANS LAKE CALIFORNIA, San Bernardino, CA07, -116.517, 34.391, 2900, 64.1, M
MENDOCINO PASS CALIFORNIA, Mendocino, CA01, -122.945, 39.808, 5420, 40.2, M
METCALF GAP CALIFORNIA, Madera, CA05, -119.768, 37.409, 3077, 56.1, M
MID HILLS CALIFORNIA, San Bernardino, CA07, -115.411, 35.123, 5413, 54.4, M
MILL CREEK (ANF) CALIFORNIA, Los Angeles, CA06, -118.082, 34.390, 5021, 54.7, M
MILO CALIFORNIA, Tulare, CA05, -118.869, 36.231, 1923, 60.1, M
MALLORY RIDGE CALIFORNIA, Contra Costa, CA05, -121.779, 37.817, 2040, 54.5, M
MONTECITO CALIFORNIA, Santa Barbara, CA06, -119.648, 34.461, 1500, 64.0, M
MORMON ROCK CALIFORNIA, San Bernardino, CA06, -117.502, 34.318, 3300, 59.8, M
MOUNTAIN REST CALIFORNIA, Fresno, CA05, -119.371, 37.054, 4100, 52.4, M
MARKLEEVILLE CALIFORNIA, Alpine, CA03, -119.767, 38.683, 5501, 43.8, M
MT. SHASTA CALIFORNIA, Siskiyou, CA02, -122.316, 41.316, -, 45.8, M
MARIPOSA CALIFORNIA, Mariposa, CA05, -119.987, 37.504, 2231, 54.7, M
MOUNT ZION CALIFORNIA, Amador, CA05, -120.651, 38.389, 2960, 53.4, M
NORTH FORK CALIFORNIA, Madera, CA05, -119.505, 37.233, 2720, 54.6, M
OAK KNOLL CALIFORNIA, Siskiyou, CA01, -122.850, 41.839, 1940, 50.3, M
OAK MOUNTAIN CALIFORNIA, Shasta, CA02, -121.983, 41.006, 1700, 50.4, M
OAK CREEK CALIFORNIA, Inyo, CA07, -118.259, 36.843, 4855, 57.3, M
OAK GROVE CALIFORNIA, San Diego, CA06, -116.795, 33.393, 2752, 58.8, M
OAKLAND NORTH CALIFORNIA, Contra Costa, CA04, -122.221, 37.865, 1403, 55.1, M
OAK OPENING CALIFORNIA, Tulare, CA05, -118.702, 36.175, 3240, 54.6, M
OAKLAND SOUTH CALIFORNIA, Alameda, CA04, -122.145, 37.786, 1095, 55.8, M
OPAL MOUNTAIN CALIFORNIA, San Bernardino, CA07, -117.176, 35.154, 3240, 61.3, M
OWENS CAMP LOC CALIFORNIA, El Dorado, CA02, -120.245, 38.733, 5240, 45.2, M
OWENS VALLEY CALIFORNIA, Inyo, CA07, -118.551, 37.390, 4640, 56.5, M
OZENA CALIFORNIA, Ventura, CA06, -119.354, 34.682, 3670, 55.8, M
PARKFIELD CALIFORNIA, Monterey, CA04, -120.432, 35.899, 1535, 56.6, M
PINE HILLS CALIFORNIA, San Diego, CA06, -116.634, 33.016, -, 56.3, M
PIERCE CALIFORNIA, Plumas, CA02, -120.642, 40.246, 5700, 49.0, M
PINEHURST CALIFORNIA, Fresno, CA05, -119.000, 36.685, 4060, 51.4, M
PIKE COUNTY LOOKOUT CALIFORNIA, Yuba, CA02, -121.202, 39.475, 3714, 49.2, M
PILOT HILL CALIFORNIA, El Dorado, CA02, -121.009, 38.833, 1200, 54.6, M
PARK RIDGE CALIFORNIA, Tulare, CA05, -118.942, 36.724, 7540, 42.4, M
PINNACLES CALIFORNIA, San Benito, CA04, -121.147, 36.471, 1322, 58.0, M
POPPY PARK CALIFORNIA, Los Angeles, CA07, -118.383, 34.733, 2760, 59.8, M
POTRERO CALIFORNIA, San Diego, CA06, -116.609, 32.606, 2345, 58.4, M
POVERTY CALIFORNIA, Santa Clara, CA04, -121.771, 37.443, 2066, 53.7, M
PANOCHE ROAD CALIFORNIA, Fresno, CA05, -120.766, 36.727, 2032, 58.5, M
PULGAS CALIFORNIA, San Mateo, CA04, -122.298, 37.475, 644, 57.2, M
QUARTZ HILL CALIFORNIA, Siskiyou, CA01, -122.934, 41.599, 4225, 44.9, M
QUINCY RD CALIFORNIA, Plumas, CA02, -120.942, 39.973, 3500, 47.7, M
RAVENDALE CALIFORNIA, Lassen, CA03, -120.316, 40.731, 5298, 41.9, M
RANCHITA CALIFORNIA, San Diego, CA07, -116.497, 33.222, 4415, 58.6, M
READER RANCH CALIFORNIA, Nevada, CA02, -121.117, 39.304, 1968, 54.1, M
REDDING AIRPORT CALIFORNIA, Shasta, CA02, -122.291, 40.516, 500, 56.8, M
RICE VALLEY CALIFORNIA, Riverside, CA07, -114.732, 34.061, 820, 73.1, M
RODEO VALLEY, Mendocino, CA01, -123.321, 39.668, 2428, 49.4, M
ROSE VALLEY CALIFORNIA, Ventura, CA06, -119.184, 34.543, 3331, 52.5, M
ROUND MOUNTAIN, Siskiyou, CA02, -121.464, 41.427, 5258, 40.9, M
ROSE PEAK CALIFORNIA, Alameda, CA04, -121.735, 37.502, 3060, 48.9, M
RUSH CREEK CALIFORNIA, Modoc, CA02, -120.864, 41.294, 4800, 40.9, M
RUTH CALIFORNIA, Trinity, CA01, -123.316, 40.251, 2732, 47.8, M
SACRAMENTO NWR CALIFORNIA, Glenn, CA02, -122.182, 39.417, 120, 59.6, M
SADDLEBACK BUTTE CALIFORNIA, Los Angeles, CA07, -117.821, 34.685, 2590, 59.1, M
SAUGUS CALIFORNIA, Los Angeles, CA06, -118.525, 34.425, 1450, 64.3, M
SAWYERS BAR CALIFORNIA, Siskiyou, CA01, -123.132, 41.300, 2192, 48.8, M
SANTA BARBARA ISLAND CALIFORNI, Santa Barbara, CA06, -119.033, 33.483, 176, 59.2, M
SANTA CRUZ ISLAND CALIFORNIA, Santa Barbara, CA06, -119.722, 33.996, 250, 62.0, M
SCORPION CALIFORNIA, Trinity, CA01, -122.697, 41.112, 4400, 48.2, M
SODA CREEK CALIFORNIA, Lake, CA01, -122.977, 39.425, 1773, 51.1, M
SADDLEBACK CALIFORNIA, Sierra, CA02, -120.865, 39.638, 6670, 39.7, M
SECRET TOWN CALIFORNIA, Nevada, CA02, -120.885, 39.184, 2826, 51.7, M
SANTA FE DAM CALIFORNIA, Los Angeles, CA06, -117.946, 34.121, 500, 67.5, M
SHAVER CALIFORNIA, Fresno, CA05, -119.256, 37.135, 5746, 43.1, M
SCHOOL HOUSE CALIFORNIA, Humboldt, CA01, -123.906, 41.138, 2640, 45.1, M
SHIP MTN. CALIFORNIA, Del Norte, CA01, -123.792, 41.736, 5300, 36.4, M
SHADEQUARTER CALIFORNIA, Tulare, CA05, -118.956, 36.567, 4069, 53.0, M
SIMS CALIFORNIA, Shasta, CA02, -122.373, 41.075, 2400, 50.5, M
SLATER BUTTE CALIFORNIA, Siskiyou, CA01, -123.352, 41.859, 4670, 40.7, M
SAN MIGUEL CALIFORNIA, San Diego, CA06, -116.974, 32.685, 425, 64.8, M
SAN LUIS NWR CALIFORNIA, Merced, CA05, -120.794, 37.182, 65, 59.4, M
SANTA RITA CALIFORNIA, San Benito, CA05, -120.598, 36.348, 5000, 48.2, M
SOLDIER MOUNTAIN CALIFORNIA, Shasta, CA02, -121.586, 40.926, 3710, 47.8, M
SOMES BAR CALIFORNIA, Siskiyou, CA01, -123.496, 41.390, 920, 53.3, M
SQUAW SPRINGS CALIFORNIA, San Bernardino, CA07, -117.568, 35.370, 3620, 61.6, M
SQUAW LAKE CALIFORNIA, Imperial, CA07, -114.494, 32.908, 300, 76.8, M
MILL VALLEY 2.1 S, Marin, CA01, -122.541, 37.877, 240, M, 4.18
HEALDSBURG 7.7 S, Sonoma, CA01, -122.886, 38.508, 79, M, 4.81
CAMBRIA 0.5 WSW, San Luis Obispo, CA04, -121.087, 35.543, 214, M, 1.43
APTOS 0.4 S, Santa Cruz, CA04, -121.901, 36.986, 225, M, 2.67
BRENTWOOD 2.5 SSW, Contra Costa, CA05, -121.723, 37.899, 182, M, 2.00
Alturas Area, -, -, -, -, -, 44.1, 1.51
Mount Shasta Area, -, -, -, -, -, 46.4, 8.48
Palmdale Area, -, -, -, -, -, 61.3, T
Lancaster Area, -, -, -, -, -, 60.6, T
OCCIDENTAL 1.8 NW, Sonoma, CA01, -122.965, 38.411, 1006, M, 2.17
MADERA 0.9 SSW, Madera, CA05, -120.084, 36.956, 262, M, 0.25
MADERA 11.4 E, Madera, CA05, -119.873, 36.937, 354, M, 1.00
SQUAW VALLEY 9.4 NW, Fresno, CA05, -119.301, 36.802, 830, M, 2.75
CLOVIS 5.6 ESE, Fresno, CA05, -119.598, 36.796, 392, M, 1.99
FREMONT 3.7 NE, Alameda, CA04, -121.959, 37.572, 102, M, 2.18
SALYER 1.1 E, Trinity, CA01, -123.561, 40.890, 762, M, 5.83
LOS GATOS 5.6 S, Santa Clara, CA04, -121.978, 37.151, 1439, M, 5.55
FRESNO 5.9 NNE, Fresno, CA05, -119.741, 36.856, 364, M, 0.72
SEBASTOPOL 1.4 WSW, Sonoma, CA01, -122.850, 38.392, 178, M, 4.15
OAKLAND 1.2 ENE, Alameda, CA04, -122.203, 37.778, 116, M, 3.24
BANGOR 0.4 N, Butte, CA02, -121.405, 39.395, 820, M, 4.77
ARNOLD 3.2 ENE, Calaveras, CA05, -120.312, 38.242, 4036, M, 9.23
GARBERVILLE 1.1 WSW, Humboldt, CA01, -123.810, 40.089, 510, M, 2.10
ARCATA 0.9 WNW, Humboldt, CA01, -124.097, 40.872, 15, M, 4.67
WHITETHORN 1.7 NNW, Humboldt, CA01, -123.959, 40.045, 967, M, 12.08
BISHOP 1.7 SW, Inyo, CA07, -118.415, 37.347, 4221, M, 1.02
SANTA CLARITA 1.4 ESE, Los Angeles, CA06, -118.487, 34.406, 1561, M, 0.11
ALTADENA 1.9 ESE, Los Angeles, CA06, -118.105, 34.179, 1089, M, 0.08
WILLITS 20.4 E, Lake, CA01, -122.969, 39.436, 1922, M, 0.00
FORT BRAGG 4.0 NNE, Mendocino, CA01, -123.785, 39.499, 85, M, 2.71
MARINA 0.8 SSE, Monterey, CA04, -121.784, 36.673, 136, M, 1.28
CARMEL VALLEY VILLAGE 12.2 SE, Monterey, CA04, -121.577, 36.354, 3084, M, 2.93
ROCKLIN 2.5 W, Placer, CA02, -121.286, 38.809, 130, M, 4.42
MURRIETA 3.6 NNE, Riverside, CA06, -117.188, 33.608, 1723, M, 0.00
SACRAMENTO 4.3 ENE, Sacramento, CA02, -121.394, 38.591, 52, M, 3.85
SANTA BARBARA 4.7 WNW, Santa Barbara, CA06, -119.799, 34.453, 129, M, 0.45
ESCONDIDO 4.0 SSW, San Diego, CA06, -117.093, 33.082, 762, M, T
VISTA 3.4ENE, San Diego, CA06, -117.172, 33.241, 891, M, 0.00
BORREGO SPRINGS 7.1SE, San Diego, CA07, -116.279, 33.193, 574, M, 0.00
SHINGLETOWN 2.5 E, Shasta, CA02, -121.843, 40.499, 3643, M, 7.15
SAN MATEO 0.8 NE, San Mateo, CA04, -122.301, 37.568, 5, M, 2.00
PACIFICA 1.9 S, San Mateo, CA04, -122.479, 37.584, 297, M, 3.99
CAZADERO 1.3 SSE, Sonoma, CA01, -123.078, 38.515, 179, M, 6.86
KENWOOD 1.4 NNW, Sonoma, CA01, -122.551, 38.435, 490, M, 3.94
SEBASTOPOL 4.7 W, Sonoma, CA01, -122.912, 38.390, 599, M, 4.37
SONOMA 0.4 SSE, Sonoma, CA01, -122.456, 38.286, 79, M, 3.31
SANTA ROSA 6.7 WSW, Sonoma, CA01, -122.821, 38.426, 86, M, 3.77
SANTA ROSA 2.1 NNE, Sonoma, CA01, -122.690, 38.478, 643, M, 4.83
SAN BERNARDINO 5.1 NW, San Bernardino, CA06, -117.350, 34.195, 1735, M, 0.02
HESPERIA 3.6 SSW, San Bernardino, CA07, -117.335, 34.375, 3545, M, 0.02
MODESTO 4.1 NW, Stanislaus, CA05, -121.057, 37.693, 78, M, 1.33
APTOS 1.4 N, Santa Cruz, CA04, -121.901, 37.012, 601, M, 3.46
SANTA CRUZ 5.7 N, Santa Cruz, CA04, -122.033, 37.056, 353, M, 4.67
WATSONVILLE 1.0 N, Santa Cruz, CA04, -121.766, 36.934, 106, M, 3.28
COTTONWOOD 7.8 SW, Tehama, CA02, -122.368, 40.299, 690, M, 3.87
SONORA 3.4 E, Tuolumne, CA05, -120.319, 37.985, 2538, M, 6.62
DAVIS 1.7 SE, Yolo, CA02, -121.711, 38.541, 54, M, 2.91
SOUTH LAKE F.S, Kern, CA05, -118.361, 35.647, 2654, 60.7, 0.00
CAMPO ASOS, San Diego, CA07, -116.468, 32.626, 2641, 55.9, 0.00
Burbank Glendale Pasadena Area, -, -, -, -, -, 66.2, 0.09
Camarillo Area, -, -, -, -, -, 62.0, 0.13
Needles Area, -, -, -, -, -, 76.2, 0.00
Oxnard Area, -, -, -, -, -, 61.4, 0.24
Palm Springs Area, -, -, -, -, -, 76.4, 0.00
Riverside Area, -, -, -, -, -, 66.4, 0.10
Ramona Area, -, -, -, -, -, 60.2, T
LONG VALLEY 2, Riverside, CA07, -116.642, 33.813, 8380, 47.3, 0.00
VALLEY CENTER 1N, San Diego, CA06, -117.038, 33.222, 1290, 62.7, 0.00
Northern CA 8 Station Index, -, -, -, -, -, M, 9.57
San Joaquin 5 Station Index, -, -, -, -, -, M, 6.07
Tulare 6 Station Index, -, -, -, -, -, M, 2.59
MERCED 1.2 NW, Merced, CA05, -120.497, 37.310, 168, M, 1.37
HOLLISTER 5.3 NNE, San Benito, CA04, -121.346, 36.920, 325, M, 1.39
FREMONT 3.3 NNE, Alameda, CA04, -121.965, 37.568, 83, M, 1.00
EAST PALO ALTO 0.3 WSW, San Mateo, CA04, -122.137, 37.464, 15, M, 1.50
ROSEVILLE 3.6 E, Placer, CA02, -121.228, 38.770, 342, M, 4.84
HEALDSBURG 0.6 W, Sonoma, CA01, -122.873, 38.618, 105, M, 0.94
LAKE ARROWHEAD 1.5 SE, San Bernardino, CA07, -117.171, 34.247, 5519, M, 0.02
SANTA ROSA 5.3 E, Sonoma, CA01, -122.603, 38.439, 424, M, 5.01
ALTURAS 9.5 E, Modoc, CA02, -120.365, 41.514, 5336, M, 3.00
SANTA MARIA 1.6 WSW, Santa Barbara, CA06, -120.461, 34.924, 223, M, 0.90
DESCANSO 3.7N, San Diego, CA06, -116.623, 32.908, 3327, M, 0.03
CASTRO VALLEY 2.0 SW, Alameda, CA04, -122.086, 37.689, 154, M, 2.82
BECKWOURTH 3.3 E, Plumas, CA02, -120.316, 39.818, 4959, M, 3.32
PACIFIC GROVE 1.6 SSW, Monterey, CA04, -121.941, 36.603, 137, M, 1.68
O'BRIEN 5.6 SSW, Del Norte, CA01, -123.719, 41.987, 1717, M, 12.48
LEMON GROVE 2.9 SSE, San Diego, CA06, -117.024, 32.701, 396, M, T
ESCONDIDO 1.4 ENE, San Diego, CA06, -117.050, 33.147, 703, M, 0.00
LOS ANGELES 2.6 NW, Los Angeles, CA06, -118.273, 34.081, 405, M, 0.04
HONEYDEW 3.2 SSE, Humboldt, CA01, -124.105, 40.200, 1395, M, 15.14
GRASS VALLEY 8.3 SSE, Nevada, CA02, -121.008, 39.107, 2182, M, 7.49
QUINCY 2.3 E, Plumas, CA02, -120.905, 39.938, 3473, M, 8.69
PERRIS 10.6 W, Riverside, CA06, -117.405, 33.821, 1586, M, 0.04
GILROY 0.1 SE, Santa Clara, CA04, -121.577, 37.009, 211, M, 2.44
BENICIA 1.3 W, Solano, CA01, -122.178, 38.075, 304, M, 1.78
RED BLUFF 2.4 NE, Tehama, CA02, -122.205, 40.194, 275, M, 3.43
SPRINGVILLE 1.4 SSW, Tulare, CA05, -118.825, 36.111, 937, M, 1.67
DAVIS 2.3 W, Yolo, CA02, -121.778, 38.559, 55, M, 2.84
GRIDLEY 3.3 SE, Butte, CA02, -121.646, 39.335, 92, M, 3.59
SOUTH LAKE TAHOE 4.9 SW, El Dorado, CA03, -120.034, 38.882, 6325, M, 5.67
EL DORADO HILLS 0.7 NNE, El Dorado, CA02, -121.074, 38.695, 709, M, 5.23
EL DORADO HILLS 0.9 NNW, El Dorado, CA02, -121.087, 38.698, 771, M, 4.92
INDEPENDENCE 0.2 NNW, Inyo, CA07, -118.201, 36.806, 3914, M, 0.64
CALABASAS 1.9 E, Los Angeles, CA06, -118.628, 34.141, 1080, M, 0.18
COARSEGOLD 1.4 SE, Madera, CA05, -119.686, 37.247, 2674, M, 3.85
CHOWCHILLA 0.3 E, Madera, CA05, -120.252, 37.116, 238, M, 0.86
SAN RAFAEL 4.6 NW, Marin, CA01, -122.574, 38.020, 166, M, 4.45
BOLINAS 0.2 W, Marin, CA01, -122.701, 37.906, 190, M, 4.11
LAGUNITAS-FOREST KNOLLS 0.2 SSE, Marin, CA01, -122.686, 38.013, 269, M, 3.02
SAN RAFAEL 1.9 NNW, Marin, CA01, -122.524, 38.005, 15, M, 5.61
NOVATO 0.7 WNW, Marin, CA01, -122.568, 38.098, 12, M, 3.35
NOVATO 2.7 WNW, Marin, CA01, -122.600, 38.110, 76, M, 3.70
AUBURN 5.3 NNW, Placer, CA02, -121.115, 38.963, 1236, M, 7.21
SUNNYSLOPE 1.6 W, Riverside, CA06, -117.450, 34.016, 946, M, 0.06
FAIR OAKS 3.0 WNW, Sacramento, CA02, -121.300, 38.662, 173, M, 3.78
BUELLTON 0.7 S, Santa Barbara, CA06, -120.199, 34.617, 363, M, 0.30
MORGAN HILL 4.5 NW, Santa Clara, CA04, -121.703, 37.173, 310, M, 2.11
UPLAND 2.0 NNW, San Bernardino, CA06, -117.665, 34.147, 1915, M, 0.11
BOULDER CREEK 4.1 N, Santa Cruz, CA04, -122.141, 37.195, 984, M, 5.86
PORTERVILLE 2.4 NNW, Tulare, CA05, -119.051, 36.093, 422, M, 0.86
CAMARILLO 0.6 N, Ventura, CA06, -119.030, 34.231, 178, M, 0.12
DAVIS 1.1 ENE, Yolo, CA02, -121.716, 38.559, 56, M, 2.68
DAVIS 6.3 W, Yolo, CA02, -121.852, 38.561, 86, M, 2.75
DAVIS 1.6 NNW, Yolo, CA02, -121.751, 38.574, 57, M, 2.84
ALBANY 1.7 E, Alameda, CA04, -122.296, 37.895, 55, M, 3.28
WALNUT CREEK 2.3 WSW, Contra Costa, CA04, -122.081, 37.891, 252, M, 3.60
TRINIDAD 0.2 NE, Humboldt, CA01, -124.140, 41.059, 180, M, 5.93
LONG BEACH 1.1 SE, Los Angeles, CA06, -118.147, 33.777, 48, M, 0.18
RANCHO PALOS VERDES 1.3 NNW, Los Angeles, CA06, -118.370, 33.775, 1014, M, 0.33
NEWCASTLE 0.4 SSW, Placer, CA02, -121.137, 38.868, 824, M, 5.10
RIVERSIDE 5.8 E, Riverside, CA06, -117.296, 33.941, 1536, M, 0.02
LA MESA 0.9 SW, San Diego, CA06, -117.028, 32.760, 528, M, 0.00
SAN MARCOS 2.3 SSW, San Diego, CA06, -117.187, 33.105, 961, M, 0.00
JACUMBA 0.3 NNW, San Diego, CA07, -116.190, 32.621, 2821, M, 0.00
MILLVILLE 3.6 SW, Shasta, CA02, -122.173, 40.545, 506, M, 5.05
SANTA ROSA 2.3 NW, Sonoma, CA01, -122.733, 38.470, 137, M, 4.51
HEALDSBURG 2.9 N, Sonoma, CA01, -122.864, 38.661, 177, M, 5.71
SANTA ROSA 1.7 E, Sonoma, CA01, -122.669, 38.449, 220, M, 4.31
FAIRFIELD 5.9 WSW, Solano, CA01, -122.143, 38.222, 3303, M, 3.48
LUCERNE VALLEY 2.7 SSE, San Bernardino, CA07, -116.949, 34.407, 3387, M, 0.00
THOUSAND OAKS 2.7 NW, Ventura, CA06, -118.897, 34.222, 681, M, 0.13
STATE LINE, Modoc, CA01, -120.720, 41.990, 5680, 39.7, 3.60
BIG PINE 0.5 ENE, Inyo, CA07, -118.288, 37.169, 3972, M, 1.18
SANTA ANA 2.0 N, Orange, CA06, -117.888, 33.766, 110, M, 0.09
POWAY 3.9 NNW, San Diego, CA06, -117.046, 33.036, 648, M, 0.00
SAN DIEGO 7.8 SW, San Diego, CA06, -117.246, 32.750, 24, M, 0.00
UPLAND 1.8 NNE, San Bernardino, CA06, -117.649, 34.144, 1779, M, 0.13
MAXWELL 5.1 N, Colusa, CA02, -122.177, 39.349, 91, M, 1.40
BISHOP 1.8 NW, Inyo, CA07, -118.423, 37.384, 4206, M, 1.01
LARKSPUR 0.3 WSW, Marin, CA01, -122.535, 37.940, 9, M, 3.60
NAPA 2.0 E, Napa, CA01, -122.263, 38.301, 219, M, 3.63
HUNTINGTON BEACH 2.0 ESE, Orange, CA06, -117.974, 33.685, 13, M, 0.12
RANCHO CORDOVA 1.5 SE, Sacramento, CA02, -121.281, 38.580, 104, M, 5.44
SANTA BARBARA 6.6 NW, Santa Barbara, CA06, -119.790, 34.505, 2675, M, 0.56
LOMITA 0.6 SE, Los Angeles, CA06, -118.310, 33.787, 110, M, 0.93
El Cajon Area, -, -, -, -, -, 65.8, 0.00
Hanford Area, -, -, -, -, -, 61.4, 1.03
El Centro Area, -, -, -, -, -, 74.6, 0.00
Madera Area, -, -, -, -, -, 60.9, 0.47
Merced Area, -, -, -, -, -, 59.0, 1.15
San Jose Area, -, -, -, -, -, 60.1, 1.68
MODESTO IRRIGATION DISTRICT, Stanislaus, CA05, -120.003, 37.644, 88, 62.8, 1.48
GRASS VALLEY 1.3 N, Nevada, CA02, -121.058, 39.241, 2761, M, 7.62
BIG PINE 1.0 NW, Inyo, CA07, -118.305, 37.178, 4010, M, 1.28
SQUAW VALLEY 0.6 SE, Fresno, CA05, -119.187, 36.689, 1309, M, 2.71
SAN DIEGO 1.8NE, San Diego, CA06, -117.133, 32.722, 220, M, T
SAN RAMON 1.7 SSE, Contra Costa, CA04, -121.943, 37.733, 412, M, 2.20
BODEGA BAY 1.3 NW, Sonoma, CA01, -123.047, 38.335, 87, M, 3.98
DAVIS 0.7 NNE, Yolo, CA02, -121.729, 38.563, 44, M, 2.53
POWAY 4.5NW, San Diego, CA06, -117.067, 33.018, 496, M, 0.00
COTATI 1.0 SSE, Sonoma, CA01, -122.704, 38.314, 192, M, 3.23
EUREKA 0.7 S, Humboldt, CA01, -124.158, 40.785, 151, M, 6.16
LAKEPORT 0.6 N, Lake, CA02, -122.922, 39.051, 1406, M, 3.40
MARICOPA 0.4 WNW, Kern, CA05, -119.407, 35.063, 906, M, 0.18
CORNING 12.4 W, Tehama, CA02, -122.415, 39.930, 538, M, 3.20
PLACERVILLE 6.6 ESE, El Dorado, CA05, -120.691, 38.680, 2587, M, 6.03
MENDOCINO 2.7 NNE, Mendocino, CA01, -123.776, 39.342, 421, M, 5.80
ROHNERT PARK 3.1 ENE, Sonoma, CA01, -122.650, 38.372, 668, M, 4.21
PLEASANTON 2.3 NNE, Alameda, CA04, -121.865, 37.700, 348, M, 2.10
HOLLISTER 5.6 NE, San Benito, CA04, -121.340, 36.922, 385, M, 1.45
MCARTHUR 16.0 SE, Lassen, CA02, -121.178, 40.890, 4178, M, 3.08
CORNING 1.3 ESE, Tehama, CA02, -122.159, 39.921, 303, M, 2.30
HEMET 1.6 N, Riverside, CA06, -116.994, 33.754, 1553, M, 0.00
RICHMOND 3.6 SE, Contra Costa, CA04, -122.316, 37.913, 98, M, 3.10
SANTEE 2.4NNE, San Diego, CA06, -116.976, 32.874, 509, M, 0.00
FRESNO 7.2 NNE, Fresno, CA05, -119.744, 36.877, 386, M, 1.25
ROSEVILLE 1.4 NNW, Placer, CA02, -121.299, 38.780, 157, M, 3.67
MID-CITY SAN DIEGO 0.5W, San Diego, CA06, -117.069, 32.765, 462, M, T
BENICIA 1.3 SW, Solano, CA01, -122.169, 38.056, 9, M, 2.58
WINCHESTER 6.5 S, Riverside, CA06, -117.091, 33.615, 1422, M, 0.00
LAKE MADERA 1.3 NNE, Madera, CA05, -119.984, 37.037, 359, M, 0.90
BISHOP 1.6 NW, Inyo, CA07, -118.415, 37.385, 4183, M, 0.98
GILROY 2.0 S, Santa Clara, CA04, -121.572, 36.981, 221, M, 2.63
FELTON 4.0 NNE, Santa Cruz, CA04, -122.049, 37.098, 1071, M, 4.87
MARIPOSA 3.6 E, Mariposa, CA05, -119.902, 37.482, 2474, M, 3.17
PETROLIA 0.6 SSE, Humboldt, CA01, -124.282, 40.317, 92, M, 10.02
WHITETHORN 1.4 NW, Humboldt, CA01, -123.960, 40.039, 1005, M, 12.52
FORT BRAGG 3.5 S, Mendocino, CA01, -123.802, 39.391, 211, M, 4.48
PORTOLA HILLS 1.7 WNW, Orange, CA06, -117.660, 33.690, 997, M, 0.03
LAGUNA HILLS 1.8 E, Orange, CA06, -117.679, 33.598, 448, M, 0.01
CLAIREMONT 3.7SSE, San Diego, CA06, -117.187, 32.781, 307, M, 0.01
COTTONWOOD 1.0 NW, Shasta, CA02, -122.294, 40.400, 499, M, 4.42
FAIRFAX 0.7 N, Marin, CA01, -122.594, 37.999, 196, M, 4.99
LAKE CALIFORNIA .4 NW, Tehama, CA02, -122.200, 40.352, 372, M, 3.33
RIVERSIDE 0.0 W, Riverside, CA06, -117.398, 33.940, 869, M, 0.09
JACKSON 0.8 SSE, Amador, CA05, -120.769, 38.339, 1355, M, 4.89
SQUAW VALLEY 3.1 ESE, Fresno, CA05, -119.139, 36.686, 2492, M, 3.12
SAN RAFAEL 2.5 W, Marin, CA01, -122.551, 37.985, 126, M, 0.08
ARTESIA 0.5 W, Los Angeles, CA06, -118.089, 33.868, 59, M, 0.10
GUERNEVILLE 0.8 N, Sonoma, CA01, -122.999, 38.513, 58, M, 5.25
BEAUMONT 2.2 NNW, Riverside, CA06, -116.992, 33.961, 2644, M, 0.00
BISHOP 1.4 WNW, Inyo, CA07, -118.418, 37.379, 4203, M, 1.02
NEWARK 1.2 ENE, Alameda, CA04, -122.010, 37.527, 30, M, 1.82
SMARTSVILLE 2.4 S, Yuba, CA02, -121.291, 39.173, 859, M, 3.73
LOS ALTOS 1.8 SSE, Santa Clara, CA04, -122.084, 37.345, 277, M, 1.80
SAN MARCOS 3.3 WSW, San Diego, CA06, -117.228, 33.123, 587, M, 0.02
TRACY 1.1 SSW, San Joaquin, CA05, -121.440, 37.723, 78, M, 0.97
CYPRESS 1.0 W, Orange, CA06, -118.055, 33.817, 28, M, 0.11
DEL MAR 0.5 NNW, San Diego, CA06, -117.265, 32.973, 9, M, 0.02
SANTA BARBARA 3.0 W, Santa Barbara, CA06, -119.773, 34.436, 79, M, 0.30
SANTA CLARITA 3.1 WSW, Los Angeles, CA06, -118.557, 34.390, 1251, M, 0.10
PALERMO 2.7 SE, Butte, CA02, -121.500, 39.406, 276, M, 3.87
LAGUNA BEACH 0.8 SSE, Orange, CA06, -117.757, 33.529, 770, M, 0.14
SONOMA 1.6 WNW, Sonoma, CA01, -122.488, 38.296, 103, M, 3.40
VALLEJO 5.8 NE, Solano, CA01, -122.179, 38.159, 465, M, 2.30
AUBURN 4.8 N, Placer, CA02, -121.092, 38.960, 1445, M, 4.50
TEMPLETON 0.4 ENE, San Luis Obispo, CA04, -120.701, 35.555, 786, M, 1.15
ESCONDIDO 3.3 WNW, San Diego, CA06, -117.121, 33.160, 763, M, 0.00
N CLAIREMONT 0.6SSE, San Diego, CA06, -117.199, 32.826, 341, M, 0.01
ATASCADERO 3.1 WNW, San Luis Obispo, CA04, -120.738, 35.503, 1403, M, 3.55
REDWOOD CITY 3.3 SSW, San Mateo, CA04, -122.234, 37.474, 31, M, 2.23
PETALUMA 1.8 WSW, Sonoma, CA01, -122.656, 38.233, 157, M, 2.24
CAZADERO 6.6 WNW, Sonoma, CA01, -123.200, 38.562, 919, M, 7.32
TWAIN HARTE 1.6 SW, Tuolumne, CA05, -120.253, 38.024, 3231, M, 7.33
TUOLUMNE CITY 2.0 N, Tuolumne, CA05, -120.237, 37.992, 2915, M, 6.54
PORT HUENEME 1.4 NNW, Ventura, CA06, -119.214, 34.181, 14, M, 0.18
THOUSAND OAKS 2.3 NE, Ventura, CA06, -118.837, 34.215, 1093, M, 0.20
GUALALA 0.5 NW, Mendocino, CA01, -123.535, 38.770, 122, M, 5.37
PLEASANT HILL 1.1 ENE, Contra Costa, CA04, -122.056, 37.959, 43, M, 2.45
WHITMORE 4.1 NNE, Shasta, CA02, -121.873, 40.680, 2693, M, 8.83
DEL MONTE FOREST 1.6 ESE, Monterey, CA04, -121.918, 36.579, 686, M, 1.92
SACRAMENTO 11.8 NE, Sacramento, CA02, -121.331, 38.696, 161, M, 4.17
COLUMBIA 1.6 NW, Tuolumne, CA05, -120.425, 38.042, 2326, M, 6.88
BAKERSFIELD 6.1 WSW, Kern, CA05, -119.108, 35.331, 370, M, 0.34
WALKER BASIN 0.9 E, Kern, CA05, -118.507, 35.409, 3435, M, 0.30
LAKE OF THE WOODS 0.2 NNE, Kern, CA05, -118.996, 34.820, 5183, M, 0.00
ESCONDIDO 2.2 W, San Diego, CA06, -117.108, 33.131, 726, M, T
KNEELAND 3.4 WNW, Humboldt, CA01, -124.038, 40.799, 1375, M, 3.12
AUBERRY 1.1 WSW, Fresno, CA05, -119.510, 37.070, 2000, M, 3.23
PAYNES CREEK 7.9 NNW, Shasta, CA02, -121.996, 40.432, 973, M, 0.88
Crescent City Area, -, -, -, -, -, 50.6, 8.76
Escondido Area, -, -, -, -, -, 66.4, 0.00
Sacramento Downtown Area, -, -, -, -, -, 61.0, 3.36
Tahoe City Area, -, -, -, -, -, 38.1, 4.71
Ukiah Area, -, -, -, -, -, 55.4, 3.74
SHELL BEACH 0.2 ENE, San Luis Obispo, CA04, -120.669, 35.155, 74, M, 1.05
OCCIDENTAL 1.6 NW, Sonoma, CA01, -122.956, 38.413, 801, M, 5.64
SANTA ROSA ISLAND CALIFORNIA, Santa Barbara, CA06, -120.078, 33.978, 1298, 55.4, M
SANTA ROSA PLATEAU CALIFORNIA, Riverside, CA06, -117.231, 33.529, 1980, 62.5, M
SANTA ROSA CALIFORNIA, Sonoma, CA01, -122.712, 38.479, 576, 57.1, M
STAMPEDE CALIFORNIA, Sierra, CA03, -120.075, 39.483, 6867, 40.1, M
STONYFORD CALIFORNIA, Colusa, CA02, -122.575, 39.367, 1200, 54.5, M
SUGARLOAF (SHF) CALIFORNIA, Shasta, CA02, -122.438, 40.917, 4200, 48.7, M
SPRING VALLEY CALIFORNIA, San Mateo, CA04, -122.436, 37.563, 1075, 53.7, M
TANBARK CALIFORNIA, Los Angeles, CA06, -117.761, 34.207, 2600, 60.1, M
TEMESCAL (LPF) CALIFORNIA, Ventura, CA06, -118.756, 34.481, 1140, 63.1, M
THOMES CREEK CALIFORNIA, Tehama, CA02, -122.610, 39.864, 1040, 58.0, M
TIMBER MOUNTAIN CALIFORNIA, Modoc, CA01, -121.298, 41.629, 4960, 41.5, M
LAS TRAMPAS CALIFORNIA, Contra Costa, CA04, -122.067, 37.834, 1760, 55.5, M
TRINITY CAMP CALIFORNIA, Trinity, CA01, -122.804, 40.786, 3308, 46.5, M
TRIMMER CALIFORNIA, Fresno, CA05, -119.305, 36.911, 1540, 58.5, M
UHL / HOT SPRINGS, Tulare, CA05, -118.633, 35.889, 3720, 51.7, M
UNDERWOOD CALIFORNIA, Trinity, CA01, -123.495, 40.722, 2600, 48.1, M
VALLEY CENTER CALIFORNIA, San Diego, CA06, -117.009, 33.237, 1483, 62.5, M
VAN BREMMER CALIFORNIA, Siskiyou, CA01, -121.794, 41.643, 4928, 40.9, M
VALYERMO CALIFORNIA, Los Angeles, CA07, -117.851, 34.446, 3780, 57.2, M
VANDENBERG CALIFORNIA, Santa Barbara, CA06, -120.486, 34.759, 1050, 57.8, M
WALKER CALIFORNIA, Mono, CA03, -119.459, 38.565, 5440, 49.0, M
WALKER PASS CALIFORNIA, Kern, CA05, -118.057, 35.665, 5572, 53.7, M
WARM SPRINGS CALIFORNIA, Los Angeles, CA06, -118.579, 34.596, 4930, 61.2, M
WEED AIRPORT CALIFORNIA, Siskiyou, CA01, -122.454, 41.479, 2930, 47.7, M
WESTWOOD CALIFORNIA, Lassen, CA02, -120.900, 40.307, 5800, 40.0, M
WHITE CLOUD CALIFORNIA, Nevada, CA02, -120.837, 39.317, 4320, 49.5, M
WHITTIER HILLS CALIFORNIA, Los Angeles, CA06, -118.010, 33.984, 950, 65.4, M
WHITMORE CALIFORNIA, Shasta, CA02, -121.899, 40.619, 2417, 51.8, M
WILEY RIDGE CALIFORNIA, Ventura, CA06, -118.841, 34.372, 1645, 62.2, M
WOFFORD HEIGHTS CALIFORNIA, Kern, CA05, -118.499, 35.722, 3150, 55.2, M
WOLVERTON CALIFORNIA, Tulare, CA05, -118.703, 36.445, 5240, 51.1, M
WOODACRE CALIFORNIA, Marin, CA01, -122.645, 37.991, 1400, 54.6, M
WHITAKER PEAK CALIFORNIA, Los Angeles, CA06, -118.740, 34.569, 4120, 56.9, M
WHITE WOLF CALIFORNIA, Tuolumne, CA05, -119.650, 37.851, 8025, 37.7, M
YOLLA BOLLA CALIFORNIA, Trinity, CA01, -123.066, 40.338, 4524, 45.0, M
YUCCA VALLEY CALIFORNIA, San Bernardino, CA07, -116.408, 34.123, 3260, 62.1, M
YUROK CALIFORNIA, Humboldt, CA01, -123.857, 41.290, 495, 53.0, M
HAGAN'S MEADOW, El Dorado, CA03, -119.940, 38.850, 7776, 36.6, 5.30
BLUE LAKES, Alpine, CA05, -119.920, 38.610, 8057, 33.9, 11.30
POISON FLAT, Alpine, CA03, -119.630, 38.510, 7736, 36.5, 5.90
SONORA PASS, Mono, CA03, -119.600, 38.310, 8827, 35.2, 6.60
LEAVITT MEADOWS, Mono, CA03, -119.550, 38.300, 7198, 39.5, 6.10
VIRGINIA LAKES RIDGE, Mono, CA03, -119.230, 38.070, 9445, 35.4, 4.30
LOBDELL LAKE, Mono, CA03, -119.370, 38.440, 9233, 33.5, 4.00
EBBETTS PASS, Alpine, CA03, -119.800, 38.550, 8765, 35.5, 9.80
HEAVENLY VALLEY, El Dorado, CA03, -119.920, 38.920, 8582, 34.1, 6.10
LEAVITT LAKE, Mono, CA03, -119.610, 38.280, 9617, 33.2, 10.20
SPRATT CREEK, Alpine, CA03, -119.820, 38.670, 6115, 42.5, 6.20
MONITOR PASS, Alpine, CA03, -119.610, 38.670, 8310, 36.7, 5.00
BURNSIDE LAKE, Alpine, CA03, -119.890, 38.720, 8129, 33.3, 8.00
SUMMIT MEADOW, Mono, CA03, -119.540, 38.400, 9313, 33.4, 3.40
FORESTDALE CREEK, Alpine, CA03, -119.960, 38.680, 8017, 36.8, 10.60
HORSE MEADOW, Alpine, CA03, -119.890, 38.840, 8557, 34.8, 4.00
CARSON PASS, Alpine, CA02, -119.990, 38.690, 8353, 35.1, 6.90
CROWDER FLAT, Modoc, CA01, -120.750, 41.890, 5170, 41.0, 2.70
CEDAR PASS, Modoc, CA02, -120.300, 41.580, 7030, 36.5, 5.60
DISMAL SWAMP, Modoc, CA03, -120.180, 41.990, 7360, 34.0, 8.30
ADIN MTN, Modoc, CA02, -120.790, 41.240, 6190, 37.4, 5.30
INDEPENDENCE CREEK, Sierra, CA03, -120.280, 39.490, 6456, 38.2, 4.20
INDEPENDENCE CAMP, Sierra, CA03, -120.290, 39.450, 7003, 36.6, 5.20
INDEPENDENCE LAKE, Nevada, CA03, -120.310, 39.430, 8352, 34.6, 8.80
TRUCKEE #2, Placer, CA03, -120.180, 39.300, 6509, 40.7, 5.60
WARD CREEK #3, Placer, CA03, -120.220, 39.140, 6655, 39.3, 8.30
TAHOE CITY CROSS, Placer, CA03, -120.150, 39.170, 6797, 39.5, 5.40
SQUAW VALLEY G.C., Placer, CA03, -120.260, 39.190, 8029, 35.4, 8.60
CSS LAB, Nevada, CA02, -120.370, 39.330, 6855, 38.1, 12.50
RUBICON #2, El Dorado, CA03, -120.130, 39.000, 7689, 38.0, 6.40
ECHO PEAK, El Dorado, CA03, -120.080, 38.850, 7670, 37.2, 9.60
FALLEN LEAF, El Dorado, CA03, -120.050, 38.930, 6236, 40.3, 5.50
BEAR VALLEY F.D., Kern, CA01, -118.644, 35.166, 4100, 48.8, 0.80
WASCO 0.8 SSW, Kern, CA05, -119.348, 35.583, 325, M, 0.00
NEVADA CITY 1.7 SSE, Nevada, CA02, -121.006, 39.238, 3168, M, 6.42
LA MESA 2.6E, San Diego, CA06, -116.979, 32.770, 1014, M, T
BERKELEY 4.0 E, Alameda, CA04, -122.226, 37.857, 1148, M, 3.86
CHESTER 0.9 NNE, Plumas, CA02, -121.225, 40.311, 4532, M, 1.45
CARLSBAD 1.3ENE, San Diego, CA06, -117.331, 33.166, 194, M, 0.00
SAN MATEO 1.2 SW, San Mateo, CA04, -122.329, 37.550, 114, M, 2.30
RED BLUFF 4.9 SE, Tehama, CA02, -122.175, 40.124, 265, M, 3.24
CHICO 0.2 ESE, Butte, CA02, -121.803, 39.753, 257, M, 3.86
CRESCENT CITY 7.8 NNE, Del Norte, CA01, -124.144, 41.862, 95, M, 12.95
MISSION VIEJO 3.9 NNE, Orange, CA06, -117.626, 33.665, 1051, M, 0.03