Name, County, ClimateDivision, Longitude, Latitude, Elevation, MeanAvgTemperature, TotalPrecipitation
SAN GABRIEL DAM FC425B-E, Los Angeles, CA06, -117.861, 34.205, 1481, M, 0.00
VAN NUYS AP, Los Angeles, CA06, -118.491, 34.212, 785, 78.5, 0.00
CAMARILLO AP, Ventura, CA06, -119.088, 34.211, 71, 67.7, 0.00
OXNARD VENTURA COUNTY AP, Ventura, CA06, -119.204, 34.200, 39, 63.8, T
PARKER RESRVOIR, San Bernardino, CA07, -114.171, 34.290, 738, 96.8, 0.01
BIG BEAR LAKE, San Bernardino, CA06, -116.917, 34.243, 6753, 64.2, 0.00
BIG TUJUNGA DAM FC46, Los Angeles, CA06, -118.188, 34.295, 2326, M, 0.00
PACOIMA DAM FC33A-E, Los Angeles, CA06, -118.400, 34.329, 1550, M, 0.00
PIRU 2 ESE, Ventura, CA06, -118.757, 34.406, 712, M, 0.00
SANTA BARBARA MUNI AP, Santa Barbara, CA06, -119.842, 34.424, 8, 64.2, 0.00
JUNCAL DAM, Santa Barbara, CA06, -119.507, 34.491, 2260, M, 0.00
CULVER CITY, Los Angeles, CA06, -118.414, 34.005, 92, 69.2, 0.00
SANTA MONICA MUNICIPAL AP, Los Angeles, CA06, -118.447, 34.021, 175, 67.0, 0.00
ONTARIO INTL AP, San Bernardino, CA06, -117.577, 34.053, 924, 78.7, 0.00
COVINA CITY YARD FC387B, Los Angeles, CA06, -117.880, 34.092, 607, M, 0.00
U C L A, Los Angeles, CA06, -118.443, 34.070, 430, 68.7, 0.00
IRON MOUNTAIN, San Bernardino, CA07, -115.122, 34.147, 922, 96.7, 0.00
TWENTYNINE PALMS, San Bernardino, CA07, -116.037, 34.128, 1975, 90.9, 0.00
JOSHUA TREE, San Bernardino, CA07, -116.275, 34.147, 2563, 85.5, 0.00
SAN GABRIEL FIRE DEPT, Los Angeles, CA06, -118.100, 34.084, 363, M, 0.00
POINT MUGU NF, Ventura, CA06, -119.123, 34.124, 12, 64.5, T
ALTADENA, Los Angeles, CA06, -118.138, 34.182, 1127, M, 0.00
SAN GABRIEL CANYON PH, Los Angeles, CA06, -117.908, 34.155, 744, M, 0.00
WOODLAND HILLS PIERCE COLLEGE, Los Angeles, CA06, -118.574, 34.182, 790, 76.9, 0.00
VICTORVILLE, San Bernardino, CA07, -117.293, 34.529, 2880, 81.0, 0.00
GIBRALTAR DAM NO. 2, Santa Barbara, CA06, -119.682, 34.523, 1558, 70.6, 0.00
PALMDALE, Los Angeles, CA07, -118.094, 34.588, 2612, M, 0.00
SAUGUS POWER PLANT 1, Los Angeles, CA06, -118.454, 34.590, 2161, M, 0.00
CACHUMA LAKE, Santa Barbara, CA06, -119.982, 34.582, 789, 71.8, 0.00
SALSIPUEDES GAGING STATION, Santa Barbara, CA06, -120.408, 34.585, 254, M, 0.00
PALMDALE AP, Los Angeles, CA07, -118.083, 34.629, 2509, 81.8, 0.00
LOMPOC, Santa Barbara, CA06, -120.451, 34.654, 75, 62.4, 0.00
LOMPOC AP, Santa Barbara, CA06, -120.467, 34.667, 88, 62.2, T
LANCASTER, Los Angeles, CA06, -118.213, 34.741, 2338, 82.0, 0.00
SANDBERG, Los Angeles, CA06, -118.724, 34.744, 4510, 75.2, 0.00
LEBEC, Kern, CA05, -118.865, 34.833, 3575, 73.7, 0.00
NEW CUYAMA FIRE STATION, Santa Barbara, CA06, -119.683, 34.946, 2160, 76.7, 0.00
TWITCHELL DAM, Santa Barbara, CA06, -120.321, 34.988, 582, 64.9, 0.02
SALINAS DAM, San Luis Obispo, CA04, -120.504, 35.337, 1392, M, 0.00
RANDSBURG, Kern, CA07, -117.652, 35.369, 3570, 82.2, 0.00
SANTA MARGARITA BOOST, San Luis Obispo, CA04, -120.637, 35.374, 1148, M, 0.00
MORRO BAY FIRE DEPT, San Luis Obispo, CA04, -120.845, 35.367, 118, M, 0.00
BAKERSFIELD AP, Kern, CA05, -119.055, 35.434, 490, 85.5, 0.00
BUTTONWILLOW, Kern, CA05, -119.470, 35.403, 225, 82.2, 0.00
GLENNVILLE, Kern, CA05, -118.701, 35.727, 3140, 73.4, 0.00
TRONA, San Bernardino, CA07, -117.391, 35.764, 1695, 89.7, 0.00
DELANO, Kern, CA05, -119.260, 35.768, 302, 83.4, 0.00
KETTLEMAN CITY, Kings, CA05, -119.960, 36.007, 240, 82.3, 0.00
CORCORAN IRRIGATION DIST., Kings, CA05, -119.582, 36.098, 200, 81.3, 0.00
COALINGA, Fresno, CA05, -120.361, 36.136, 670, 84.4, 0.00
KING CITY, Monterey, CA04, -121.138, 36.207, 320, 69.0, 0.00
LINDSAY, Tulare, CA05, -119.054, 36.203, 435, 81.0, 0.00
BIG SUR STATION, Monterey, CA04, -121.780, 36.247, 200, 62.8, 0.00
VISALIA, Tulare, CA05, -119.300, 36.328, 303, 81.6, 0.00
FIVE POINTS 5 SSW, Fresno, CA05, -120.156, 36.364, 285, 81.7, 0.00
THREE RIVERS EDISON PH 1, Tulare, CA05, -118.862, 36.465, 1140, 82.1, 0.00
PINNACLES NATIONAL PARK, San Benito, CA04, -121.182, 36.482, 1307, 71.6, 0.00
CARMEL VALLEY, Monterey, CA04, -121.724, 36.481, 480, 64.7, T
LODGEPOLE, Tulare, CA05, -118.732, 36.604, 6735, 60.7, T
PANOCHE 2 W, San Benito, CA05, -120.884, 36.607, 1400, M, 0.00
SALINAS AP, Monterey, CA04, -121.609, 36.664, 73, 64.8, 0.02
LOS BANOS ARBURUA RANCH, Merced, CA05, -120.939, 36.875, 843, M, 0.00
HOLLISTER 2, San Benito, CA04, -121.421, 36.848, 275, 65.7, 0.00
BALCH POWER HOUSE, Fresno, CA05, -119.088, 36.909, 1735, 81.6, 0.00
WATSONVILLE WATERWORKS, Santa Cruz, CA04, -121.769, 36.931, 95, 61.5, 0.00
FRIANT GOVERNMENT CAMP, Fresno, CA05, -119.707, 36.997, 410, 81.9, 0.00
MADERA, Madera, CA05, -120.038, 36.954, 270, 81.4, 0.00
GILROY, Santa Clara, CA04, -121.561, 37.003, 194, 71.3, 0.00
LOS BANOS, Merced, CA05, -120.867, 37.056, 120, 78.3, 0.00
BEN LOMOND NO. 4, Santa Cruz, CA04, -122.080, 37.086, 420, 69.8, 0.02
ASPENDELL, Inyo, CA01, -118.599, 37.232, 8470, 64.6, 0.05
NORTH FORK RS, Madera, CA05, -119.510, 37.233, 2645, 75.7, 0.00
NEWMAN, Stanislaus, CA05, -121.018, 37.281, 90, 81.4, 0.00
MOUNT HAMILTON, Santa Clara, CA04, -121.635, 37.343, 4220, 72.7, 0.00
BISHOP AIRPORT, Inyo, CA07, -118.359, 37.371, 4110, 78.8, T
TURLOCK #2, Stanislaus, CA05, -120.846, 37.502, 103, 78.8, 0.00
REDWOOD CITY, San Mateo, CA04, -122.239, 37.477, 31, 69.1, 0.00
HALF MOON BAY, San Mateo, CA04, -122.443, 37.473, 27, 59.2, 0.03
SO ENTRANCE YOSEMITE N.P., Mariposa, CA05, -119.633, 37.512, 5047, 66.4, 0.00
NEWARK, Alameda, CA04, -122.032, 37.515, 10, 67.1, 0.00
EXCHEQUER DAM, Mariposa, CA05, -120.267, 37.585, 442, 82.5, 0.00
MODESTO AP, Stanislaus, CA05, -120.955, 37.625, 87, 79.5, 0.00
HAYWARD AIR TERMINAL, Alameda, CA04, -122.121, 37.659, 31, 66.6, 0.00
TRACY CARBONA, San Joaquin, CA05, -121.347, 37.682, 135, 75.4, 0.00
LIVERMORE MUNICIPAL AP, Alameda, CA04, -121.815, 37.693, 393, 72.6, 0.00
OAKLAND INTERNATIONAL AIRPORT, Alameda, CA04, -122.233, 37.718, 5, 66.1, 0.00
UPPER SAN LEANDRO FILTERS, Alameda, CA04, -122.167, 37.772, 394, M, 0.00
SAN FRANCISCO DOWNTOWN, San Francisco, CA04, -122.427, 37.771, 150, 60.4, 0.03
SAN FRANCISCO OCEANSIDE, San Francisco, CA04, -122.505, 37.728, 8, 53.4, 0.01
GROVELAND 2, Tuolumne, CA05, -120.226, 37.844, 2800, 74.2, 0.00
TRACY PUMPING PLANT, Alameda, CA05, -121.583, 37.796, 61, 78.5, 0.00
OAKLAND MUSEUM, Alameda, CA04, -122.264, 37.798, 30, 64.3, 0.00
TUOLUMNE MEADOWS R.S., Tuolumne, CA05, -119.344, 37.877, 8694, 55.6, 0.52
MOUNT DIABLO JUNCTION, Contra Costa, CA04, -121.930, 37.879, 2170, 72.0, 0.00
STOCKTON AP, San Joaquin, CA05, -121.226, 37.890, 27, 78.1, 0.00
RICHMOND, Contra Costa, CA04, -122.377, 37.919, 20, 63.2, 0.00
MUIR WOODS, Marin, CA01, -122.569, 37.898, 220, M, 0.06
HETCH HETCHY, Tuolumne, CA05, -119.783, 37.961, 3870, 72.6, 0.00
CHERRY VALLEY DAM, Tuolumne, CA05, -119.916, 37.975, 4765, 74.3, 0.00
SONORA, Tuolumne, CA05, -120.387, 37.967, 1675, 75.3, 0.00
ANTIOCH PUMPING PLANT #3, Contra Costa, CA05, -121.752, 37.983, 60, 75.7, 0.00
CONCORD BUCHANAN FIELD, Contra Costa, CA04, -122.053, 37.992, 23, 73.7, 0.00
KENTFIELD, Marin, CA01, -122.545, 37.957, 145, 67.2, 0.00
BODIE CALIFORNIA STATE HISTORIC PARK, Mono, CA03, -119.014, 38.212, 8370, 58.7, 0.05
ACAMPO 5NE, San Joaquin, CA05, -121.201, 38.218, 87, M, 0.00
NAPA COUNTY AIRPORT, Napa, CA04, -122.280, 38.208, 16, 66.5, 0.00
BRIDGEPORT, Mono, CA03, -119.229, 38.258, 6470, 60.3, 0.45
CALAVERAS BIG TREES, Calaveras, CA05, -120.311, 38.277, 4695, 69.2, 0.00
CAMP PARDEE, Calaveras, CA05, -120.843, 38.249, 658, M, 0.00
FAIRFIELD, Solano, CA02, -122.068, 38.274, 40, 73.8, 0.00
SONOMA, Sonoma, CA01, -122.462, 38.299, 97, 70.3, 0.00
SUTTER HILL CDF, Amador, CA05, -120.801, 38.377, 1586, 78.5, 0.00
WEST POINT, Calaveras, CA05, -120.545, 38.378, 2775, M, 0.00
GRATON, Sonoma, CA01, -122.865, 38.431, 200, 67.9, 0.04
OCCIDENTAL, Sonoma, CA01, -122.966, 38.386, 865, 63.3, 0.00
FIDDLETOWN DEXTER RCH, Amador, CA05, -120.698, 38.525, 2170, M, 0.00
SACRAMENTO AP ASOS, Sacramento, CA02, -121.496, 38.507, 19, 76.5, 0.00
WINTERS, Yolo, CA02, -121.978, 38.525, 135, 76.7, 0.00
LAKE SOLANO, Solano, CA02, -122.004, 38.492, 187, 78.8, 0.00
SAINT HELENA, Napa, CA01, -122.471, 38.507, 225, 73.4, 0.00
SACRAMENTO 5 ESE, Sacramento, CA02, -121.418, 38.555, 38, 79.0, 0.00
ANGWIN PACIFIC UNION COLLEGE, Napa, CA01, -122.440, 38.573, 1715, 63.4, 0.00
CALISTOGA, Napa, CA01, -122.578, 38.577, 350, 71.1, 0.00
WOODLAND 1 WNW, Yolo, CA02, -121.794, 38.683, 67, 76.5, 0.00
SACRAMENTO METROPOLITAN AP, Sacramento, CA02, -121.595, 38.701, 24, 76.8, 0.00
PACIFIC HOUSE, El Dorado, CA02, -120.503, 38.758, 3450, 73.0, T
MIDDLETOWN, Lake, CA02, -122.626, 38.748, 1121, M, 0.00
CLOVERDALE, Sonoma, CA01, -123.026, 38.793, 400, 72.0, 0.00
KELSEY 1 N, El Dorado, CA02, -120.821, 38.809, 2000, M, 0.00
SOUTH LAKE TAHOE AP, El Dorado, CA03, -119.996, 38.898, 6257, 61.8, 0.21
GEORGETOWN RS, El Dorado, CA02, -120.801, 38.933, 3001, 77.3, 0.00
AUBURN, Placer, CA02, -121.084, 38.907, 1292, 71.0, 0.00
NICOLAUS #2, Sutter, CA02, -121.545, 38.926, 43, M, 0.00
FORESTHILL RANGER STATION, Placer, CA02, -120.845, 39.010, 3015, M, 0.00
HELL HOLE, Placer, CA02, -120.415, 39.058, 4850, M, 0.00
MARYSVILLE AIRPORT (ASOS), Yuba, CA02, -121.569, 39.102, 62, 78.6, 0.00
UKIAH MUNICIPAL AP, Mendocino, CA01, -123.200, 39.128, 603, 75.7, 0.00
GOLD RUN 4 SW, Placer, CA02, -120.900, 39.150, 3220, M, 0.00
GRASS VALLEY NO. 2, Nevada, CA02, -121.068, 39.204, 2400, 74.3, 0.00
HARRY L. ENGLEBRIGHT DAM, Nevada, CA02, -121.267, 39.237, 800, M, 0.00
COLUSA 2 SSW, Colusa, CA02, -122.027, 39.188, 50, 72.7, 0.00
BLUE CANYON NYACK AP, Placer, CA02, -120.709, 39.276, 5286, 70.5, T
NEVADA CITY, Nevada, CA02, -121.001, 39.247, 2781, 74.7, 0.00
TRUCKEE AIRPORT, Nevada, CA03, -120.139, 39.320, 5900, 63.7, 0.41
COLGATE POWERHOUSE, Yuba, CA02, -121.192, 39.331, 595, M, 0.00
BOCA, Nevada, CA03, -120.094, 39.389, 5575, 62.9, 1.10
POTTER VALLEY POWERHOUSE, Mendocino, CA01, -123.129, 39.362, 1018, 75.4, 0.00
BOWMAN DAM, Nevada, CA02, -120.656, 39.454, 5385, 69.3, 0.00
OROVILLE, Butte, CA02, -121.553, 39.518, 171, 79.4, 0.00
OROVILLE MUNICIPAL AP, Butte, CA02, -121.622, 39.494, 187, 82.4, 0.00
DOWNIEVILLE, Sierra, CA02, -120.824, 39.563, 2915, 71.1, T
STRAWBERRY VALLEY, Yuba, CA02, -121.108, 39.563, 3808, 68.8, 0.00
STONY GORGE RESERVOIR, Glenn, CA02, -122.534, 39.586, 800, 80.1, 0.00
IMPERIAL, Imperial, CA07, -115.567, 32.849, -64, 94.4, 0.00
EL CAPITAN DAM, San Diego, CA06, -116.815, 32.886, 600, M, 0.00
LAKESIDE 2 E, San Diego, CA06, -116.895, 32.854, 690, M, 0.00
POWAY VALLEY, San Diego, CA06, -117.031, 33.020, 648, M, 0.00
JULIAN CDF, San Diego, CA06, -116.592, 33.076, 4215, 73.3, 0.00
CARLSBAD MCCLELLAN PALOMAR AP, San Diego, CA06, -117.277, 33.130, 313, 69.0, 0.00
HENSHAW DAM, San Diego, CA06, -116.761, 33.237, 2700, 71.0, 0.00
VISTA, San Diego, CA06, -117.232, 33.235, 430, 71.2, 0.00
OCEANSIDE MARINA, San Diego, CA06, -117.395, 33.210, 10, 67.3, 0.00
BORREGO DESERT PARK, San Diego, CA07, -116.404, 33.256, 810, 93.3, 0.00
PALOMAR MTN OBSERVATORY, San Diego, CA06, -116.840, 33.378, 5550, 73.8, 0.00
MECCA FIRE STATION, Riverside, CA07, -116.073, 33.570, -183, M, 0.00
BLYTHE ASOS, Riverside, CA07, -114.715, 33.619, 395, 96.2, 0.00
DESERT RESORTS REGIONAL AP, Riverside, CA07, -116.164, 33.632, -118, 93.9, 0.00
PARADISE, Butte, CA02, -121.624, 39.754, 1750, 81.3, 0.00
PORTOLA, Plumas, CA02, -120.472, 39.805, 4850, 66.2, 0.35
DE SABLA, Butte, CA02, -121.611, 39.872, 2710, 77.7, 0.00
BUCKS CREEK, Plumas, CA02, -121.315, 39.937, 1891, M, 0.00
CANYON DAM, Plumas, CA02, -121.089, 40.171, 4560, 68.0, 0.69
CHESTER, Plumas, CA02, -121.242, 40.303, 4530, 67.4, 1.28
MINERAL, Tehama, CA02, -121.609, 40.346, 4875, 62.9, 0.00
COLEMAN FISHERIES STATION, Shasta, CA02, -122.143, 40.400, 420, M, 0.00
VOLTA PH, Shasta, CA02, -121.866, 40.458, 2220, M, 0.00
SCOTIA, Humboldt, CA01, -124.104, 40.483, 136, 60.9, 0.00
MANZANITA LAKE, Shasta, CA02, -121.577, 40.541, 5750, 64.1, 0.59
WHISKEYTOWN RESERVOIR, Shasta, CA02, -122.528, 40.612, 1295, 84.1, 0.00
SHASTA DAM, Shasta, CA02, -122.416, 40.714, 1075, 84.7, 0.03
TRINITY RIVER HATCHERY, Trinity, CA01, -122.795, 40.726, 1861, 76.0, 0.69
BUCKHORN, Shasta, CA02, -121.932, 40.880, 3700, M, 0.00
HAT CREEK, Shasta, CA02, -121.543, 40.932, 3015, 69.9, 0.04
PIT RIVER PH 5, Shasta, CA02, -121.977, 40.987, 1458, M, 0.00
WILLOW CREEK 1 NW, Humboldt, CA01, -123.636, 40.947, 464, 74.1, 0.00
FALL RIVER MILLS, Shasta, CA02, -121.435, 41.008, 3300, M, 0.00
ADIN RANGER STATION, Modoc, CA02, -120.945, 41.193, 4202, M, T
DUNSMUIR TREATMENT PL, Siskiyou, CA02, -122.282, 41.183, 2169, 73.8, 0.26
JESS VALLEY, Modoc, CA02, -120.295, 41.268, 5400, M, 0.15
MCCLOUD, Siskiyou, CA02, -122.138, 41.252, 3233, 67.3, 0.24
SAWYERS BAR RS, Siskiyou, CA01, -123.133, 41.301, 2255, 75.6, M
FORT JONES RS, Siskiyou, CA01, -122.848, 41.601, 2729, 74.5, 0.88
LAVA BEDS NAT MON, Siskiyou, CA01, -121.501, 41.702, 4770, 66.9, 0.00
CRESCENT CITY MCNAMARA AP, Del Norte, CA01, -124.238, 41.784, 56, 55.9, 0.00
OAK KNOLL W. C., Siskiyou, CA01, -122.850, 41.839, 1980, M, 0.41
FORT BIDWELL, Modoc, CA03, -120.157, 41.872, 4739, 69.5, 0.02
GASQUET RS, Del Norte, CA01, -123.965, 41.845, 387, M, 0.00
TULELAKE, Siskiyou, CA01, -121.474, 41.960, 4038, 65.7, 0.00
COPCO NO 1 DAM, Siskiyou, CA01, -122.338, 41.980, 2665, 74.7, 0.00
BARSTOW, San Bernardino, CA07, -117.022, 34.893, 2220, 86.1, 0.00
PEARBLOSSOM, Los Angeles, CA07, -117.897, 34.503, 3101, 81.8, 0.00
EL CAJON, San Diego, CA06, -116.928, 32.801, 495, 75.4, 0.00
MARKLEY COVE, Napa, CA02, -122.124, 38.492, 480, 76.5, 0.00
DEEP CANYON LAB, Riverside, CA07, -116.376, 33.651, 1200, M, 0.00
ELSINORE, Riverside, CA06, -117.346, 33.686, 1268, 78.4, 0.00
SANTA ANA JOHN WAYNE AP, Orange, CA06, -117.867, 33.680, 43, 72.2, T
HAYFIELD PUMPING PLANT, Riverside, CA07, -115.629, 33.704, 1370, 91.0, 0.00
IDYLLWILD FIRE DEPT, Riverside, CA06, -116.707, 33.757, 5380, 70.3, 0.00
SAN JACINTO, Riverside, CA06, -116.975, 33.797, 1525, 79.7, 0.00
HEMET, Riverside, CA06, -116.894, 33.738, 1811, 80.1, 0.00
SANTA ANA FIRE STATION, Orange, CA06, -117.867, 33.744, 135, 74.2, 0.00
EAGLE MOUNTAIN, Riverside, CA07, -115.451, 33.809, 973, 94.0, 0.00
PALM SPRINGS, Riverside, CA07, -116.510, 33.828, 425, M, 0.00
LONG BEACH DAUGHERTY AP, Los Angeles, CA06, -118.147, 33.812, 34, 72.6, 0.00
PALOS VERDES ES FC43D, Los Angeles, CA06, -118.391, 33.800, 220, M, 0.00
FULLERTON MUNICIPAL AP, Orange, CA06, -117.986, 33.872, 86, 75.6, 0.00
MARCH AFB, Riverside, CA06, -117.250, 33.900, 1536, 76.0, 0.00
HAWTHORNE MUNICIPAL AP, Los Angeles, CA06, -118.333, 33.924, 55, 69.3, 0.00
LOS ANGELES INTL AP, Los Angeles, CA06, -118.387, 33.938, 97, 67.7, 0.00
RIVERSIDE FIRE STATION 3, Riverside, CA06, -117.388, 33.951, 840, M, 0.00
RIVERSIDE MUNICIPAL AP, Riverside, CA06, -117.435, 33.953, 845, 78.4, 0.00
CHINO AP, San Bernardino, CA06, -117.625, 33.976, 636, 79.8, 0.00
LORAINE 5 NNE, Kern, CA05, -118.412, 35.384, 4235, 73.4, 0.00
LEE VINING, Mono, CA07, -119.119, 37.957, 6797, 69.7, 0.32
ANAHEIM, Orange, CA06, -117.842, 33.865, 235, 75.9, 0.00
NEW MELONES DAM HQ, Tuolumne, CA05, -120.486, 38.005, 960, 82.0, 0.00
SKYLINE RIDGE PRESERVE, San Mateo, CA04, -122.185, 37.313, 2270, 68.9, 0.01
FREMONT, Alameda, CA04, -122.016, 37.542, 38, 65.7, 0.00
TEHACHAPI 4 SE, Kern, CA05, -118.422, 35.101, 4220, 72.5, 0.00
REDDING CDF, Shasta, CA02, -122.299, 40.519, 502, M, 0.00
VALLEJO, Solano, CA01, -122.187, 38.100, 341, 70.7, 0.00
OXNARD WFO, Ventura, CA06, -119.137, 34.207, 52, 67.1, 0.00
HANFORD MUNICIPAL AP, Kings, CA05, -119.623, 36.311, 249, 81.4, 0.00
RAMONA AIRPORT, San Diego, CA06, -116.916, 33.038, 1385, 71.9, 0.00
VACAVILLE/NUT TREE AP ASOS, Solano, CA02, -121.959, 38.378, 104, 77.2, 0.00
ALTURAS MUNICIPAL AP, Modoc, CA02, -120.561, 41.484, 4383, 67.6, T
MADERA MUNICIPAL AP, Madera, CA05, -120.111, 36.985, 251, 78.9, 0.00
BAKERSFIELD 5 NW, Kern, CA05, -119.051, 35.419, 470, 83.9, 0.00
FRESNO 5 NE, Fresno, CA05, -119.709, 36.767, 338, 84.1, 0.00
OCEANSIDE MUNICIPAL AP, San Diego, CA06, -117.350, 33.219, 30, 69.4, T
SAN DIEGO SEAWORLD, San Diego, CA06, -117.231, 32.765, 14, 69.5, 0.00
ARCATA EUREKA AP, Humboldt, CA01, -124.105, 40.978, 211, 58.8, T
NEWPORT BEACH HARBOR, Orange, CA06, -117.884, 33.603, 10, 67.8, 0.00
ESCONDIDO NO. 2, San Diego, CA06, -117.090, 33.121, 600, 76.6, 0.00
REDDING AP, Shasta, CA02, -122.298, 40.515, 501, 84.1, 0.00
AVALON CATALINA AP, Los Angeles, CA06, -118.415, 33.404, 1565, 67.8, 0.00
SANTA MARIA PUBLIC AP, Santa Barbara, CA06, -120.452, 34.894, 243, 63.9, T
MOUNT SHASTA, Siskiyou, CA02, -122.333, 41.333, 3535, 70.3, 0.48
RED BLUFF MUNI AP, Tehama, CA02, -122.255, 40.152, 354, 83.7, 0.00
NEEDLES AIRPORT, San Bernardino, CA07, -114.618, 34.768, 888, 99.1, 0.00
CHINA LAKE NAF, Kern, CA07, -117.693, 35.688, 2230, 87.5, 0.00
SUSANVILLE 2SW, Lassen, CA03, -120.663, 40.417, 4212, 69.5, 0.01
TEJON RANCHO, Kern, CA05, -118.750, 35.023, 1425, 84.0, 0.00
BURBANK GLENDALE PASADENA AP, Los Angeles, CA06, -118.365, 34.200, 731, 74.9, 0.00
MORAGA 2.4 NNW, Contra Costa, CA04, -122.138, 37.870, 748, M, 0.00
SMITH RIVER 1.1 SSE, Del Norte, CA01, -124.136, 41.915, 120, M, 0.09
FRESNO 2.4 NW, Fresno, CA05, -119.822, 36.805, 319, M, 0.00
SUSANVILLE 3.5 SSW, Lassen, CA03, -120.674, 40.363, 4347, M, 0.33
AHWAHNEE 2.5 NNW, Madera, CA05, -119.738, 37.400, 2840, M, 0.00
ALBION 4.0 SE, Mendocino, CA01, -123.710, 39.188, 636, M, 0.00
LAYTONVILLE 9.8 NNW, Mendocino, CA01, -123.534, 39.814, 2078, M, 0.00
GRASS VALLEY 1.3 NNE, Nevada, CA02, -121.046, 39.238, 2782, M, 0.00
GRASS VALLEY 2.7 SW, Nevada, CA02, -121.092, 39.194, 2334, M, 0.00
ORANGE 3.0 ENE, Orange, CA06, -117.778, 33.826, 649, M, T
APPLEGATE 0.5 SE, Placer, CA02, -120.986, 38.996, 1983, M, 0.00
ENCINITAS 2.7N, San Diego, CA06, -117.292, 33.076, 188, M, 0.00
SAN DIEGO 13.9N, San Diego, CA06, -117.163, 32.917, 406, M, 0.00
REDDING 2.8 NW, Shasta, CA02, -122.401, 40.602, 661, M, 0.00
DORRIS 0.2 SW, Siskiyou, CA01, -121.923, 41.963, 4249, M, 0.00
HALF MOON BAY 0.7 NW, San Mateo, CA04, -122.445, 37.478, 36, M, 0.04
CAZADERO 5.6 W, Sonoma, CA01, -123.189, 38.532, 1211, M, 0.00
GLEN ELLEN 1.9 NNW, Sonoma, CA01, -122.551, 38.382, 365, M, T
RANCHO CUCAMONGA 1.6 W, San Bernardino, CA06, -117.598, 34.122, 1379, M, 0.00
BARSTOW 4.2 NE, San Bernardino, CA07, -117.018, 34.924, 2170, M, 0.00
SOQUEL 0.8 NE, Santa Cruz, CA04, -121.936, 37.002, 414, M, 0.12
RED BLUFF 6.0 W, Tehama, CA02, -122.352, 40.159, 418, M, 0.00
COTTONWOOD 4.4 ESE, Tehama, CA02, -122.201, 40.369, 567, M, 0.00
COTTONWOOD 9.1 SW, Tehama, CA02, -122.378, 40.282, 639, M, 0.00
COTTONWOOD 3.6 SSW, Tehama, CA02, -122.302, 40.341, 554, M, 0.00
WATSONVILLE MUNICIPAL AIRPORT, Santa Cruz, CA04, -121.790, 36.939, 162, 62.1, 0.02
SANTA ROSA SONOMA CO AP, Sonoma, CA04, -122.811, 38.504, 119, 67.5, T
COARSEGOLD 4SE, Madera, CA05, -119.690, 37.212, 2218, M, 0.00
MORONGO VALLEY NORTH, San Bernardino, CA07, -116.562, 34.086, 3145, M, 0.00
TRUCKEE-TAHOE AP, Nevada, CA03, -120.145, 39.318, 5900, 63.7, 0.41
HEARST CASTLE, San Luis Obispo, CA04, -121.168, 35.684, 1526, 64.0, 0.00
HESPERIA 2E, San Bernardino, CA07, -117.266, 34.421, 3055, 80.0, 0.00
RANCHO BERNARDO, San Diego, CA06, -117.081, 33.022, 690, 71.8, T
OCOTILLO WELLS 2W, San Diego, CA07, -116.169, 33.155, 390, 98.4, 0.00
IRVINE RANCH, Orange, CA06, -117.723, 33.720, 540, 74.5, 0.00
MT. LAGUNA #3, San Diego, CA07, -116.419, 32.867, 5920, 72.8, 0.00
TORRANCE AP, Los Angeles, CA06, -118.342, 33.802, 90, 68.3, 0.00
MERCED 23 WSW, Merced, CA05, -120.882, 37.238, 78, 74.4, 0.00
REDDING 12 WNW, Shasta, CA02, -122.607, 40.651, 1418, 81.3, 0.00
STOVEPIPE WELLS 1 SW, Inyo, CA07, -117.145, 36.602, 84, 102.3, 0.00
RED BLUFF 2.8 N, Tehama, CA02, -122.243, 40.215, 406, M, 0.00
LOS ANGELES DOWNTOWN/USC, Los Angeles, CA06, -118.291, 34.024, 179, 72.2, 0.00
FRESNO YOSEMITE INT'L, Fresno, CA05, -119.720, 36.780, 334, 84.6, 0.00
MONTEREY PENINSUL AP, Monterey, CA04, -121.849, 36.590, 160, 63.2, 0.01
PASO ROBLES MUNICIPAL AP, San Luis Obispo, CA04, -120.629, 35.669, 820, 72.5, 0.00
MONTAGUE SISKIYOU AIRPORT, Siskiyou, CA01, -122.468, 41.774, 2645, 74.7, 0.37
SAN JOSE, Santa Clara, CA04, -121.924, 37.359, 49, 69.7, 0.00
PALM SPRINGS ASOS, Riverside, CA07, -116.504, 33.822, 409, 95.6, 0.00
SAN DIEGO BROWN FIELD, San Diego, CA06, -116.994, 32.576, 521, 70.4, 0.00
Bakersfield Area, -, -, -, -, -, 85.5, 0.00
Bishop Area, -, -, -, -, -, 78.8, T
Los Angeles Downtown Area, -, -, -, -, -, 72.2, 0.00
Eureka Area, -, -, -, -, -, 57.2, 0.03
Fresno Area, -, -, -, -, -, 84.6, 0.00
Los Angeles Airport Area, -, -, -, -, -, 67.7, 0.00
Long Beach Area, -, -, -, -, -, 72.6, 0.00
Redding Area, -, -, -, -, -, 84.1, 0.00
Sacramento Area, -, -, -, -, -, 76.5, 0.00
San Diego Area, -, -, -, -, -, 71.0, 0.00
Stockton Area, -, -, -, -, -, 78.1, 0.00
San Francisco Airport Area, -, -, -, -, -, 63.8, 0.00
Santa Maria Area, -, -, -, -, -, 63.9, T
LEMOORE REEVES NAS, Fresno, CA05, -119.950, 36.333, 232, 80.9, 0.00
COTTONWOOD 3.9 SW, Tehama, CA02, -122.342, 40.358, 447, M, 0.00
CHIRIACO SUMMIT, Riverside, CA07, -115.721, 33.662, 1706, 89.2, 0.00
FALLBROOK 5 NE, San Diego, CA06, -117.190, 33.439, 1140, 73.7, 0.00
SANTA BARBARA 11 W, Santa Barbara, CA06, -119.880, 34.414, 18, 62.9, 0.14
BODEGA 6 WSW, Sonoma, CA01, -123.075, 38.321, 63, 57.4, 0.01
YOSEMITE VILLAGE 12 W, Mariposa, CA05, -119.821, 37.759, 6620, 68.1, 0.00
YUCCA MESA, San Bernardino, CA07, -116.407, 34.218, 3445, 83.7, 0.00
YUCCA VALLEY, San Bernardino, CA07, -116.388, 34.129, 3249, 80.7, 0.00
JOHNSON VALLEY, San Bernardino, CA07, -116.538, 34.359, 3167, 83.4, 0.00
REDONDO BEACH, Los Angeles, CA06, -118.376, 33.834, 142, 68.6, 0.00
FRESNO 3NW, Madera, CA05, -119.801, 36.909, 380, M, 0.00
BURBANK VALLEY PUMP PLANT, Los Angeles, CA06, -118.348, 34.187, 655, 73.4, 0.00
PIEDMONT 1.0 SE, Alameda, CA04, -122.216, 37.812, 372, M, 0.00
CASTRO VALLEY 0.4 NNE, Alameda, CA04, -122.059, 37.717, 536, M, 0.00
PLEASANTON 1.8 SSE, Alameda, CA04, -121.875, 37.648, 351, M, 0.00
PLEASANTON 0.4 ESE, Alameda, CA04, -121.881, 37.670, 344, M, 0.00
MARTINEZ 0.8 SSE, Contra Costa, CA04, -122.108, 37.990, 252, M, 0.00
WALNUT CREEK 1.7 SSE, Contra Costa, CA04, -122.034, 37.878, 243, M, 0.00
LAFAYETTE 1.9 WSW, Contra Costa, CA04, -122.153, 37.888, 518, M, 0.00
MARTINEZ 2.2 SW, Contra Costa, CA04, -122.138, 37.974, 692, M, 0.00
CONCORD 0.8 WNW, Contra Costa, CA04, -122.013, 37.978, 124, M, 0.00
WALNUT CREEK 1.4 SSE, Contra Costa, CA04, -122.028, 37.885, 277, M, 0.00
CRESCENT CITY 5.5 NNE, Del Norte, CA01, -124.148, 41.824, 65, M, T
PLACERVILLE 3.7 SW, El Dorado, CA02, -120.849, 38.695, 1755, M, 0.00
PLACERVILLE 0.9 NE, El Dorado, CA02, -120.785, 38.739, 2036, M, 0.00
CLOVIS 2.9 N, Fresno, CA05, -119.693, 36.861, 382, M, 0.00
HELM 2.7 NNE, Fresno, CA05, -120.089, 36.570, 183, M, 0.00
ARCATA 1.1 NE, Humboldt, CA01, -124.069, 40.881, 420, M, 0.00
MCKINLEYVILLE 2.7 SE, Humboldt, CA01, -124.084, 40.923, 325, M, 0.09
MCKINLEYVILLE 7.3 ESE, Humboldt, CA01, -123.998, 40.896, 366, M, 0.03
TRINIDAD 1.5 NNW, Humboldt, CA01, -124.152, 41.078, 201, M, 0.04
MCKINLEYVILLE 2.3 NE, Humboldt, CA01, -124.086, 40.978, 270, M, 0.06
MIRANDA 4.1 SW, Humboldt, CA01, -123.894, 40.209, 539, M, 0.00
WILLOW CREEK 4.5 NNE, Humboldt, CA01, -123.624, 40.939, 655, M, 0.00
BRIDGEVILLE 5.2 ENE, Humboldt, CA01, -123.701, 40.473, 2675, M, 0.00
FORTUNA 0.1 NW, Humboldt, CA01, -124.141, 40.587, 65, M, 0.00
GARBERVILLE 2.2 SW, Humboldt, CA01, -123.824, 40.077, 415, M, 0.00
EUREKA 2.2 S, Humboldt, CA01, -124.148, 40.764, 194, M, 0.09
BISHOP 1.7 NW, Inyo, CA07, -118.414, 37.388, 4181, M, T
LEMOORE 0.3 SW, Kings, CA05, -119.791, 36.295, 223, M, 0.00
HANFORD 3.6 N, Kings, CA05, -119.653, 36.377, 258, M, 0.00
HANFORD 1.7 WNW, Kings, CA05, -119.674, 36.335, 245, M, 0.00
INYOKERN 9.4 WSW, Kern, CA07, -117.978, 35.635, 4319, M, 0.00
ONYX 2.8 ENE, Kern, CA05, -118.174, 35.702, 3039, M, 0.00
GLENDALE 2.4 WSW, Los Angeles, CA06, -118.295, 34.169, 511, M, 0.00
TORRANCE 2.8 SW, Los Angeles, CA06, -118.337, 33.790, 200, M, 0.00
SHERMAN OAKS 1.7 ENE, Los Angeles, CA06, -118.420, 34.154, 638, M, 0.00
WHITTIER 2.9 WNW, Los Angeles, CA06, -118.066, 33.986, 171, M, 0.00
CANYON COUNTRY 2.6 E, Los Angeles, CA06, -118.427, 34.427, 1617, M, 0.00
SUSANVILLE 3.2 SSW, Lassen, CA03, -120.674, 40.368, 4353, M, 0.25
UKIAH 8.4 NW, Mendocino, CA01, -123.331, 39.221, 2492, M, 0.00
BOONVILLE 2.2 WSW, Mendocino, CA01, -123.408, 39.006, 1061, M, 0.00
ELK 1.8 NNE, Mendocino, CA01, -123.706, 39.105, 147, M, 0.10
UKIAH 1.2 NW, Mendocino, CA01, -123.225, 39.158, 746, M, 0.00
REDWOOD VALLEY 1.5 ENE, Mendocino, CA01, -123.178, 39.272, 912, M, 0.00
LAYTONVILLE 1.1 SW, Mendocino, CA01, -123.490, 39.672, 1647, M, 0.00
LEE VINING 5.9 NW, Mono, CA03, -119.170, 38.034, 7094, M, 0.10
MARIPOSA 3.7 NNW, Mariposa, CA05, -119.988, 37.540, 2942, M, 0.00
MARIPOSA 12.5 E, Mariposa, CA05, -119.742, 37.461, 2952, M, 0.00
LA GRANGE 7.8 ESE, Mariposa, CA05, -120.327, 37.635, 1114, M, 0.00
SAN ANSELMO 0.4 NE, Marin, CA01, -122.564, 37.987, 107, M, 0.00
PETALUMA 10.1 W, Marin, CA01, -122.812, 38.248, 119, M, 0.00
MILL VALLEY 1.5 S, Marin, CA01, -122.544, 37.886, 209, M, 0.05
LOCKWOOD 3.6 NW, Monterey, CA04, -121.117, 35.981, 1181, M, 0.00
CASTROVILLE 1.6 ENE, Monterey, CA04, -121.727, 36.777, 17, M, 0.04
CALISTOGA 0.4 SSE, Napa, CA01, -122.578, 38.576, 348, M, 0.00
NEVADA CITY 3.4 NNW, Nevada, CA02, -121.040, 39.307, 2390, M, 0.00
LAKE OF THE PINES 1.0 WSW, Nevada, CA02, -121.077, 39.032, 1576, M, 0.00
NEVADA CITY 5.4 W, Nevada, CA02, -121.121, 39.268, 1982, M, 0.00
LAGUNA NIGUEL 0.9 W, Orange, CA06, -117.720, 33.528, 477, M, 0.00
SILVERADO 1.0 ESE, Orange, CA06, -117.620, 33.746, 1394, M, 0.00
LAGUNA BEACH 3.2 SSE, Orange, CA06, -117.739, 33.498, 194, M, 0.03
NEWPORT BEACH 3.1 ESE, Orange, CA06, -117.865, 33.589, 84, M, 0.00
MISSION VIEJO 1.3 SSE, Orange, CA06, -117.644, 33.595, 704, M, 0.00
ANAHEIM 4.9 ENE, Orange, CA06, -117.792, 33.863, 298, M, 0.00
SODA SPRINGS 1.5 SSW, Placer, CA02, -120.384, 39.302, 6887, M, 0.01
ROSEVILLE 4.7 WNW, Placer, CA02, -121.377, 38.780, 96, M, 0.00
COLFAX 3.1 SW, Placer, CA02, -120.991, 39.061, 2077, M, 0.00
NEWCASTLE 1.6 SSE, Placer, CA02, -121.123, 38.851, 800, M, 0.00
HEMET 4.1 ENE, Riverside, CA06, -116.920, 33.753, 1698, M, 0.00
CORONA 12.8 SE, Riverside, CA06, -117.428, 33.731, 1404, M, 0.00
NORCO 1.2 S, Riverside, CA06, -117.548, 33.908, 661, M, 0.00
BEAUMONT 2.5 NW, Riverside, CA06, -117.012, 33.954, 2532, M, 0.00
NORCO 2.3 SE, Riverside, CA06, -117.518, 33.906, 1091, M, 0.00
CARMICHAEL 1.6 SW, Sacramento, CA02, -121.340, 38.617, 102, M, 0.00
SACRAMENTO 8.0 NE, Sacramento, CA02, -121.361, 38.635, 95, M, 0.00
CARMICHAEL 0.9 NE, Sacramento, CA02, -121.306, 38.643, 130, M, 0.00
CARMICHAEL 1.4 W, Sacramento, CA02, -121.345, 38.638, 109, M, 0.00
FOLSOM 1.2 SSE, Sacramento, CA02, -121.140, 38.660, 362, M, 0.00
CARMICHAEL 0.9 S, Sacramento, CA02, -121.319, 38.621, 108, M, 0.00
SACRAMENTO 2.0 SE, Sacramento, CA02, -121.437, 38.550, 34, M, 0.00
FOLSOM 0.6 NE, Sacramento, CA02, -121.138, 38.682, 399, M, 0.00
LA RIVIERA 1.0 NE, Sacramento, CA02, -121.340, 38.575, 64, M, 0.00
GOLETA 3.7 WNW, Santa Barbara, CA06, -119.896, 34.440, 158, M, 0.00
SUNNYVALE 1.9 SE, Santa Clara, CA04, -122.004, 37.365, 85, M, 0.00
MONTE SERENO 0.4 SSW, Santa Clara, CA04, -121.990, 37.232, 467, M, 0.00
CAMBRIAN PARK 2.2 SE, Santa Clara, CA04, -121.897, 37.234, 252, M, 0.00
SAN JOSE 3.5 ENE, Santa Clara, CA04, -121.789, 37.319, 200, M, 0.00
SARATOGA 0.5 N, Santa Clara, CA04, -122.023, 37.275, 373, M, 0.00
SAN JOSE 6.2 W, Santa Clara, CA04, -121.961, 37.319, 139, M, 0.00
LOS GATOS 5.4 SSW, Santa Clara, CA04, -121.988, 37.156, 1662, M, T
SAN MARCOS 2.5 ENE, San Diego, CA06, -117.132, 33.147, 666, M, 0.00
EL CAJON 2.3ENE, San Diego, CA06, -116.925, 32.811, 610, M, 0.00
ENCINITAS 3.34ENE, San Diego, CA06, -117.237, 33.050, 193, M, 0.00
ESCONDIDO 5.2NNW, San Diego, CA06, -117.128, 33.185, 1474, M, 0.00
EL CAJON 1.5WSW, San Diego, CA06, -116.987, 32.791, 727, M, 0.00
ESCONDIDO 2.5 SSE, San Diego, CA06, -117.048, 33.106, 690, M, 0.00
POWAY 3.2NE, San Diego, CA06, -117.004, 32.996, 1206, M, 0.00
CHULA VISTA 6.3E, San Diego, CA06, -116.975, 32.638, 555, M, 0.00
POWAY 1.4SW, San Diego, CA06, -117.059, 32.949, 444, M, 0.00
CHULA VISTA 2.5SE, San Diego, CA06, -117.052, 32.617, 266, M, 0.00
SAN DIEGO 3.5NE, San Diego, CA06, -117.110, 32.747, 344, M, 0.00
SAN DIEGO 7.9NE, San Diego, CA06, -117.073, 32.806, 242, M, 0.00
LA JOLLA 2.1 SE, San Diego, CA06, -117.250, 32.826, 491, M, T
RANCHO BERNARDO 0.5SE, San Diego, CA06, -117.067, 33.018, 483, M, T
EL CAJON 2.3 S, San Diego, CA06, -116.959, 32.770, 738, M, 0.00
SAN DIEGO 9NE, San Diego, CA06, -117.059, 32.817, 292, M, 0.00
POWAY 4.7NNW, San Diego, CA06, -117.047, 33.026, 739, M, 0.00
SAN DIEGO COUNTRY ESTATES 1.5 WNW, San Diego, CA06, -116.807, 33.016, 1474, M, 0.00
SAN FRANCISCO 1.1 SW, San Francisco, CA04, -122.435, 37.765, 194, M, 0.03
SHINGLETOWN 5.3 ENE, Shasta, CA02, -121.796, 40.524, 3964, M, 0.00
REDDING 7.9 NNE, Shasta, CA02, -122.291, 40.672, 681, M, 0.00
REDDING 3.7 N, Shasta, CA02, -122.358, 40.626, 618, M, 0.00
REDDING 3.6 N, Shasta, CA02, -122.354, 40.623, 604, M, 0.00
LINDEN 5.8 ENE, San Joaquin, CA05, -121.008, 38.063, 146, M, 0.00
STOCKTON 5.8 NNE, San Joaquin, CA05, -121.255, 38.038, 35, M, 0.00
LODI 1.0 NNW, San Joaquin, CA05, -121.304, 38.136, 43, M, 0.00
WEED 5.4 N, Siskiyou, CA01, -122.370, 41.495, 3064, M, 0.78
YREKA 0.9 WNW, Siskiyou, CA01, -122.649, 41.733, 2692, M, 0.09
PACIFICA 0.3 W, San Mateo, CA04, -122.483, 37.612, 227, M, 0.00
FOSTER CITY 1.3 SW, San Mateo, CA04, -122.259, 37.549, 7, M, 0.00
HALF MOON BAY 0.5 SSW, San Mateo, CA04, -122.441, 37.463, 54, M, 0.07
PORTOLA VALLEY 1.3 ENE, San Mateo, CA04, -122.198, 37.382, 531, M, 0.00
SANTA ROSA 3.1 W, Sonoma, CA01, -122.758, 38.451, 107, M, 0.00
SANTA ROSA 2.7 WSW, Sonoma, CA01, -122.745, 38.432, 123, M, T
SEBASTOPOL 4.5 WSW, Sonoma, CA01, -122.904, 38.375, 423, M, 0.13
CLOVERDALE 3.2 ESE, Sonoma, CA01, -122.963, 38.781, 797, M, T
SEBASTOPOL 1.1 SSE, Sonoma, CA01, -122.819, 38.384, 168, M, 0.04
SANTA ROSA 2.6 NE, Sonoma, CA01, -122.664, 38.473, 273, M, 0.00
SANTA ROSA 1.3 NW, Sonoma, CA01, -122.715, 38.464, 173, M, T
PETALUMA 1.3 SW, Sonoma, CA01, -122.639, 38.226, 36, M, 0.00
WINDSOR 0.6 NNE, Sonoma, CA01, -122.793, 38.553, 157, M, 0.00
ROHNERT PARK 0.9 SW, Sonoma, CA01, -122.711, 38.339, 96, M, 0.00
HEALDSBURG 3.7 WNW, Sonoma, CA01, -122.921, 38.648, 142, M, 0.00
GLEN ELLEN 1.5 N, Sonoma, CA01, -122.534, 38.378, 337, M, 0.00
SANTA ROSA 2.7 ENE, Sonoma, CA01, -122.659, 38.470, 281, M, M
BOYES HOT SPRINGS 0.5 ENE, Sonoma, CA01, -122.473, 38.316, 295, M, 0.00
OCCIDENTAL 2.8 SW, Sonoma, CA01, -122.974, 38.365, 614, M, 0.13
HEALDSBURG 12.6 NNW, Sonoma, CA01, -122.963, 38.784, 1026, M, 0.00
JOSHUA TREE 2.0 S, San Bernardino, CA07, -116.318, 34.097, 3409, M, 0.00
HESPERIA 3.9 SW, San Bernardino, CA07, -117.340, 34.373, 3578, M, 0.00
PINON HILLS 3.5 N, San Bernardino, CA07, -117.644, 34.485, 3495, M, 0.00
KNIGHTS FERRY 5.2 WSW, Stanislaus, CA05, -120.752, 37.789, 144, M, 0.00
HOLLISTER 2.1 ESE, San Benito, CA04, -121.365, 36.842, 389, M, 0.00
BOULDER CREEK 3.6 NE, Santa Cruz, CA04, -122.091, 37.181, 1724, M, 0.05
BOULDER CREEK 3.0 NW, Santa Cruz, CA04, -122.164, 37.169, 875, M, 0.01
FELTON 4.5 NNE, Santa Cruz, CA04, -122.047, 37.105, 838, M, 0.02
VISALIA 0.7 SSE, Tulare, CA05, -119.318, 36.315, 318, M, 0.00
TRINITY CENTER 0.6 ESE, Trinity, CA01, -122.696, 40.983, 2427, M, 0.21
THOUSAND OAKS 2.1 WSW, Ventura, CA06, -118.898, 34.177, 692, M, 0.00
FRAZIER PARK 10.7 WSW, Ventura, CA06, -119.110, 34.746, 5274, M, 0.00
CHALLENGE-BROWNSVILLE 1.3 WSW, Yuba, CA02, -121.280, 39.452, 2049, M, 0.00
DAVIS 1.2 SE, Yolo, CA02, -121.721, 38.543, 36, M, 0.00
DAVIS 0.8 NE, Yolo, CA02, -121.724, 38.562, 41, M, 0.00
DAVIS 2.7 W, Yolo, CA02, -121.786, 38.552, 57, M, 0.00
PLACERVILLE 3 ENE, El Dorado, CA02, -120.742, 38.785, 2658, 79.8, 0.00
TAHOMA, El Dorado, CA03, -120.129, 39.060, 6315, 62.6, T
CORONA MUNICIPAL AIRPORT, Riverside, -, -117.602, 33.898, 533, 74.8, 0.00
OROVILLE 4.8 E, Butte, CA02, -121.477, 39.493, 668, M, 0.00
MCKINLEYVILLE 4.3 E, Humboldt, CA01, -124.034, 40.953, 173, M, 0.12
KNEELAND 0.4 NNW, Humboldt, CA01, -123.999, 40.766, 2008, M, 0.02
BISHOP 8.8 WNW, Inyo, CA07, -118.547, 37.411, 4537, M, 0.00
SAN DIEGO 5.2WNW, San Diego, CA06, -117.245, 32.735, 251, M, 0.00
VISTA 1.2SE, San Diego, CA06, -117.231, 33.186, 505, M, 0.01
FORESTVILLE 0.7 SW, Sonoma, CA01, -122.897, 38.473, 201, M, 0.00
THREE RIVERS 1.7 NE, Tulare, CA05, -118.886, 36.458, 1010, M, 0.00
VERDI 2W, Sierra, CA03, -120.027, 39.521, 5429, 68.8, 0.54
PASADENA 2.0 SE, Los Angeles, CA06, -118.116, 34.139, 739, M, 0.00
RAYMOND 6.8 NE, Madera, CA05, -119.802, 37.272, 1802, M, 0.00
SUNNYVALE 3.6 S (W6NW), Santa Clara, CA04, -122.018, 37.334, 170, M, 0.00
CRESCENT CITY 4.2 NE, Del Norte, CA01, -124.143, 41.800, 98, M, T
EUREKA 3.0 SSW, Humboldt, CA01, -124.181, 40.757, 100, M, 0.09
DIAMOND BAR 1.9 NNE, Los Angeles, CA06, -117.796, 34.023, 935, M, 0.00
YOSEMITE LAKES 4.7 S, Madera, CA05, -119.761, 37.124, 1598, M, 0.00
MISSION VIEJO 3.5 SSE(K6WTA), Orange, CA06, -117.639, 33.563, 613, M, 0.00
IRVINE 4.1 NNE, Orange, CA06, -117.772, 33.718, 152, M, T
LOS ALTOS HILLS 1.3 N, Santa Clara, CA04, -122.135, 37.387, 194, M, 0.00
BARSTOW-DAGGETT AIRPORT, San Bernardino, CA07, -116.787, 34.854, 1919, 90.2, 0.00
MERCED, Merced, CA05, -120.516, 37.289, 154, 78.1, 0.00
SAN DIEGO MONTGOMERY FIELD, San Diego, CA06, -117.137, 32.815, 418, 73.3, 0.00
SAN DIEGO INTERNATIONAL AP, San Diego, CA06, -117.183, 32.734, 15, 71.0, 0.00
SAN DIEGO MIRAMAR NAS, San Diego, CA06, -117.133, 32.867, 477, 72.9, 0.00
NORTH ISLAND NAS, San Diego, CA06, -117.210, 32.692, 14, 71.4, 0.00
SAN FRANCISCO INTERNATIONAL AP, San Mateo, CA04, -122.366, 37.620, 10, 63.8, 0.00
SAN LUIS OBISPO MCCHESNEY FIELD, San Luis Obispo, CA04, -120.644, 35.238, 183, 66.0, 0.00
CEDARVILLE, Modoc, CA03, -120.179, 41.530, 4688, 71.9, T
CHICO UNIVERSITY FARM, Butte, CA02, -121.821, 39.691, 185, 78.3, 0.00
CHULA VISTA, San Diego, CA06, -117.086, 32.640, 56, 70.2, 0.00
COLFAX, Placer, CA02, -120.947, 39.090, 2373, 76.8, 0.00
CUYAMACA, San Diego, CA06, -116.587, 32.990, 4640, 69.8, 0.00
DAVIS 2 WSW EXP FARM, Yolo, CA02, -121.776, 38.535, 60, 75.9, 0.00
DEATH VALLEY NATIONAL PARK, Inyo, CA07, -116.867, 36.463, -194, 105.2, 0.00
FAIRMONT, Los Angeles, CA07, -118.430, 34.705, 3060, 79.3, 0.00
FORT BRAGG 5 N, Mendocino, CA01, -123.756, 39.510, 123, 59.3, 0.03
HANFORD 1 S, Kings, CA05, -119.637, 36.316, 237, 82.5, 0.00
HEALDSBURG, Sonoma, CA01, -122.866, 38.629, 177, 70.5, 0.00
INDIO FIRE STATION, Riverside, CA07, -116.215, 33.709, -21, 96.2, 0.00
LEMON COVE, Tulare, CA05, -119.026, 36.382, 513, 82.0, 0.00
MERCED MUNICIPAL AP, Merced, CA05, -120.518, 37.286, 152, 79.6, 0.00
NAPA STATE HOSPITAL, Napa, CA01, -122.265, 38.278, 35, 68.6, 0.00
OJAI, Ventura, CA06, -119.227, 34.448, 745, 69.8, 0.00
ORLAND, Glenn, CA02, -122.200, 39.746, 254, 80.6, 0.00
PASADENA, Los Angeles, CA06, -118.145, 34.148, 864, 75.4, 0.00
PASO ROBLES, San Luis Obispo, CA04, -120.685, 35.628, 730, 70.4, 0.00
PETALUMA AIRPORT, Sonoma, CA01, -122.608, 38.258, 20, 66.2, 0.00
QUINCY, Plumas, CA02, -120.947, 39.937, 3420, 68.9, 0.10
REDLANDS, San Bernardino, CA06, -117.195, 34.037, 1410, M, 0.00
SANTA BARBARA, Santa Barbara, CA06, -119.684, 34.417, 16, 67.9, 0.02
SANTA CRUZ, Santa Cruz, CA04, -122.000, 36.988, 70, 63.3, T
SANTA ROSA, Sonoma, CA01, -122.713, 38.456, 166, 67.9, 0.01
TAHOE CITY, Placer, CA03, -120.143, 39.168, 6230, 62.3, 0.00
WASCO, Kern, CA05, -119.352, 35.589, 291, 84.3, 0.00
WEAVERVILLE, Trinity, CA01, -122.940, 40.737, 2058, 73.6, 0.10
WILLOWS 6 W, Glenn, CA02, -122.305, 39.523, 234, 80.1, 0.00
YOSEMITE PARK HEADQUARTERS, Mariposa, CA05, -119.590, 37.750, 4018, 75.2, 0.00
YREKA, Siskiyou, CA01, -122.641, 41.703, 2709, 74.6, 0.22
BERKELEY, Alameda, CA04, -122.260, 37.874, 310, 64.7, 0.00
BLYTHE, Riverside, CA07, -114.597, 33.613, 268, M, 0.00
EUREKA WFO WOODLEY ISLAND, Humboldt, CA01, -124.160, 40.810, 20, 57.2, 0.03
SAN LUIS OBISPO POLY, San Luis Obispo, CA04, -120.662, 35.306, 308, 65.4, 0.00
IMPERIAL BEACH REAM FIELD NAS, San Diego, CA06, -117.117, 32.568, 24, M, 0.00
CAMPO, San Diego, CA06, -116.470, 32.626, 2630, 71.7, 0.00
EL CENTRO 2 SSW, Imperial, CA07, -115.562, 32.767, -30, 93.8, 0.00
IMPERIAL COUNTY AP, Imperial, CA07, -115.577, 32.835, -55, 94.0, 0.00
EL CENTRO NAF, Imperial, CA07, -115.664, 32.832, -46, 93.2, T
ALPINE, San Diego, CA06, -116.777, 32.836, 1695, 74.8, 0.00
SAN DIEGO 9.5 NNW, San Diego, CA06, -117.221, 32.843, 284, M, 0.00
LOS OSOS 0.5 N, San Luis Obispo, CA04, -120.832, 35.329, 77, M, 0.00
MENLO PARK 2.4 W, San Mateo, CA04, -122.187, 37.477, 25, M, 0.00
BODEGA BAY 1.0 SE, Sonoma, CA01, -123.018, 38.312, 226, M, 0.07
TWENTYNINE PALMS 1.5 SW, San Bernardino, CA07, -116.085, 34.124, 2162, M, 0.00
MARYSVILLE 5.0 N, Yuba, CA02, -121.594, 39.224, 73, M, 0.00
CHICO 1.7 SW, Butte, CA02, -121.832, 39.739, 210, M, 0.00
BLUE LAKE 0.6 NNW, Humboldt, CA01, -123.994, 40.888, 179, M, 0.02
REDWAY 1.8 WSW, Humboldt, CA01, -123.852, 40.109, 955, M, 0.00
UPPER LAKE 3.6 W, Lake, CA02, -122.978, 39.168, 1440, M, 0.00
MORGAN HILL 1.4 SW, Santa Clara, CA04, -121.659, 37.117, 433, M, 0.00
REDDING 3.8 S, Shasta, CA02, -122.369, 40.518, 444, M, 0.00
FORKS OF SALMON 1.0 NW, Siskiyou, CA01, -123.334, 41.269, 1664, M, T
SAN MATEO 3.4 SSW, San Mateo, CA04, -122.343, 37.518, 585, M, 0.00
ARBUCKLE BASIN CALIFORNIA, Shasta, CA02, -122.833, 40.398, 1900, 80.9, M
ACTON CALIFORNIA, Los Angeles, CA06, -118.200, 34.446, 2600, 76.0, M
ALDER SPRINGS CALIFORNIA, Glenn, CA02, -122.724, 39.651, 4300, 76.3, M
ALPINE CALIFORNIA, San Diego, CA06, -116.739, 32.834, 2041, 76.5, M
LOS ALTOS CALIFORNIA, Santa Clara, CA04, -122.147, 37.358, 645, 69.1, M
ANZA CALIFORNIA, Riverside, CA06, -116.673, 33.555, 3920, 72.9, M
ALDER POINT CALIFORNIA, Humboldt, CA01, -123.590, 40.187, 923, 71.4, M
ARROYO SECO (MT. DIABLO) CALIF, Monterey, CA04, -121.492, 36.230, 980, 72.5, M
ASH CREEK CALIFORNIA, Siskiyou, CA02, -121.979, 41.277, 3200, 65.0, M
BACKBONE CALIFORNIA, Trinity, CA01, -123.142, 40.889, 4700, 74.6, M
BALD MTN LOC CALIFORNIA, El Dorado, CA02, -120.697, 38.906, 4680, 77.3, M
BARNABY CALIFORNIA, Marin, CA01, -122.702, 38.028, 1240, 64.0, M
BATTERSON CALIFORNIA, Madera, CA05, -119.508, 37.232, 3160, 80.5, M
BIG BAR CALIFORNIA, Trinity, CA01, -123.233, 40.733, 1500, 78.5, M
BELL CANYON CALIFORNIA, Orange, CA06, -117.592, 33.542, 700, 72.0, M
BRADLEY CALIFORNIA, Monterey, CA04, -120.803, 35.864, 537, 74.8, M
BEAR PEAK CALIFORNIA, Tulare, CA05, -118.052, 35.884, 8228, 67.2, M
BENTON CALIFORNIA, Mono, CA07, -118.478, 37.843, 5450, 74.5, M
BEAUMONT CALIFORNIA, Riverside, CA06, -116.950, 33.931, 2604, 76.7, M
BEVERLY HILLS CALIFORNIA, Los Angeles, CA06, -118.412, 34.125, 1260, 74.1, M
BANGOR CALIFORNIA, Butte, CA02, -121.386, 39.398, 803, 79.3, M
BIG HILL CALIFORNIA, Humboldt, CA01, -123.636, 41.098, 3570, 70.3, M
BIG PINES CALIFORNIA, Los Angeles, CA07, -117.692, 34.379, 6917, 70.2, M
BIG ROCK CALIFORNIA, Marin, CA01, -122.570, 38.039, 1500, 67.1, M
BLACK DIAMOND CALIFORNIA, Contra Costa, CA04, -121.884, 37.950, 1600, 72.4, M
BLUE DOOR CALIFORNIA, Lassen, CA02, -120.337, 41.055, 5615, 67.0, M
BLUE RIDGE (KNF) CALIFORNIA, Siskiyou, CA01, -123.187, 41.269, 5956, 68.1, M
BEN BOLT CALIFORNIA, El Dorado, CA05, -120.934, 38.591, 905, 78.3, M
BEN LOMOND CALIFORNIA, Santa Cruz, CA04, -122.170, 37.132, 2630, 70.9, M
BOGARD R.S. CALIFORNIA, Lassen, CA02, -121.083, 40.598, 5650, 61.4, M
BOONVILLE CALIFORNIA, Mendocino, CA01, -123.349, 38.988, 644, 68.7, M
BIG PINE FLAT CALIFORNIA, San Bernardino, CA07, -117.013, 34.319, 6861, 67.3, M
BRIDGEPORT 4NW CALIFORNIA, Mono, CA03, -119.289, 38.272, 6650, 67.8, M
BRANCH MOUNTAIN CALIFORNIA, San Luis Obispo, CA04, -120.083, 35.189, 3770, 76.6, M
BEAR FLAT CALIFORNIA, Modoc, CA02, -120.313, 41.295, 6200, 68.5, M
BRIONES CALIFORNIA, Contra Costa, CA04, -122.118, 37.944, 1450, 67.8, M
BLACKROCK CALIFORNIA, Tulare, CA05, -118.260, 36.093, 8200, 63.4, M
BROOKS CALIFORNIA, Yolo, CA02, -122.145, 38.738, 354, 80.4, M
BIG SUR CALIFORNIA, Monterey, CA04, -121.785, 36.236, 450, 62.6, M
BULL FLAT CALIFORNIA, Lassen, CA03, -120.114, 40.481, 4395, 70.0, M
BURNS CANYON CALIFORNIA, San Bernardino, CA07, -116.634, 34.210, 6000, 77.7, M
BUTTERCUP CALIFORNIA, Imperial, CA07, -114.884, 32.740, 217, 95.5, M
BEAVER CAMP LOC CALIFORNIA, Amador, CA05, -120.325, 38.488, 5000, 75.6, M
BRAZIE RANCH CALIFORNIA, Siskiyou, CA01, -122.594, 41.685, 3000, 76.4, M
CAHUILLA CALIFORNIA, Imperial, CA07, -115.174, 32.974, 278, 97.3, M
CALLAHAN CALIFORNIA, Siskiyou, CA01, -122.796, 41.308, 3136, 74.3, M
CAMERON FIRE STATION CALIFORNI, San Diego, CA06, -116.463, 32.721, 3443, 70.4, M
CARRIZO CALIFORNIA, San Luis Obispo, CA05, -119.773, 35.096, 2490, 80.3, M
CASE SPRINGS CALIFORNIA, San Diego, CA06, -117.418, 33.445, 2320, 73.0, M
CATHEYS VALLEY CALIFORNIA, Mariposa, CA05, -120.111, 37.468, 1200, 82.7, M
CEDAR GROVE CALIFORNIA, Fresno, CA05, -118.656, 36.788, 4720, 70.6, M
CHEESEBORO CALIFORNIA, Ventura, CA06, -118.717, 34.185, 1650, 76.8, M
CHILAO CALIFORNIA, Los Angeles, CA06, -118.030, 34.332, 5450, 74.9, M
CHUCHUPATE CALIFORNIA, Ventura, CA05, -119.012, 34.808, 4900, 65.0, M
CLAREMONT CALIFORNIA, Los Angeles, CA06, -117.707, 34.137, 1645, 74.8, M
CLEAR CREEK CALIFORNIA, Los Angeles, CA06, -118.152, 34.271, 3000, 76.6, M
CLARK CALIFORNIA, Riverside, CA06, -117.309, 33.877, 1720, 77.6, M
CALAVERAS ROAD CALIFORNIA, Alameda, CA04, -121.844, 37.553, 1230, 68.3, M
CASE MOUNTAIN CALIFORNIA, Tulare, CA05, -118.809, 36.411, 6450, 68.4, M
COHASSET CALIFORNIA, Butte, CA02, -121.769, 39.872, 1733, 82.5, M
COLLINS BALDY CALIFORNIA, Siskiyou, CA01, -122.950, 41.775, 5493, 68.6, M
CONVERSE CALIFORNIA, San Bernardino, CA06, -116.913, 34.194, 5618, 68.9, M
COOSKIE MOUNTAIN CALIFORNIA, Humboldt, CA01, -124.266, 40.257, 2950, 66.3, M
CORRALITOS CALIFORNIA, Santa Cruz, CA04, -121.798, 36.991, 450, 64.2, M
COUNTY LINE CALIFORNIA, Lake, CA02, -122.412, 39.019, 2085, 81.8, M
CAMP 9 CALIFORNIA, Los Angeles, CA06, -118.422, 34.362, 4000, 73.9, M
CRANE FLAT LOOKOUT CALIFORNIA, Mariposa, CA05, -119.825, 37.762, 6644, 69.2, M
CRESTVIEW CALIFORNIA, Mono, CA07, -118.983, 37.745, 7600, 61.3, M
CORNING CALIFORNIA, Tehama, CA02, -122.170, 39.939, 294, 81.9, M
CARPENTER RIDGE CALIFORNIA, Butte, CA02, -121.582, 40.069, 4812, 74.8, M
CRANSTON CALIFORNIA, Riverside, CA06, -116.841, 33.740, 1950, 78.9, M
CRAZY PEAK CALIFORNIA, Del Norte, CA01, -123.604, 41.992, 3970, 68.0, M
CASHMAN CALIFORNIA, Plumas, CA02, -120.915, 40.002, 4520, 74.1, M
DESCANSO CALIFORNIA, San Diego, CA06, -116.622, 32.857, 3480, 72.4, M
DEVILS GARDEN CALIFORNIA, Modoc, CA02, -120.671, 41.530, 5022, 70.2, M
DIABLO GRANDE CALIFORNIA, Stanislaus, CA05, -121.294, 37.329, 1850, 77.8, M
DEMOCRAT CALIFORNIA, Kern, CA05, -118.630, 35.532, 2356, 81.5, M
DINKEY CALIFORNIA, Fresno, CA05, -119.039, 37.066, 5668, 63.1, M
DOG VALLEY CALIFORNIA, Sierra, CA03, -120.048, 39.562, 5976, 66.8, M
DOYLE CALIFORNIA, Lassen, CA03, -120.106, 40.022, 4240, 74.4, M
DUNCAN CALIFORNIA, Placer, CA02, -120.509, 39.144, 7100, 67.7, M
DEL VALLE CALIFORNIA, Los Angeles, CA06, -118.683, 34.431, 1278, 76.4, M
EAGLE PEAK CALIFORNIA, Tehama, CA02, -122.657, 39.928, 3713, 77.8, M
EEL RIVER CAMP CALIFORNIA, Humboldt, CA01, -123.824, 40.138, 446, 69.5, M
EEL RIVER CALIFORNIA, Mendocino, CA01, -123.083, 39.833, 1500, 77.5, M
EL CARISO CALIFORNIA, Riverside, CA06, -117.411, 33.647, 3038, 78.3, M
MOUNT ELIZABETH CALIFORNIA, Tuolumne, CA05, -120.247, 38.063, 4933, 76.0, M
EL MIRAGE CALIFORNIA, San Bernardino, CA07, -117.550, 34.634, 2880, 80.2, M
FANCHER CREEK CALIFORNIA, Fresno, CA05, -119.466, 36.884, 920, 85.7, M
FAWNSKIN CALIFORNIA, San Bernardino, CA06, -116.899, 34.266, 6900, 63.7, M
FENCE MEADOW CALIFORNIA, Fresno, CA05, -119.175, 36.961, 5048, 77.4, M
FORT HUNTER LIGGET CALIFORNIA, Monterey, CA04, -121.242, 36.012, 1100, 73.4, M
FIGUEROA CALIFORNIA, Santa Barbara, CA06, -120.007, 34.733, 3200, 75.8, M
FISH CREEK MTN CALIFORNIA, Imperial, CA07, -116.067, 32.990, 760, 98.4, M
FIVE MILE CALIFORNIA, Inyo, CA07, -117.918, 35.872, 4150, 86.3, M
FORESTHILL CALIFORNIA, Placer, CA02, -120.732, 39.091, 4355, 75.1, M
FOUNTAIN SPRINGS CALIFORNIA, Tulare, CA05, -118.915, 35.892, 210, 81.4, M
FREMONT CANYON CALIFORNIA, Orange, CA06, -117.711, 33.808, 1781, 74.3, M
FRIEND MOUNTAIN CALIFORNIA, Trinity, CA01, -123.342, 40.505, 4000, 71.4, M
GRASSHOPPER CALIFORNIA, Lassen, CA03, -120.784, 40.782, 6158, 67.1, M
GOOSE VALLEY CALIFORNIA, San Diego, CA06, -116.846, 33.074, 1530, 74.3, M
GORDON CALIFORNIA, Lassen, CA03, -120.896, 40.759, 6200, 66.7, M
GREEN SPRING CALIFORNIA, Tuolumne, CA05, -120.500, 37.833, 1020, 80.3, M
HASTINGS CALIFORNIA, Monterey, CA04, -121.552, 36.389, 1885, 68.9, M
HAWKEYE CALIFORNIA, Sonoma, CA01, -122.917, 38.782, 2000, 71.2, M
HAYFORK CALIFORNIA, Trinity, CA01, -123.165, 40.550, 2323, 71.9, M
HELL HOLE CALIFORNIA, Placer, CA02, -120.422, 39.072, 5240, 71.5, M
HERNANDEZ CALIFORNIA, San Benito, CA04, -120.856, 36.383, 3733, 76.8, M
HIGH GLADE LOOKOUT CALIFORNIA, Lake, CA02, -122.808, 39.208, 4840, 73.6, M
HIGH SIERRA CALIFORNIA, Fresno, CA05, -119.038, 37.315, 7403, 66.9, M
HOPLAND CALIFORNIA, Mendocino, CA01, -123.081, 39.031, 2682, 76.6, M
HOLLISTER CALIFORNIA, San Benito, CA04, -121.362, 36.842, 404, 66.8, M
HUNTER MOUNTAIN CALIFORNIA, Inyo, CA07, -117.474, 36.563, 6880, 71.9, M
HORSE LAKE CALIFORNIA, Lassen, CA03, -120.503, 40.631, 5100, 68.6, M
HOOPA CALIFORNIA, Humboldt, CA01, -123.671, 41.048, 375, 73.8, M
HORSE THIEF SPRINGS CALIFORNIA, San Bernardino, CA07, -115.909, 35.771, 5000, 83.3, M
HURLEY CALIFORNIA, Fresno, CA05, -119.568, 37.015, 1201, 78.5, M
INDIAN WELL CALIFORNIA, Siskiyou, CA01, -121.538, 41.742, 4770, 71.0, M
JARBO GAP CALIFORNIA, Butte, CA02, -121.489, 39.736, 2490, 79.2, M
JERSEYDALE CALIFORNIA, Mariposa, CA05, -119.839, 37.544, 3900, 76.0, M
JOHNSONDALE CALIFORNIA, Tulare, CA05, -118.545, 35.972, 4700, 67.7, M
JUANITA LAKE CALIFORNIA, Siskiyou, CA01, -122.006, 41.786, 5400, 70.5, M
JULIAN CALIFORNIA, San Diego, CA07, -116.591, 33.076, 4240, 73.2, M
JUNIPER CREEK CALIFORNIA, Modoc, CA02, -120.472, 41.332, 4372, 69.7, M
KEENWILD CALIFORNIA, Riverside, CA06, -116.767, 33.667, 4920, 74.8, M
KETTLEMAN HILLS CALIFORNIA, Kings, CA05, -120.057, 36.033, 810, 84.7, M
KNOXVILLE CREEK CALIFORNIA, Lake, CA02, -122.417, 38.862, 2200, 76.6, M
KONOCTI CALIFORNIA, Lake, CA02, -122.706, 38.912, 2163, 79.9, M
LOS BANOS CALIFORNIA, Merced, CA05, -121.053, 37.055, 350, 78.1, M
MT. LAGUNA CALIFORNIA, San Diego, CA07, -116.420, 32.880, 5760, 68.4, M
LA HONDA CALIFORNIA, San Mateo, CA04, -122.255, 37.305, 872, 63.7, M
LA PANZA CALIFORNIA, San Luis Obispo, CA04, -120.187, 35.381, 1630, 73.7, M
LAURAL MOUNTAIN CALIFORNIA, Kern, CA07, -117.699, 35.478, 4390, 82.1, M
LASSEN LODGE CALIFORNIA, Tehama, CA02, -121.714, 40.344, 4159, 78.0, M
LAUFMAN CALIFORNIA, Lassen, CA03, -120.353, 40.142, 5800, 72.8, M
LAYTONVILLE CALIFORNIA, Mendocino, CA01, -123.485, 39.702, 1820, 73.2, M
LADDER BUTTE CALIFORNIA, Lassen, CA02, -121.297, 40.807, 5750, 70.6, M
LEO CARRILLO CALIFORNIA, Los Angeles, CA06, -118.936, 34.046, 50, 65.4, M
LOS GATOS CALIFORNIA, Santa Clara, CA04, -121.943, 37.203, 2000, 70.4, M
LOST HORSE CALIFORNIA, Riverside, CA07, -116.188, 34.018, 4200, 79.2, M
LINCOLN CALIFORNIA, Placer, CA02, -121.268, 38.883, 200, 80.2, M
LOWER KLAMATH CALIFORNIA, Siskiyou, CA01, -121.700, 41.999, 4098, 65.9, M
LOS PRIETOS CALIFORNIA, Santa Barbara, CA06, -119.783, 34.536, 1020, 73.1, M
LAS TABLAS CALIFORNIA, San Luis Obispo, CA04, -120.924, 35.656, 994, 70.1, M
LITTLE TUJUNGA CALIFORNIA, Los Angeles, CA06, -118.361, 34.294, 1390, 73.7, M
HALF MOON BAY 1.0 S, San Mateo, CA04, -122.438, 37.455, 65, M, 0.00
MOUNT SHASTA 1.7 SSE, Siskiyou, CA02, -122.303, 41.299, 3593, M, 0.21
VOLCANO 3.2 N, Amador, CA05, -120.631, 38.488, 2426, M, 0.00
CAMINO 2.0 WSW, El Dorado, CA02, -120.711, 38.734, 2910, M, 0.00
TRINIDAD 1.0 ENE, Humboldt, CA01, -124.124, 41.061, 287, M, 0.05
WILLOW CREEK 4.9 NNE, Humboldt, CA01, -123.628, 40.947, 501, M, 0.00
PASADENA 1.8 E, Los Angeles, CA06, -118.107, 34.162, 911, M, 0.00
NORCO 1.7 W, Riverside, CA06, -117.582, 33.925, 626, M, M
ESCONDIDO 0.8 NNE, San Diego, CA06, -117.066, 33.147, 734, M, 0.00
OCEANSIDE 8.1ENE, San Diego, CA06, -117.256, 33.250, 189, M, 0.00
CARLSBAD 8.3SE, San Diego, CA06, -117.242, 33.079, 222, M, 0.00
SALINAS 3.2 NNW, Monterey, CA04, -121.656, 36.728, 105, M, 0.05
MEADOW VALLEY 5.6 WSW, Plumas, CA02, -121.100, 39.919, 4438, M, T
SANTA MARIA 1.8 NE, Santa Barbara, CA06, -120.419, 34.959, 235, M, 0.00
MORGAN HILL 6.4 NE, Santa Clara, CA04, -121.546, 37.186, 2624, M, 0.00
EL CAJON 3.2ESE, San Diego, CA06, -116.910, 32.780, 783, M, 0.00
VALLEY CENTER 6.4N, San Diego, CA06, -117.041, 33.311, 1357, M, 0.00
HOLLISTER 0.3 WSW, San Benito, CA04, -121.403, 36.854, 326, M, 0.00
KNEELAND 3.5 SSE, Humboldt, CA01, -123.976, 40.711, 2050, M, 0.08
DESCANSO 0.8 N, San Diego, CA06, -116.618, 32.865, 3487, M, 0.00
BOULEVARD 4.4 WSW, San Diego, CA06, -116.348, 32.645, 3521, M, 0.00
WOODSIDE 3.4 S, San Mateo, CA04, -122.264, 37.375, 1592, M, T
YUCAIPA 1.5 NNE, San Bernardino, CA06, -117.038, 34.054, 2776, M, 0.00
SANTA MONICA 1.3 NNE, Los Angeles, CA06, -118.485, 34.032, 186, M, 0.00
CASPAR 1.4 ESE, Mendocino, CA01, -123.789, 39.361, 323, M, 0.04
LAKESIDE 4.1NNE, San Diego, CA06, -116.888, 32.909, 1679, M, 0.00
CRESCENT CITY 2.1 N, Del Norte, CA01, -124.200, 41.785, 31, M, T
EL CERRITO 1.3 NW, Contra Costa, CA04, -122.316, 37.936, 258, M, 0.00
SAN ANSELMO 2.0 NNW, Marin, CA01, -122.580, 38.010, 204, M, 0.00
ANAHEIM 7.3 E, Orange, CA06, -117.747, 33.852, 755, M, 0.00
LOS GATOS 9.6 SSE, Santa Clara, CA04, -121.890, 37.104, 2199, M, 0.01
SAUSALITO 0.3 WNW, Marin, CA01, -122.497, 37.859, 159, M, 0.06
NOVATO 1.2 SW, Marin, CA01, -122.570, 38.079, 228, M, 0.00
SAN RAFAEL 4.6 NNW, Marin, CA01, -122.543, 38.041, 195, M, 0.00
PERRIS 10.6 W, Riverside, CA06, -117.405, 33.821, 1586, M, T
GILROY 0.1 SE, Santa Clara, CA04, -121.577, 37.009, 211, M, 0.00
DAVIS 2.3 W, Yolo, CA02, -121.778, 38.559, 55, M, 0.00
GRIDLEY 3.3 SE, Butte, CA02, -121.646, 39.335, 92, M, 0.00
SOUTH LAKE TAHOE 4.9 SW, El Dorado, CA03, -120.034, 38.882, 6325, M, 0.53
EL DORADO HILLS 0.9 NNW, El Dorado, CA02, -121.087, 38.698, 771, M, 0.00
INDEPENDENCE 0.2 NNW, Inyo, CA07, -118.201, 36.806, 3914, M, 0.00
COARSEGOLD 1.4 SE, Madera, CA05, -119.686, 37.247, 2674, M, 0.00
CHOWCHILLA 0.3 E, Madera, CA05, -120.252, 37.116, 238, M, 0.00
SAN RAFAEL 4.6 NW, Marin, CA01, -122.574, 38.020, 166, M, 0.10
BOLINAS 0.2 W, Marin, CA01, -122.701, 37.906, 190, M, 0.26
SAN RAFAEL 1.9 NNW, Marin, CA01, -122.524, 38.005, 15, M, 0.00
NOVATO 2.7 WNW, Marin, CA01, -122.600, 38.110, 76, M, 0.00
SUNNYSLOPE 1.6 W, Riverside, CA06, -117.450, 34.016, 946, M, 0.00
FAIR OAKS 3.0 WNW, Sacramento, CA02, -121.300, 38.662, 173, M, 0.00
BUELLTON 0.7 S, Santa Barbara, CA06, -120.199, 34.617, 363, M, 0.00
BOULDER CREEK 4.1 N, Santa Cruz, CA04, -122.141, 37.195, 984, M, 0.02
CAMARILLO 0.6 N, Ventura, CA06, -119.030, 34.231, 178, M, 0.00
DAVIS 1.1 ENE, Yolo, CA02, -121.716, 38.559, 56, M, 0.00
DAVIS 6.3 W, Yolo, CA02, -121.852, 38.561, 86, M, 0.00
DAVIS 1.6 NNW, Yolo, CA02, -121.751, 38.574, 57, M, 0.00
ALBANY 1.7 E, Alameda, CA04, -122.296, 37.895, 55, M, 0.01
WALNUT CREEK 2.3 WSW, Contra Costa, CA04, -122.081, 37.891, 252, M, 0.00
TRINIDAD 0.2 NE, Humboldt, CA01, -124.140, 41.059, 180, M, 0.04
NEWCASTLE 0.4 SSW, Placer, CA02, -121.137, 38.868, 824, M, 0.00
RIVERSIDE 5.8 E, Riverside, CA06, -117.296, 33.941, 1536, M, 0.00
JACUMBA 0.3 NNW, San Diego, CA07, -116.190, 32.621, 2821, M, 0.00
MILLVILLE 3.6 SW, Shasta, CA02, -122.173, 40.545, 506, M, 0.00
SANTA ROSA 2.3 NW, Sonoma, CA01, -122.733, 38.470, 137, M, T
FAIRFIELD 5.9 WSW, Solano, CA01, -122.143, 38.222, 3303, M, 0.00
LUCERNE VALLEY 2.7 SSE, San Bernardino, CA07, -116.949, 34.407, 3387, M, 0.00
STATE LINE, Modoc, CA01, -120.720, 41.990, 5680, 65.2, 0.00
SANTA ANA 2.0 N, Orange, CA06, -117.888, 33.766, 110, M, 0.00
POWAY 3.9 NNW, San Diego, CA06, -117.046, 33.036, 648, M, 0.00
SAN DIEGO 7.8 SW, San Diego, CA06, -117.246, 32.750, 24, M, 0.00
UPLAND 1.8 NNE, San Bernardino, CA06, -117.649, 34.144, 1779, M, 0.00
HUNTINGTON BEACH 2.0 ESE, Orange, CA06, -117.974, 33.685, 13, M, 0.00
N CLAIREMONT 0.6SSE, San Diego, CA06, -117.199, 32.826, 341, M, 0.00
TUOLUMNE CITY 2.0 N, Tuolumne, CA05, -120.237, 37.992, 2915, M, 0.00
THOUSAND OAKS 2.3 NE, Ventura, CA06, -118.837, 34.215, 1093, M, 0.00
BAKERSFIELD 6.1 WSW, Kern, CA05, -119.108, 35.331, 370, M, 0.00
WALKER BASIN 0.9 E, Kern, CA05, -118.507, 35.409, 3435, M, 0.00
SEBASTOPOL 1.4 WSW, Sonoma, CA01, -122.850, 38.392, 178, M, 0.05
OAKLAND 1.2 ENE, Alameda, CA04, -122.203, 37.778, 116, M, 0.00
BANGOR 0.4 N, Butte, CA02, -121.405, 39.395, 820, M, 0.00
ARCATA 0.9 WNW, Humboldt, CA01, -124.097, 40.872, 15, M, 0.02
WHITETHORN 1.7 NNW, Humboldt, CA01, -123.959, 40.045, 967, M, 0.00
BISHOP 1.7 SW, Inyo, CA07, -118.415, 37.347, 4221, M, T
FORT BRAGG 4.0 NNE, Mendocino, CA01, -123.785, 39.499, 85, M, 0.00
MARINA 0.8 SSE, Monterey, CA04, -121.784, 36.673, 136, M, 0.08
CARMEL VALLEY VILLAGE 12.2 SE, Monterey, CA04, -121.577, 36.354, 3084, M, 0.00
ROCKLIN 2.5 W, Placer, CA02, -121.286, 38.809, 130, M, 0.00
MURRIETA 3.6 NNE, Riverside, CA06, -117.188, 33.608, 1723, M, 0.00
SACRAMENTO 4.3 ENE, Sacramento, CA02, -121.394, 38.591, 52, M, 0.00
BORREGO SPRINGS 7.1SE, San Diego, CA07, -116.279, 33.193, 574, M, 0.00
PACIFICA 1.9 S, San Mateo, CA04, -122.479, 37.584, 297, M, T
SANTA ROSA 2.1 NNE, Sonoma, CA01, -122.690, 38.478, 643, M, T
SAN BERNARDINO 5.1 NW, San Bernardino, CA06, -117.350, 34.195, 1735, M, 0.00
MODESTO 4.1 NW, Stanislaus, CA05, -121.057, 37.693, 78, M, 0.00
SANTA CRUZ 5.7 N, Santa Cruz, CA04, -122.033, 37.056, 353, M, 0.03
SOUTH LAKE F.S, Kern, CA05, -118.361, 35.647, 2654, 81.0, 0.00
CAMPO ASOS, San Diego, CA07, -116.468, 32.626, 2641, 71.8, 0.00
Burbank Glendale Pasadena Area, -, -, -, -, -, 74.9, 0.00
Camarillo Area, -, -, -, -, -, 67.7, 0.00
Needles Area, -, -, -, -, -, 99.1, 0.00
Oxnard Area, -, -, -, -, -, 67.1, 0.00
Palm Springs Area, -, -, -, -, -, 95.6, 0.00
Riverside Area, -, -, -, -, -, 78.4, 0.00
Ramona Area, -, -, -, -, -, 71.9, 0.00
LONG VALLEY 2, Riverside, CA07, -116.642, 33.813, 8380, 62.2, 0.00
VALLEY CENTER 1N, San Diego, CA06, -117.038, 33.222, 1290, 74.4, 0.00
Northern CA 8 Station Index, -, -, -, -, -, M, 0.09
San Joaquin 5 Station Index, -, -, -, -, -, M, 0.02
Tulare 6 Station Index, -, -, -, -, -, M, 0.00
MERCED 1.2 NW, Merced, CA05, -120.497, 37.310, 168, M, 0.00
LAKE ARROWHEAD 1.5 SE, San Bernardino, CA07, -117.171, 34.247, 5519, M, 0.00
SANTA ROSA 5.3 E, Sonoma, CA01, -122.603, 38.439, 424, M, 0.00
ALTURAS 9.5 E, Modoc, CA02, -120.365, 41.514, 5336, M, T
DESCANSO 3.7N, San Diego, CA06, -116.623, 32.908, 3327, M, 0.00
BECKWOURTH 3.3 E, Plumas, CA02, -120.316, 39.818, 4959, M, 0.32
PACIFIC GROVE 1.6 SSW, Monterey, CA04, -121.941, 36.603, 137, M, 0.14
LOS ANGELES 2.6 NW, Los Angeles, CA06, -118.273, 34.081, 405, M, 0.00
HONEYDEW 3.2 SSE, Humboldt, CA01, -124.105, 40.200, 1395, M, 0.00
SAN DIEGO 1.8NE, San Diego, CA06, -117.133, 32.722, 220, M, 0.00
BODEGA BAY 1.3 NW, Sonoma, CA01, -123.047, 38.335, 87, M, 0.18
DAVIS 0.7 NNE, Yolo, CA02, -121.729, 38.563, 44, M, 0.00
COTATI 1.0 SSE, Sonoma, CA01, -122.704, 38.314, 192, M, 0.07
LAKEPORT 0.6 N, Lake, CA02, -122.922, 39.051, 1406, M, 0.00
PLACERVILLE 6.6 ESE, El Dorado, CA05, -120.691, 38.680, 2587, M, 0.00
MENDOCINO 2.7 NNE, Mendocino, CA01, -123.776, 39.342, 421, M, 0.00
FRESNO 7.2 NNE, Fresno, CA05, -119.744, 36.877, 386, M, 0.00
MID-CITY SAN DIEGO 0.5W, San Diego, CA06, -117.069, 32.765, 462, M, T
WINCHESTER 6.5 S, Riverside, CA06, -117.091, 33.615, 1422, M, 0.00
LAKE MADERA 1.3 NNE, Madera, CA05, -119.984, 37.037, 359, M, 0.00
BISHOP 1.6 NW, Inyo, CA07, -118.415, 37.385, 4183, M, T
FELTON 4.0 NNE, Santa Cruz, CA04, -122.049, 37.098, 1071, M, 0.16
PETROLIA 0.6 SSE, Humboldt, CA01, -124.282, 40.317, 92, M, 0.00
WHITETHORN 1.4 NW, Humboldt, CA01, -123.960, 40.039, 1005, M, 0.00
FORT BRAGG 3.5 S, Mendocino, CA01, -123.802, 39.391, 211, M, 0.10
CLAIREMONT 3.7SSE, San Diego, CA06, -117.187, 32.781, 307, M, 0.00
LAKE CALIFORNIA .4 NW, Tehama, CA02, -122.200, 40.352, 372, M, 0.00
JACKSON 0.8 SSE, Amador, CA05, -120.769, 38.339, 1355, M, 0.00
ARTESIA 0.5 W, Los Angeles, CA06, -118.089, 33.868, 59, M, 0.00
BISHOP 1.4 WNW, Inyo, CA07, -118.418, 37.379, 4203, M, T
SAN MARCOS 3.3 WSW, San Diego, CA06, -117.228, 33.123, 587, M, 0.00
TRACY 1.1 SSW, San Joaquin, CA05, -121.440, 37.723, 78, M, 0.00
DEL MAR 0.5 NNW, San Diego, CA06, -117.265, 32.973, 9, M, 0.00
PALERMO 2.7 SE, Butte, CA02, -121.500, 39.406, 276, M, 0.00
SONOMA 1.6 WNW, Sonoma, CA01, -122.488, 38.296, 103, M, T
AUBURN 4.8 N, Placer, CA02, -121.092, 38.960, 1445, M, 0.00
ESCONDIDO 2.2 W, San Diego, CA06, -117.108, 33.131, 726, M, 0.00
KNEELAND 3.4 WNW, Humboldt, CA01, -124.038, 40.799, 1375, M, 0.08
SACRAMENTO 6.5 NE, Sacramento, CA02, -121.374, 38.627, 80, M, 0.00
PAYNES CREEK 7.9 NNW, Shasta, CA02, -121.996, 40.432, 973, M, 0.00
Crescent City Area, -, -, -, -, -, 55.9, 0.00
Escondido Area, -, -, -, -, -, 76.6, 0.00
Sacramento Downtown Area, -, -, -, -, -, 79.0, 0.00
Tahoe City Area, -, -, -, -, -, 62.3, 0.00
Ukiah Area, -, -, -, -, -, 75.7, 0.00
WEST BISHOP 14.4 NW, Mono, CA07, -118.636, 37.510, 6395, M, 0.01
VACAVILLE 2.4 NW, Solano, CA02, -122.003, 38.383, 280, M, 0.00
LANCASTER 5.5 E, Los Angeles, CA07, -118.080, 34.683, 2408, M, 0.00
SAN JACINTO 4.2 W, Riverside, CA06, -117.037, 33.798, 1525, M, 0.00
TRUCKEE 5.9 ENE, Nevada, CA03, -120.104, 39.365, 5948, M, 0.89
TEHACHAPI 3.4 WNW, Kern, CA05, -118.499, 35.146, 3887, M, 0.00
CONCORD 2.1 SE, Contra Costa, CA04, -121.971, 37.953, 267, M, 0.00
OAKDALE 2.4 NE, Stanislaus, CA05, -120.824, 37.794, 200, M, 0.00
EL CERRITO 0.3 WNW, Contra Costa, CA04, -122.307, 37.923, 137, M, 0.00
CAMBRIA 0.5 WSW, San Luis Obispo, CA04, -121.087, 35.543, 214, M, 0.06
COOL 2.0 ENE, El Dorado, CA02, -120.982, 38.896, 1666, M, 0.00
GARBERVILLE 0.8 NNW, Humboldt, CA01, -123.802, 40.110, 524, M, 0.00
LEMON GROVE 0.9 W, San Diego, CA06, -117.048, 32.736, 444, M, 0.00
GUALALA 0.8 NW, Mendocino, CA01, -123.539, 38.774, 194, M, 0.03
GLENDORA 1.4 ESE, Los Angeles, CA06, -117.824, 34.135, 962, M, 0.00
MAD RIVER 1.7 SW, Trinity, CA01, -123.520, 40.429, 2532, M, T
LAKE ELSINORE 2.8 SSW, Riverside, CA06, -117.340, 33.631, 1357, M, 0.00
CHINO 1.9 E, San Bernardino, CA06, -117.653, 34.009, 724, M, 0.00
SAN DIEGO 3.5 ENE, San Diego, CA06, -117.078, 32.828, 715, M, 0.00
LEMON GROVE 0.7 W, San Diego, CA06, -117.045, 32.735, 466, M, 0.00
WRIGHTWOOD 4.8 NE, San Bernardino, CA07, -117.582, 34.417, 4256, M, 0.00
LINCOLN 1.3 SSW, Placer, CA02, -121.322, 38.881, 131, M, 0.00
GRENADA 0.8 SW, Siskiyou, CA01, -122.537, 41.632, 2650, M, 0.05
BEAUMONT 2.0 NW, Riverside, CA06, -117.004, 33.953, 2554, M, T
WATSONVILLE 3.9 NW, Santa Cruz, CA04, -121.822, 36.956, 329, M, 0.11
CYPRESS 1.1 NNW (KB6CYS), Orange, CA06, -118.047, 33.830, 48, M, 0.00
LA PALMA 0.6 WNW, Orange, CA06, -118.049, 33.853, 61, M, 0.00
BEAUMONT 2.1 ESE, Riverside, CA06, -116.947, 33.917, 2561, M, 0.00
SAN DIEGO 1.9 W, San Diego, CA06, -117.169, 32.814, 366, M, 0.00
Tule River, Tulare, CA05, -118.722, 36.051, 2429, 81.2, 0.00
Alturas Area, -, -, -, -, -, 67.6, T
Mount Shasta Area, -, -, -, -, -, 70.3, 0.48
Palmdale Area, -, -, -, -, -, 81.8, 0.00
Lancaster Area, -, -, -, -, -, 82.0, 0.00
OAKHURST 1.4 SSE, Madera, CA05, -119.638, 37.315, 2543, M, 0.00
FORTUNA 2.0 SE, Humboldt, CA01, -124.110, 40.567, 456, M, 0.16
EUREKA 4.5 S, Humboldt, CA01, -124.152, 40.731, 422, M, T
MANTECA 1.3 N, San Joaquin, CA05, -121.225, 37.821, 46, M, 0.00
DINSMORE 2.3 W, Humboldt, CA01, -123.650, 40.485, 2429, M, 0.00
APPLE VALLEY 4.1 ENE, San Bernardino, CA07, -117.152, 34.559, 3119, M, 0.00
AMADOR CITY 1.0 W, Amador, CA05, -120.842, 38.420, 889, M, 0.00
CLOVERDALE 1.4 S, Sonoma, CA01, -123.014, 38.780, 367, M, 0.00
HEMET 2.0 ESE, Riverside, CA06, -116.965, 33.722, 1626, M, 0.00
MARINA 0.4 N, Monterey, CA04, -121.791, 36.689, 59, M, 0.02
HIGHLAND 1.8 ESE, San Bernardino, CA06, -117.159, 34.111, 1410, M, 0.00
TWENTYNINE PALMS 0.3 NNE, San Bernardino, CA07, -116.063, 34.143, 2050, M, 0.00
LA MESA 1.2 E, San Diego, CA06, -116.998, 32.772, 675, M, 0.00
GLEN ELLEN 0.8 NE, Sonoma, CA01, -122.528, 38.363, 286, M, 0.00
RANCHO MIRAGE 3.0 NNW, Riverside, CA07, -116.442, 33.799, 351, M, 0.00
FALLBROOK 4.6 ESE, San Diego, CA06, -117.165, 33.342, 410, M, 0.00
SAN JUAN CAPISTRANO 0.9 W, Orange, CA06, -117.668, 33.501, 109, M, 0.03
SHELTER COVE 0.6 NNE, Humboldt, CA01, -124.067, 40.038, 394, M, T
CLOVIS 3.6 NE, Fresno, CA05, -119.658, 36.863, 404, M, 0.00
SOUTH PASADENA 0.9 SSW, Los Angeles, CA06, -118.165, 34.100, 791, M, 0.00
BAYSIDE 1.3 SE, Humboldt, CA01, -124.043, 40.832, 88, M, 0.02
ALBANY 1.8 E, Alameda, CA04, -122.294, 37.893, 72, M, 0.00
FORTUNA 1.1 S, Humboldt, CA01, -124.138, 40.570, 163, M, 0.09
BERKELEY 1.1 NE, Alameda, CA04, -122.281, 37.878, 120, M, 0.00
FRESNO 1.5 ENE, Fresno, CA05, -119.770, 36.791, 326, M, 0.00
CARMICHAEL 2.1 N, Sacramento, CA02, -121.321, 38.665, 136, M, 0.00
REDWAY 0.6 NW, Humboldt, CA01, -123.827, 40.124, 449, M, 0.00
RIO LINDA 4.8 SW, Sacramento, CA02, -121.516, 38.636, 13, M, 0.00
MCKINLEYVILLE 2.0 SSE, Humboldt, CA01, -124.099, 40.927, 186, M, 0.07
FORTUNA 1.3 NW, Humboldt, CA01, -124.156, 40.600, 86, M, 0.03
IGO 3.4 NW, Shasta, CA02, -122.579, 40.546, 1954, M, 0.00
FORESTVILLE 1.4 SW, Sonoma, CA01, -122.904, 38.466, 121, M, 0.00
BLYTHE 2.1 W, Riverside, CA07, -114.626, 33.610, 272, M, 0.00
SAN FERNANDO 7.8 SW, Los Angeles, CA06, -118.514, 34.198, 741, M, 0.00
San Jose Area, -, -, -, -, -, 69.7, 0.00
MAMMOTH LAKES 16.3 ESE, Mono, CA07, -118.705, 37.557, 7068, M, 0.03
MONTEREY 1.6 WNW, Monterey, CA04, -121.908, 36.611, 240, M, 0.06
LARKSPUR 1.0 SW, Marin, CA01, -122.544, 37.932, 148, M, 0.00
SAN CLEMENTE 1.6 SSW, Orange, CA06, -117.623, 33.427, 112, M, 0.02
OCCIDENTAL 1.8 NW, Sonoma, CA01, -122.965, 38.410, 982, M, 0.00
SCOTTS VALLEY 0.1 SE, Santa Cruz, CA04, -122.007, 37.055, 605, M, 0.02
REDDING 3.7 S, Shasta, CA02, -122.368, 40.519, 446, M, 0.00
EL CAJON 2.2 ENE, San Diego, CA06, -116.927, 32.815, 637, M, 0.00
YORBA LINDA 2.2 WSW, Orange, CA06, -117.799, 33.873, 316, M, 0.00
SEBASTOPOL 3.6 W, Sonoma, CA01, -122.892, 38.399, 358, M, 0.05
OAKLAND 4.9 NNE, Alameda, CA04, -122.203, 37.840, 9478, M, M
SANTA ROSA 2.5 SE, Sonoma, CA01, -122.670, 38.421, 190, M, 0.03
SAN CARLOS 0.2 NW, San Mateo, CA04, -122.269, 37.500, 102, M, 0.00
RANCHO CORDOVA 5.9 ESE, Sacramento, CA02, -121.197, 38.570, 243, M, 0.00
SOLEDAD 12.0 ENE, San Benito, CA04, -121.136, 36.517, 1188, M, 0.00
ELK 1.9 NNE, Mendocino, CA01, -123.701, 39.155, 1206, M, 0.00
EUREKA 0.5 ESE, Humboldt, CA01, -124.146, 40.794, 53, M, 0.04
ESCONDIDO 2.8 SW, San Diego, CA06, -117.104, 33.106, 662, M, 0.00
GLENDALE 3.0 ESE, Los Angeles, CA06, -118.210, 34.153, 879, M, 0.00
FORT BRAGG 4.5 S, Mendocino, CA01, -123.801, 39.377, 191, M, 0.02
PASADENA 0.8 ENE, Los Angeles, CA06, -118.125, 34.165, 948, M, 0.00
ESCONDIDO 0.5 SSE, San Diego, CA06, -117.068, 33.131, 673, M, 0.00
ORANGE 2.1 ESE, Orange, CA06, -117.792, 33.789, 385, M, T
PALM DESERT 2.1 ENE, Riverside, CA07, -116.342, 33.744, 229, M, 0.00
RANCHO SANTA MARGARITA 0.8 NE, Orange, CA06, -117.594, 33.650, 1070, M, 0.00
VICTORVILLE 2.6 SSW, San Bernardino, CA07, -117.352, 34.490, 3111, M, 0.00
MCKINLEYVILLE 3.7 E, Humboldt, CA01, -124.045, 40.962, 147, M, 0.05
CLOVERDALE 0.8 SSW, Sonoma, CA01, -123.025, 38.789, 384, M, 0.00
REDONDO BEACH 2.1 SSW, Los Angeles, CA06, -118.389, 33.827, 3, M, 0.00
EL CAJON 2.8 SSE, San Diego, CA06, -116.938, 32.767, 659, M, 0.00
VALLEY CENTER 10.9 NE, San Diego, CA06, -116.864, 33.314, 5222, M, 0.00
PENN VALLEY 4.4 N, Nevada, CA02, -121.197, 39.260, 1316, M, 0.00
CARLSBAD 3.2 NNW, San Diego, CA06, -117.315, 33.163, 147, M, 0.00
LINCOLN 1.0 NW, Placer, CA02, -121.328, 38.910, 137, M, 0.00
OAKHURST 0.9 SSE, Madera, CA05, -119.641, 37.322, 2406, M, 0.00
El Cajon Area, -, -, -, -, -, 75.4, 0.00
Hanford Area, -, -, -, -, -, 81.4, 0.00
El Centro Area, -, -, -, -, -, 94.0, 0.00
Madera Area, -, -, -, -, -, 78.9, 0.00
Merced Area, -, -, -, -, -, 79.6, 0.00
MCKINLEYVILLE 1.7 NE, Humboldt, CA01, -124.091, 40.969, 260, M, 0.07
GILROY 3.8 NNE, Santa Clara, CA04, -121.554, 37.062, 287, M, 0.00
BURLINGAME 0.8 WSW, San Mateo, CA04, -122.376, 37.585, 71, M, 0.00
HUMBOLDT HILL 1.5 S, Humboldt, CA01, -124.188, 40.704, 524, M, 0.14
DANVILLE 1.9 W, Contra Costa, CA04, -122.006, 37.818, 445, M, 0.00
CLAREMONT 0.6 SSE, Los Angeles, CA06, -117.711, 34.114, 1367, M, 0.00
YUCAIPA 2.7 NNE, San Bernardino, CA06, -117.024, 34.068, 3043, M, 0.00
ETTERSBURG 2.8 N, Humboldt, CA01, -123.990, 40.174, 1644, M, 0.00
UPLAND 0.9 NNW, San Bernardino, CA06, -117.664, 34.131, 1672, M, 0.00
HOLLISTER 4.7 NNE, San Benito, CA04, -121.364, 36.918, 238, M, 0.00
OAKLAND 1.7 NNW, Alameda, CA04, -122.236, 37.794, 123, M, 0.00
SUTTER CREEK 2.3 ENE, Amador, CA05, -120.764, 38.403, 1376, M, 0.00
THOUSAND OAKS 2.1 N, Ventura, CA06, -118.864, 34.223, 906, M, 0.00
CRESCENT CITY 1.2 N, Del Norte, CA01, -124.197, 41.772, 50, M, 0.02
MCKINLEYVILLE 1.3 SSW, Humboldt, CA01, -124.126, 40.936, 52, M, 0.13
MOUNT SHASTA 0.9 NNE, Siskiyou, CA02, -122.306, 41.333, 3917, M, 0.20
WOODLAND 1.9 SE, Yolo, CA02, -121.745, 38.655, 51, M, 0.00
NEVADA CITY 3.9 E, Nevada, CA02, -120.949, 39.271, 3196, M, 0.00
CLEARLAKE OAKS 5.0 NE, Lake, CA02, -122.593, 39.068, 1276, M, 0.00
OAKHURST 1.4 ESE, Madera, CA05, -119.625, 37.323, 2396, M, 0.00
SOLANA BEACH 0.7 NNE, San Diego, CA06, -117.250, 33.005, 225, M, 0.00
OCEANSIDE 5.2 SSE, San Diego, CA06, -117.266, 33.159, 408, M, 0.00
RIDGECREST 1.0 NW, Kern, CA07, -117.674, 35.641, 2308, M, 0.00
ALBION 1.1 S, Mendocino, CA01, -123.770, 39.206, 199, M, 0.10
EL CAJON 3.5 SSE, San Diego, CA06, -116.938, 32.756, 523, M, 0.00
TRUCKEE 1.6 N, Nevada, CA03, -120.199, 39.350, 6487, M, 0.75
MODESTO 0.8 S, Stanislaus, CA05, -120.992, 37.649, 92, M, 0.00
MAD RIVER 1.7 WNW, Trinity, CA01, -123.531, 40.465, 2554, M, 0.00
GRASS VALLEY 0.4 SE, Nevada, CA02, -121.052, 39.218, 2505, M, 0.00
BONSALL 3.0 W, San Diego, CA06, -117.271, 33.274, 367, M, 0.01
CALLAHAN 2.3 NNW, Siskiyou, CA01, -122.825, 41.338, 3029, M, 0.35
EUREKA 5.6 SSW, Humboldt, CA01, -124.204, 40.723, 381, M, 0.00
CRESTLINE 1.4 ESE, San Bernardino, CA07, -117.272, 34.240, 4577, M, 0.00
POTTER VALLEY 1.8 N, Mendocino, CA01, -123.120, 39.348, 982, M, 0.00
DANVILLE 2.1 S, Contra Costa, CA04, -121.969, 37.784, 483, M, 0.00
SANTA CRUZ 0.9 WNW, Santa Cruz, CA04, -122.049, 36.980, 373, M, 0.05
DOUGLAS CITY 6.9 ESE, Trinity, CA01, -122.824, 40.610, 2821, M, 0.74
JUNCTION CITY 1.6 N, Trinity, CA01, -123.059, 40.756, 1579, M, 0.02
LYONS VALLEY CALIFORNIA, Lake, CA01, -123.074, 39.126, 3200, 75.4, M
LYTLE CREEK CALIFORNIA, San Bernardino, CA06, -117.480, 34.234, 2792, 74.1, M
MAD RIVER CALIFORNIA, Trinity, CA01, -123.524, 40.463, 2775, 68.7, M
MALIBU HILLS CALIFORNIA, Los Angeles, CA06, -118.633, 34.058, 1575, 72.0, M
MANZANITA LAKE CALIFORNIA, Shasta, CA02, -121.580, 40.540, 5660, 63.4, M
MILL CREEK (BDF) CALIFORNIA, San Bernardino, CA06, -117.035, 34.084, 2950, 76.8, M
MCGUIRES CALIFORNIA, Mendocino, CA01, -123.601, 39.353, 593, 64.2, M
MEANS LAKE CALIFORNIA, San Bernardino, CA07, -116.517, 34.391, 2900, 85.9, M
MENDOCINO PASS CALIFORNIA, Mendocino, CA01, -122.945, 39.808, 5420, 70.4, M
METCALF GAP CALIFORNIA, Madera, CA05, -119.768, 37.409, 3077, 83.6, M
MID HILLS CALIFORNIA, San Bernardino, CA07, -115.411, 35.123, 5413, 77.9, M
MILL CREEK (ANF) CALIFORNIA, Los Angeles, CA06, -118.082, 34.390, 5021, 73.3, M
MILO CALIFORNIA, Tulare, CA05, -118.869, 36.231, 1923, 84.1, M
MALLORY RIDGE CALIFORNIA, Contra Costa, CA05, -121.779, 37.817, 2040, 76.4, M
MONTECITO CALIFORNIA, Santa Barbara, CA06, -119.648, 34.461, 1500, 69.0, M
MORMON ROCK CALIFORNIA, San Bernardino, CA06, -117.502, 34.318, 3300, 73.1, M
MOUNTAIN REST CALIFORNIA, Fresno, CA05, -119.371, 37.054, 4100, 77.8, M
MARKLEEVILLE CALIFORNIA, Alpine, CA03, -119.767, 38.683, 5501, 68.7, M
MT. SHASTA CALIFORNIA, Siskiyou, CA02, -122.316, 41.316, -, 70.6, M
MARIPOSA CALIFORNIA, Mariposa, CA05, -119.987, 37.504, 2231, 78.2, M
MOUNT ZION CALIFORNIA, Amador, CA05, -120.651, 38.389, 2960, 80.1, M
NORTH FORK CALIFORNIA, Madera, CA05, -119.505, 37.233, 2720, 81.0, M
OAK KNOLL CALIFORNIA, Siskiyou, CA01, -122.850, 41.839, 1940, 74.6, M
OAK MOUNTAIN CALIFORNIA, Shasta, CA02, -121.983, 41.006, 1700, 78.8, M
OAK CREEK CALIFORNIA, Inyo, CA07, -118.259, 36.843, 4855, 82.9, M
OAK GROVE CALIFORNIA, San Diego, CA06, -116.795, 33.393, 2752, 75.9, M
OAKLAND NORTH CALIFORNIA, Contra Costa, CA04, -122.221, 37.865, 1403, 62.2, M
OAK OPENING CALIFORNIA, Tulare, CA05, -118.702, 36.175, 3240, 80.6, M
OAKLAND SOUTH CALIFORNIA, Alameda, CA04, -122.145, 37.786, 1095, 63.5, M
OPAL MOUNTAIN CALIFORNIA, San Bernardino, CA07, -117.176, 35.154, 3240, 84.3, M
OWENS CAMP LOC CALIFORNIA, El Dorado, CA02, -120.245, 38.733, 5240, 67.8, M
OWENS VALLEY CALIFORNIA, Inyo, CA07, -118.551, 37.390, 4640, 82.3, M
OZENA CALIFORNIA, Ventura, CA06, -119.354, 34.682, 3670, 75.3, M
PARKFIELD CALIFORNIA, Monterey, CA04, -120.432, 35.899, 1535, 74.2, M
PATTY MOCUS CALIFORNIA, Tehama, CA02, -122.867, 40.295, 3500, 77.5, M
PINE HILLS CALIFORNIA, San Diego, CA06, -116.634, 33.016, -, 72.9, M
PIERCE CALIFORNIA, Plumas, CA02, -120.642, 40.246, 5700, 69.0, M
PINEHURST CALIFORNIA, Fresno, CA05, -119.000, 36.685, 4060, 76.2, M
PIKE COUNTY LOOKOUT CALIFORNIA, Yuba, CA02, -121.202, 39.475, 3714, 75.7, M
PILOT HILL CALIFORNIA, El Dorado, CA02, -121.009, 38.833, 1200, 77.3, M
PARK RIDGE CALIFORNIA, Tulare, CA05, -118.942, 36.724, 7540, 66.2, M
PINNACLES CALIFORNIA, San Benito, CA04, -121.147, 36.471, 1322, 74.0, M
POPPY PARK CALIFORNIA, Los Angeles, CA07, -118.383, 34.733, 2760, 82.0, M
POTRERO CALIFORNIA, San Diego, CA06, -116.609, 32.606, 2345, 72.0, M
POVERTY CALIFORNIA, Santa Clara, CA04, -121.771, 37.443, 2066, 71.6, M
PANOCHE ROAD CALIFORNIA, Fresno, CA05, -120.766, 36.727, 2032, 82.3, M
PULGAS CALIFORNIA, San Mateo, CA04, -122.298, 37.475, 644, 68.0, M
QUARTZ HILL CALIFORNIA, Siskiyou, CA01, -122.934, 41.599, 4225, 75.2, M
QUINCY RD CALIFORNIA, Plumas, CA02, -120.942, 39.973, 3500, 71.8, M
RAVENDALE CALIFORNIA, Lassen, CA03, -120.316, 40.731, 5298, 69.9, M
RANCHITA CALIFORNIA, San Diego, CA07, -116.497, 33.222, 4415, 79.2, M
READER RANCH CALIFORNIA, Nevada, CA02, -121.117, 39.304, 1968, 80.2, M
REDDING AIRPORT CALIFORNIA, Shasta, CA02, -122.291, 40.516, 500, 83.5, M
RICE VALLEY CALIFORNIA, Riverside, CA07, -114.732, 34.061, 820, 95.7, M
ROCK CREEK, Mono, CA07, -118.667, 37.551, 7040, 68.3, M
RODEO VALLEY, Mendocino, CA01, -123.321, 39.668, 2428, 73.2, M
ROSE VALLEY CALIFORNIA, Ventura, CA06, -119.184, 34.543, 3331, 66.7, M
ROUND MOUNTAIN, Siskiyou, CA02, -121.464, 41.427, 5258, 72.2, M
ROSE PEAK CALIFORNIA, Alameda, CA04, -121.735, 37.502, 3060, 73.3, M
RUSH CREEK CALIFORNIA, Modoc, CA02, -120.864, 41.294, 4800, 71.8, M
RUTH CALIFORNIA, Trinity, CA01, -123.316, 40.251, 2732, 69.3, M
SANTA ROSA ISLAND CALIFORNIA, Santa Barbara, CA06, -120.078, 33.978, 1298, 59.6, M
SANTA ROSA PLATEAU CALIFORNIA, Riverside, CA06, -117.231, 33.529, 1980, 74.0, M
SANTA ROSA CALIFORNIA, Sonoma, CA01, -122.712, 38.479, 576, 66.7, M
STAMPEDE CALIFORNIA, Sierra, CA03, -120.075, 39.483, 6867, 64.9, M
STONYFORD CALIFORNIA, Colusa, CA02, -122.575, 39.367, 1200, 80.9, M
SPRING VALLEY CALIFORNIA, San Mateo, CA04, -122.436, 37.563, 1075, 59.2, M
TANBARK CALIFORNIA, Los Angeles, CA06, -117.761, 34.207, 2600, 75.5, M
TEMESCAL (LPF) CALIFORNIA, Ventura, CA06, -118.756, 34.481, 1140, 74.4, M
THOMES CREEK CALIFORNIA, Tehama, CA02, -122.610, 39.864, 1040, 85.3, M
TIMBER MOUNTAIN CALIFORNIA, Modoc, CA01, -121.298, 41.629, 4960, 71.5, M
LAS TRAMPAS CALIFORNIA, Contra Costa, CA04, -122.067, 37.834, 1760, 70.3, M
TRINITY CAMP CALIFORNIA, Trinity, CA01, -122.804, 40.786, 3308, 75.2, M
TRIMMER CALIFORNIA, Fresno, CA05, -119.305, 36.911, 1540, 82.9, M
UHL / HOT SPRINGS, Tulare, CA05, -118.633, 35.889, 3720, 76.0, M
UNDERWOOD CALIFORNIA, Trinity, CA01, -123.495, 40.722, 2600, 73.7, M
VALLEY CENTER CALIFORNIA, San Diego, CA06, -117.009, 33.237, 1483, 73.7, M
VAN BREMMER CALIFORNIA, Siskiyou, CA01, -121.794, 41.643, 4928, 70.2, M
VALYERMO CALIFORNIA, Los Angeles, CA07, -117.851, 34.446, 3780, 77.3, M
VANDENBERG CALIFORNIA, Santa Barbara, CA06, -120.486, 34.759, 1050, 61.3, M
WALKER CALIFORNIA, Mono, CA03, -119.459, 38.565, 5440, 76.4, M
WALKER PASS CALIFORNIA, Kern, CA05, -118.057, 35.665, 5572, 77.5, M
WARM SPRINGS CALIFORNIA, Los Angeles, CA06, -118.579, 34.596, 4930, 77.4, M
WEED AIRPORT CALIFORNIA, Siskiyou, CA01, -122.454, 41.479, 2930, 74.3, M
WESTWOOD CALIFORNIA, Lassen, CA02, -120.900, 40.307, 5800, 69.9, M
WHITE CLOUD CALIFORNIA, Nevada, CA02, -120.837, 39.317, 4320, 75.8, M
WHITTIER HILLS CALIFORNIA, Los Angeles, CA06, -118.010, 33.984, 950, 74.0, M
WHITMORE CALIFORNIA, Shasta, CA02, -121.899, 40.619, 2417, 79.5, M
WILEY RIDGE CALIFORNIA, Ventura, CA06, -118.841, 34.372, 1645, 75.0, M
WOFFORD HEIGHTS CALIFORNIA, Kern, CA05, -118.499, 35.722, 3150, 79.1, M
WOLVERTON CALIFORNIA, Tulare, CA05, -118.703, 36.445, 5240, 76.4, M
WOODACRE CALIFORNIA, Marin, CA01, -122.645, 37.991, 1400, 67.3, M
WHITAKER PEAK CALIFORNIA, Los Angeles, CA06, -118.740, 34.569, 4120, 75.7, M
WHITE WOLF CALIFORNIA, Tuolumne, CA05, -119.650, 37.851, 8025, 60.2, M
YOLLA BOLLA CALIFORNIA, Trinity, CA01, -123.066, 40.338, 4524, 73.2, M
YUCCA VALLEY CALIFORNIA, San Bernardino, CA07, -116.408, 34.123, 3260, 82.3, M
YUROK CALIFORNIA, Humboldt, CA01, -123.857, 41.290, 495, 71.0, M
HAGAN'S MEADOW, El Dorado, CA03, -119.940, 38.850, 7776, 57.1, 0.10
BLUE LAKES, Alpine, CA05, -119.920, 38.610, 8057, 59.1, 0.50
POISON FLAT, Alpine, CA03, -119.630, 38.510, 7736, 58.1, 1.10
SONORA PASS, Mono, CA03, -119.600, 38.310, 8827, 59.3, 0.70
LEAVITT MEADOWS, Mono, CA03, -119.550, 38.300, 7198, 61.3, 0.50
VIRGINIA LAKES RIDGE, Mono, CA03, -119.230, 38.070, 9445, 61.7, 0.10
LOBDELL LAKE, Mono, CA03, -119.370, 38.440, 9233, 58.5, 0.20
EBBETTS PASS, Alpine, CA03, -119.800, 38.550, 8765, 59.8, 2.10
HEAVENLY VALLEY, El Dorado, CA03, -119.920, 38.920, 8582, 57.5, 0.10
LEAVITT LAKE, Mono, CA03, -119.610, 38.280, 9617, 58.6, 1.20
SPRATT CREEK, Alpine, CA03, -119.820, 38.670, 6115, 65.9, 0.50
MONITOR PASS, Alpine, CA03, -119.610, 38.670, 8310, 61.0, 0.80
BURNSIDE LAKE, Alpine, CA03, -119.890, 38.720, 8129, 55.0, 0.10
SUMMIT MEADOW, Mono, CA03, -119.540, 38.400, 9313, 59.5, 0.90
FORESTDALE CREEK, Alpine, CA03, -119.960, 38.680, 8017, 61.6, 0.60
HORSE MEADOW, Alpine, CA03, -119.890, 38.840, 8557, 61.0, 0.10
CARSON PASS, Alpine, CA02, -119.990, 38.690, 8353, 58.4, 0.30
CROWDER FLAT, Modoc, CA01, -120.750, 41.890, 5170, 65.0, 0.00
CEDAR PASS, Modoc, CA02, -120.300, 41.580, 7030, 64.8, 0.20
DISMAL SWAMP, Modoc, CA03, -120.180, 41.990, 7360, 58.4, 0.30
ADIN MTN, Modoc, CA02, -120.790, 41.240, 6190, 59.5, 0.10
INDEPENDENCE CREEK, Sierra, CA03, -120.280, 39.490, 6456, 59.9, 0.00
INDEPENDENCE CAMP, Sierra, CA03, -120.290, 39.450, 7003, 60.1, 0.00
INDEPENDENCE LAKE, Nevada, CA03, -120.310, 39.430, 8352, 63.4, 0.10
TRUCKEE #2, Placer, CA03, -120.180, 39.300, 6509, 65.6, 0.70
WARD CREEK #3, Placer, CA03, -120.220, 39.140, 6655, 59.6, 0.00
TAHOE CITY CROSS, Placer, CA03, -120.150, 39.170, 6797, 63.4, 0.00
SQUAW VALLEY G.C., Placer, CA03, -120.260, 39.190, 8029, 61.2, 0.00
CSS LAB, Nevada, CA02, -120.370, 39.330, 6855, 62.7, 0.20
RUBICON #2, El Dorado, CA03, -120.130, 39.000, 7689, 63.8, 0.00
ECHO PEAK, El Dorado, CA03, -120.080, 38.850, 7670, 62.7, 0.00
FALLEN LEAF, El Dorado, CA03, -120.050, 38.930, 6236, 60.1, 0.10
WASCO 0.8 SSW, Kern, CA05, -119.348, 35.583, 325, M, 0.00
NEVADA CITY 1.7 SSE, Nevada, CA02, -121.006, 39.238, 3168, M, 0.00
LA MESA 2.6E, San Diego, CA06, -116.979, 32.770, 1014, M, 0.00
CARLSBAD 1.3ENE, San Diego, CA06, -117.331, 33.166, 194, M, 0.00
RED BLUFF 4.9 SE, Tehama, CA02, -122.175, 40.124, 265, M, 0.00
CRESCENT CITY 7.8 NNE, Del Norte, CA01, -124.144, 41.862, 95, M, 0.00
SACRAMENTO NWR CALIFORNIA, Glenn, CA02, -122.182, 39.417, 120, 78.3, M
SADDLEBACK BUTTE CALIFORNIA, Los Angeles, CA07, -117.821, 34.685, 2590, 79.9, M
SAUGUS CALIFORNIA, Los Angeles, CA06, -118.525, 34.425, 1450, 76.0, M
SAWYERS BAR CALIFORNIA, Siskiyou, CA01, -123.132, 41.300, 2192, 76.2, M
SANTA BARBARA ISLAND CALIFORNI, Santa Barbara, CA06, -119.033, 33.483, 176, 63.7, M
SANTA CRUZ ISLAND CALIFORNIA, Santa Barbara, CA06, -119.722, 33.996, 250, 67.5, M
SCORPION CALIFORNIA, Trinity, CA01, -122.697, 41.112, 4400, 76.3, M
SODA CREEK CALIFORNIA, Lake, CA01, -122.977, 39.425, 1773, 74.1, M
SADDLEBACK CALIFORNIA, Sierra, CA02, -120.865, 39.638, 6670, 69.2, M
SECRET TOWN CALIFORNIA, Nevada, CA02, -120.885, 39.184, 2826, 76.9, M
SANTA FE DAM CALIFORNIA, Los Angeles, CA06, -117.946, 34.121, 500, 76.4, M
SHAVER CALIFORNIA, Fresno, CA05, -119.256, 37.135, 5746, 64.3, M
SCHOOL HOUSE CALIFORNIA, Humboldt, CA01, -123.906, 41.138, 2640, 65.8, M
SHIP MTN. CALIFORNIA, Del Norte, CA01, -123.792, 41.736, 5300, 66.0, M
SHADEQUARTER CALIFORNIA, Tulare, CA05, -118.956, 36.567, 4069, 78.6, M
SIMS CALIFORNIA, Shasta, CA02, -122.373, 41.075, 2400, 79.1, M
SLATER BUTTE CALIFORNIA, Siskiyou, CA01, -123.352, 41.859, 4670, 70.7, M
SAN MIGUEL CALIFORNIA, San Diego, CA06, -116.974, 32.685, 425, 71.7, M
SAN LUIS NWR CALIFORNIA, Merced, CA05, -120.794, 37.182, 65, 77.2, M
SANTA RITA CALIFORNIA, San Benito, CA05, -120.598, 36.348, 5000, 73.5, M
SOLDIER MOUNTAIN CALIFORNIA, Shasta, CA02, -121.586, 40.926, 3710, 75.7, M
SOMES BAR CALIFORNIA, Siskiyou, CA01, -123.496, 41.390, 920, 76.8, M
SQUAW SPRINGS CALIFORNIA, San Bernardino, CA07, -117.568, 35.370, 3620, 83.2, M
SQUAW LAKE CALIFORNIA, Imperial, CA07, -114.494, 32.908, 300, 97.0, M